# Time (s),Altitude (m),Vertical velocity (m/s),Vertical acceleration (m/s²),Total velocity (m/s),Total acceleration (m/s²),Position East of launch (m),Position North of launch (m),Lateral distance (m),Lateral direction (°),Lateral velocity (m/s),Lateral acceleration (m/s²),Latitude (°),Longitude (°),Gravitational acceleration (m/s²),Angle of attack (°),Roll rate (r/s),Pitch rate (r/s),Yaw rate (r/s),Mass (g),Propellant mass (g),Longitudinal moment of inertia (kg·m²),Rotational moment of inertia (kg·m²),CP location (in),CG location (in),Stability margin calibers (​),Mach number (​),Reynolds number (​),Thrust (N),Drag force (N),Drag coefficient (​),Axial drag coefficient (​),Friction drag coefficient (​),Pressure drag coefficient (​),Base drag coefficient (​),Normal force coefficient (​),Pitch moment coefficient (​),Yaw moment coefficient (​),Side force coefficient (​),Roll moment coefficient (​),Roll forcing coefficient (​),Roll damping coefficient (​),Pitch damping coefficient (​),Coriolis acceleration (m/s²),Reference length (in),Reference area (cm²),Vertical orientation (zenith) (°),Lateral orientation (azimuth) (°),Wind velocity (m/s),Air temperature (°C),Air pressure (mbar),Speed of sound (m/s),Simulation time step (s),Computation time (s)
0,0,0,-5.6763,0,5.7076,0,0,0,0,0,0.5966,28.61,-80.6,9.7922,84,0,0,0,40581,12346,60.972,0.31372,NaN,94.756,NaN,0.02362,1926311,163.58,0.0011716,0.54322,0.0014717,0.38093,0.042213,0.12007,NaN,NaN,NaN,NaN,NaN,NaN,NaN,NaN,0,6.2992,201.06,84,0,NaN,15,1013.2,340.39,0.01,0.0013858
0.01,0,0,61.573,0,61.913,0,0,0,0,0,6.4716,28.61,-80.6,9.7922,84,0,0,0,40581,12346,60.972,0.31372,NaN,94.756,NaN,0.023463,1913492,2907.7,0.001157,0.54369,0.001473,0.38141,0.042213,0.12007,NaN,NaN,NaN,NaN,NaN,NaN,NaN,NaN,0,6.2992,201.06,84,0,NaN,15,1013.2,340.39,0.01,0.0017052
0.02,0.0030793,0.6159,90.45,0.61929,90.949,3.2365e-4,0,3.2365e-4,0,0.064734,9.5067,28.61,-80.6,9.7922,79.596,0,0,0,40570,12334,60.962,0.31362,NaN,94.746,NaN,0.023565,1921856,4084.9,0.0057881,0.54338,0.0073047,0.3811,0.042213,0.12007,NaN,NaN,NaN,NaN,NaN,NaN,NaN,NaN,7.942e-5,6.2992,201.06,84,0,NaN,15,1013.2,340.39,0.01,0.0019663
0.03,0.013763,1.5208,89.063,1.5292,89.553,0.0014465,0,0.0014465,0,0.15985,9.3609,28.61,-80.6,9.7922,73.288,0,0,0,40549,12313,60.944,0.31341,NaN,94.727,NaN,0.024037,1960312,4026.2,0.023092,0.54198,0.02801,0.37969,0.042214,0.12008,NaN,NaN,NaN,NaN,NaN,NaN,NaN,NaN,1.9611e-4,6.2992,201.06,84,0,NaN,15,1013.2,340.39,0.01,0.0022215
0.04,0.033426,2.4119,88.815,2.4252,89.304,0.0035132,0,0.0035132,0,0.2535,9.3348,28.61,-80.6,9.7922,67.378,0,0,0,40525,12290,60.923,0.31317,NaN,94.706,NaN,0.024771,2020183,4013.8,0.056144,0.53987,0.064125,0.37758,0.042214,0.12008,NaN,NaN,NaN,NaN,NaN,NaN,NaN,NaN,3.1102e-4,6.2992,201.06,84,0,NaN,15,1013.2,340.39,0.01,0.0024981
0.05,0.061988,3.3005,89.02,3.3187,89.511,0.0065152,0,0.0065152,0,0.3469,9.3564,28.61,-80.6,9.7922,61.878,0,0,0,40502,12266,60.903,0.31293,NaN,94.685,NaN,0.025749,2099907,4019.9,0.10742,0.53718,0.11356,0.37488,0.042215,0.12009,NaN,NaN,NaN,NaN,NaN,NaN,NaN,NaN,4.256e-4,6.2992,201.06,84,0,NaN,15,1013.2,340.39,0.01,0.0027223
0.06,0.099446,4.1912,89.947,4.2143,90.442,0.010452,0,0.010452,0,0.44051,9.4538,28.61,-80.6,9.7922,57.117,0,0,0,40479,12243,60.882,0.31269,NaN,94.664,NaN,0.027231,2220788,4055.4,0.17759,0.53334,0.16785,0.37103,0.042217,0.1201,NaN,NaN,NaN,NaN,NaN,NaN,NaN,NaN,5.4045e-4,6.2992,201.06,84,0,NaN,14.999,1013.2,340.39,0.01,0.0029898
0.07,0.14586,5.0912,91.049,5.1192,91.551,0.01533,0,0.01533,0,0.5351,9.5696,28.61,-80.6,9.7922,52.83,0,0,0,40455,12220,60.861,0.31245,NaN,94.643,NaN,0.028898,2356719,4098,0.26762,0.52933,0.2246,0.36701,0.042219,0.12011,NaN,NaN,NaN,NaN,NaN,NaN,NaN,NaN,6.565e-4,6.2992,201.06,84,0,NaN,14.999,1013.2,340.39,0.01,0.0032401
0.08,0.20132,6.0021,92.153,6.0352,92.66,0.02116,0,0.02116,0,0.63085,9.6856,28.61,-80.6,9.7922,48.983,0,0,0,40432,12196,60.84,0.31221,NaN,94.622,NaN,0.03073,2506110,4140.5,0.37771,0.52526,0.28032,0.36291,0.042221,0.12012,NaN,NaN,NaN,NaN,NaN,NaN,NaN,NaN,7.7397e-4,6.2992,201.06,84,0,NaN,14.999,1013.2,340.39,0.01,0.0034209
0.09,0.26595,6.9241,93.09,6.9623,93.602,0.027953,0,0.027953,0,0.72775,9.7841,28.61,-80.6,9.7922,45.542,0,0,0,40408,12173,60.82,0.31197,NaN,94.6,NaN,0.032707,2667362,4176.3,0.50761,0.52119,0.33256,0.35883,0.042224,0.12014,NaN,NaN,NaN,NaN,NaN,NaN,NaN,NaN,8.9286e-4,6.2992,201.06,84,0,NaN,14.998,1013.2,340.39,0.01,0.0035911
0.1,0.33985,7.8555,93.04,7.8988,93.552,0.03572,0,0.03572,0,0.82565,9.7789,28.61,-80.6,9.7922,42.472,0,0,0,40385,12149,60.799,0.31173,NaN,94.579,NaN,0.034809,2838786,4172,0.65663,0.5172,0.3798,0.35482,0.042226,0.12016,NaN,NaN,NaN,NaN,NaN,NaN,NaN,NaN,0.001013,6.2992,201.06,84,0,NaN,14.998,1013.2,340.39,0.01,0.0037528
0.11,0.42306,8.7864,93.327,8.8348,93.841,0.044465,0,0.044465,0,0.92349,9.809,28.61,-80.6,9.7922,39.418,0,0,0,40361,12125,60.778,0.31148,NaN,94.557,NaN,0.036774,2998982,4181.4,0.82367,0.51374,0.42688,0.35134,0.042229,0.12018,NaN,NaN,NaN,NaN,NaN,NaN,NaN,NaN,0.001133,6.2992,201.06,84,0,NaN,14.997,1013.2,340.39,0.01,0.0044239
0.12,0.51559,9.7201,93.859,9.7737,94.376,0.054191,0,0.054191,0,1.0216,9.8649,28.61,-80.6,9.7922,36.673,0,0,0,40337,12101,60.757,0.31124,NaN,94.535,NaN,0.038839,3167375,4200.7,1.0134,0.51374,0.47085,0.35132,0.042232,0.1202,NaN,NaN,NaN,NaN,NaN,NaN,NaN,NaN,0.0012534,6.2992,201.06,84,0,NaN,14.997,1013.2,340.39,0.01,0.0046626
0.13,0.61749,10.659,94.391,10.718,94.911,0.064901,0,0.064901,0,1.1203,9.9209,28.61,-80.6,9.7922,34.197,0,0,0,40313,12077,60.735,0.31099,NaN,94.514,NaN,0.040998,3343353,4220,1.2211,0.51376,0.50918,0.35131,0.042236,0.12022,NaN,NaN,NaN,NaN,NaN,NaN,NaN,NaN,0.0013745,6.2992,201.06,84,0,NaN,14.996,1013.2,340.39,0.01,0.0049641
0.14,0.7288,11.604,94.923,11.668,95.446,0.0766,0,0.0766,0,1.2196,9.9768,28.61,-80.6,9.7922,31.962,0,0,0,40289,12054,60.714,0.31075,NaN,94.492,NaN,0.043238,3526024,4239.3,1.4458,0.51378,0.54204,0.3513,0.042239,0.12024,NaN,NaN,NaN,NaN,NaN,NaN,NaN,NaN,0.0014963,6.2992,201.06,84,0,NaN,14.995,1013.2,340.39,0.01,0.0052743
0.15,0.84959,12.553,95.455,12.622,95.981,0.089295,0,0.089295,0,1.3194,10.033,28.61,-80.6,9.7922,29.94,0,0,0,40265,12030,60.693,0.3105,NaN,94.47,NaN,0.045551,3714634,4258.5,1.6868,0.51381,0.56981,0.3513,0.042243,0.12027,NaN,NaN,NaN,NaN,NaN,NaN,NaN,NaN,0.0016187,6.2992,201.06,84,0,NaN,14.994,1013.2,340.39,0.01,0.0055834
0.16,0.9799,13.508,95.988,13.583,96.517,0.10299,0,0.10299,0,1.4198,10.089,28.61,-80.6,9.7922,28.792,0,0,0,40241,12006,60.672,0.31025,NaN,94.448,NaN,0.048324,3940745,4277.8,1.9476,0.51384,0.58457,0.35129,0.042248,0.1203,NaN,NaN,NaN,NaN,NaN,NaN,NaN,NaN,0.0017419,6.2992,201.06,84,0,NaN,14.994,1013.1,340.39,0.01,0.0059317
0.17,1.1198,14.469,96.521,14.548,97.053,0.11769,0,0.11769,0,1.5207,10.145,28.61,-80.6,9.7922,27.76,0,0,0,40218,11982,60.65,0.31001,NaN,94.426,NaN,0.051129,4169395,4297.1,2.227,0.51387,0.59711,0.35128,0.042255,0.12034,NaN,NaN,NaN,NaN,NaN,NaN,NaN,NaN,0.0018657,6.2992,201.06,84,0,NaN,14.993,1013.1,340.38,0.01,0.0061033
0.18,1.2693,15.434,96.9,15.519,97.434,0.13341,0,0.13341,0,1.6222,10.185,28.61,-80.6,9.7922,26.829,0,0,0,40194,11958,60.629,0.30976,NaN,94.405,NaN,0.053962,4400393,4310.2,2.525,0.51391,0.6078,0.35127,0.042263,0.12038,NaN,NaN,NaN,NaN,NaN,NaN,NaN,NaN,0.0019903,6.2992,201.06,84,0,NaN,14.992,1013.1,340.38,0.01,0.006289
0.19,1.4285,16.404,96.661,16.494,97.193,0.15014,0,0.15014,0,1.7241,10.159,28.61,-80.6,9.7922,25.986,0,0,0,40170,11934,60.607,0.30952,NaN,94.383,NaN,0.056819,4633250,4298.3,2.8413,0.51395,0.6169,0.35125,0.042272,0.12042,NaN,NaN,NaN,NaN,NaN,NaN,NaN,NaN,0.0021153,6.2992,201.06,84,0,NaN,14.991,1013.1,340.38,0.01,0.0066049
0.2,1.5974,17.371,96.799,17.467,97.332,0.16789,0,0.16789,0,1.8258,10.174,28.61,-80.6,9.7922,25.226,0,0,0,40146,11910,60.586,0.30927,NaN,94.361,NaN,0.05968,4866484,4301.6,3.1737,0.51399,0.6246,0.35124,0.042281,0.12046,NaN,NaN,NaN,NaN,NaN,NaN,NaN,NaN,0.00224,6.2992,201.06,84,0,NaN,14.99,1013.1,340.38,0.01,0.0068894
0.21,1.7759,18.339,97.153,18.441,97.688,0.18666,0,0.18666,0,1.9276,10.211,28.61,-80.6,9.7922,24.291,0,0,0,40122,11886,60.565,0.30902,NaN,94.339,NaN,0.062398,5088051,4313.7,3.518,0.51403,0.63337,0.35123,0.04229,0.12051,NaN,NaN,NaN,NaN,NaN,NaN,NaN,NaN,0.0023649,6.2992,201.06,84,0,NaN,14.988,1013,340.38,0.01,0.0071734
0.22,1.9642,19.312,97.508,19.418,98.045,0.20644,0,0.20644,0,2.0297,10.248,28.61,-80.6,9.7922,23.43,0,0,0,40098,11862,60.543,0.30878,NaN,94.316,NaN,0.065141,5311634,4325.8,3.8785,0.51407,0.64071,0.35122,0.042299,0.12055,NaN,NaN,NaN,NaN,NaN,NaN,NaN,NaN,0.0024902,6.2992,201.06,84,0,NaN,14.987,1013,340.38,0.01,0.0074513
0.23,2.1622,20.287,97.862,20.399,98.401,0.22725,0,0.22725,0,2.1323,10.286,28.61,-80.6,9.7922,22.635,0,0,0,40074,11838,60.522,0.30853,NaN,94.294,NaN,0.067907,5537096,4337.9,4.255,0.51411,0.64684,0.35121,0.042309,0.1206,NaN,NaN,NaN,NaN,NaN,NaN,NaN,NaN,0.002616,6.2992,201.06,84,0,NaN,14.986,1013,340.38,0.01,0.0077147
0.24,2.3699,21.266,98.216,21.383,98.757,0.24909,0,0.24909,0,2.2352,10.323,28.61,-80.6,9.7922,21.9,0,0,0,40050,11814,60.5,0.30828,NaN,94.272,NaN,0.070695,5764320,4349.9,4.6477,0.51416,0.65192,0.35119,0.042319,0.12065,NaN,NaN,NaN,NaN,NaN,NaN,NaN,NaN,0.0027423,6.2992,201.06,84,0,NaN,14.985,1013,340.38,0.01,0.0078714
0.25,2.5875,22.249,98.571,22.371,99.114,0.27196,0,0.27196,0,2.3384,10.36,28.61,-80.6,9.7922,21.218,0,0,0,40026,11791,60.478,0.30804,NaN,94.25,NaN,0.073504,5993206,4362,5.0564,0.51421,0.65609,0.35118,0.042329,0.1207,NaN,NaN,NaN,NaN,NaN,NaN,NaN,NaN,0.002869,6.2992,201.06,84,0,NaN,14.983,1012.9,340.38,0.01,0.0080418
0.26,2.8149,23.235,98.926,23.363,99.471,0.29586,0,0.29586,0,2.4421,10.398,28.61,-80.6,9.7922,20.282,0,0,0,40002,11767,60.457,0.30779,NaN,94.228,NaN,0.076133,6207443,4374.1,5.4642,0.51426,0.6609,0.35116,0.042339,0.12075,NaN,NaN,NaN,NaN,NaN,NaN,NaN,NaN,0.0029961,6.2992,201.06,84,0,NaN,14.982,1012.9,340.38,0.01,0.0082168
0.27,3.0522,24.225,99.281,24.358,99.827,0.3208,0,0.3208,0,2.5461,10.435,28.61,-80.6,9.7922,19.406,0,0,0,39978,11743,60.435,0.30754,NaN,94.206,NaN,0.078791,6424019,4386.2,5.8834,0.51431,0.66443,0.35115,0.042349,0.12081,NaN,NaN,NaN,NaN,NaN,NaN,NaN,NaN,0.0031238,6.2992,201.06,84,0,NaN,14.98,1012.9,340.38,0.01,0.008463
0.28,3.2994,25.218,99.636,25.357,100.18,0.34678,0,0.34678,0,2.6505,10.472,28.61,-80.6,9.7922,18.586,0,0,0,39954,11719,60.414,0.3073,NaN,94.184,NaN,0.081476,6642795,4398.3,6.3137,0.51436,0.66683,0.35113,0.04236,0.12086,NaN,NaN,NaN,NaN,NaN,NaN,NaN,NaN,0.0032519,6.2992,201.06,84,0,NaN,14.979,1012.9,340.38,0.01,0.0086171
0.29,3.5566,26.215,99.991,26.359,100.54,0.37381,0,0.37381,0,2.7553,10.509,28.61,-80.6,9.7922,17.816,0,0,0,39930,11695,60.392,0.30705,NaN,94.161,NaN,0.084186,6863647,4410.3,6.755,0.51441,0.66824,0.35112,0.042371,0.12092,NaN,NaN,NaN,NaN,NaN,NaN,NaN,NaN,0.0033804,6.2992,201.06,84,0,NaN,14.977,1012.8,340.37,0.01,0.0089446
0.3,3.8237,27.215,100.34,27.365,100.89,0.40189,0,0.40189,0,2.8604,10.546,28.61,-80.6,9.7922,17.091,0,0,0,39907,11671,60.37,0.3068,NaN,94.139,NaN,0.086921,7086467,4422.2,7.2068,0.51447,0.6688,0.3511,0.042382,0.12098,NaN,NaN,NaN,NaN,NaN,NaN,NaN,NaN,0.0035094,6.2992,201.06,84,0,NaN,14.975,1012.8,340.37,0.01,0.0092457
0.31,4.1009,28.219,100.68,28.375,101.24,0.43102,0,0.43102,0,2.966,10.582,28.61,-80.6,9.7922,16.942,0,0,0,39883,11647,60.348,0.30656,NaN,94.117,NaN,0.090028,7339566,4433.7,7.7319,0.51453,0.66889,0.35108,0.042395,0.12105,NaN,NaN,NaN,NaN,NaN,NaN,NaN,NaN,0.0036388,6.2992,201.06,84,0,NaN,14.973,1012.8,340.37,0.01,0.009538
0.32,4.3881,29.227,101.02,29.388,101.58,0.46121,0,0.46121,0,3.0718,10.618,28.61,-80.6,9.7922,16.8,0,0,0,39859,11623,60.327,0.30631,NaN,94.094,NaN,0.093145,7593482,4445.3,8.2766,0.5146,0.66892,0.35106,0.042409,0.12113,NaN,NaN,NaN,NaN,NaN,NaN,NaN,NaN,0.0037687,6.2992,201.06,84,0,NaN,14.971,1012.7,340.37,0.01,0.0098219
0.33,4.6855,30.237,101.36,30.404,101.92,0.49246,0,0.49246,0,3.1781,10.654,28.61,-80.6,9.7922,16.666,0,0,0,39835,11599,60.305,0.30606,NaN,94.072,NaN,0.096272,7848212,4456.9,8.8411,0.51467,0.6689,0.35104,0.042423,0.1212,NaN,NaN,NaN,NaN,NaN,NaN,NaN,NaN,0.0038991,6.2992,201.06,84,0,NaN,14.97,1012.7,340.37,0.01,0.010104
0.34,4.9929,31.251,101.7,31.424,102.18,0.52478,0,0.52478,0,3.2847,9.959,28.61,-80.6,9.7922,16.539,0,0,0,39811,11575,60.283,0.30581,88.254,94.05,-0.92005,0.099409,8103753,4462.1,9.4255,0.51474,0.66883,0.35102,0.042437,0.12128,4.9303,-4.5356,4.0712e-4,0,0,0,0,0,0.0040298,6.2992,201.06,84,0,NaN,14.968,1012.7,340.37,0.015,0.010437
0.355,5.4731,32.777,101.21,32.956,101.69,0.57516,2.6176e-8,0.57516,2.6075e-6,3.4331,9.8059,28.61,-80.6,9.7922,16.148,0,-4.1332e-4,-1.1952e-8,39781,11545,60.256,0.30551,88.434,94.022,-0.8871,0.10397,8475130,4442.7,10.307,0.51525,0.66869,0.35099,0.042852,0.12141,4.7614,-4.2243,-2.5176e-4,0,0,0,0,-4.8464e-5,0.0042263,6.2992,201.06,84.001,4.6948e-7,NaN,14.964,1012.6,340.37,0.0225,0.010732
0.3775,6.2362,35.056,101.47,35.246,101.94,0.65489,1.6701e-7,0.65489,1.4611e-5,3.6534,9.7823,28.61,-80.6,9.7922,15.069,0,-0.0010055,1.6159e-8,39736,11500,60.215,0.30505,88.952,93.98,-0.79806,0.11037,8996300,4451.1,11.556,0.51604,0.66532,0.35094,0.043516,0.12158,4.308,-3.4376,4.8452e-4,0,0,0,0,-2.5453e-4,0.0045199,6.2992,201.06,84.007,4.2956e-7,NaN,14.959,1012.5,340.36,0.03375,0.011071
0.41125,7.4773,38.487,101.89,38.692,102.35,0.78375,6.2121e-7,0.78375,4.5413e-5,3.9826,9.736,28.61,-80.6,9.7922,13.663,0,-0.0017972,-1.6781e-8,39669,11434,60.154,0.30436,89.692,93.917,-0.67069,0.12006,9785145,4461.6,13.498,0.51726,0.65685,0.35086,0.044525,0.12187,3.7439,-2.5104,-4.8065e-4,0,0,0,0,-6.8719e-4,0.0049618,6.2992,201.06,84.024,1.8979e-6,NaN,14.951,1012.4,340.36,0.05,0.011364
0.46125,9.5292,43.593,102.37,43.821,102.82,0.99501,1.8761e-6,0.99501,1.0803e-4,4.4665,9.6085,28.61,-80.6,9.7921,11.998,0,-0.002756,-1.2514e-7,39571,11335,60.063,0.30335,90.672,93.824,-0.50029,0.13462,1.097e7,4470.6,16.593,0.51914,0.64237,0.35073,0.046048,0.12236,3.1171,-1.5582,-2.8836e-4,0,0,0,0,-0.0012854,0.0056193,6.2992,201.06,84.065,6.204e-6,NaN,14.938,1012.1,340.35,0.05,0.011685
0.51125,11.837,48.724,102.21,48.974,102.64,1.2303,3.898e-6,1.2303,1.8154e-4,4.9422,9.3999,28.61,-80.6,9.7921,10.6,0,-0.0034939,-1.3893e-7,39453,11218,59.955,0.30214,91.598,93.713,-0.33566,0.14929,12163041,4453.6,19.932,0.52107,0.62761,0.35058,0.04759,0.1229,2.6257,-0.87987,1.2909e-4,0,0,0,0,-0.0016798,0.0062799,6.2992,201.06,84.122,2.7418e-5,NaN,14.923,1011.9,340.34,0.05,0.012191
0.56125,14.401,53.846,100.23,54.118,100.64,1.4892,6.7696e-6,1.4892,2.6046e-4,5.414,9.1739,28.61,-80.6,9.7921,8.8937,0,-0.0038516,0,39337,11102,59.847,0.30095,92.874,93.602,-0.11553,0.16357,13323553,4365.3,23.132,0.523,0.6069,0.35043,0.049098,0.12348,2.0704,-0.2379,4.7694e-4,0,0,0,0,-0.0017006,0.0069393,6.2992,201.06,84.189,4.0413e-5,NaN,14.906,1011.6,340.33,0.05,0.01254
0.61125,17.219,58.869,98.549,59.161,98.936,1.7712,1.0569e-5,1.7712,3.4187e-4,5.8669,8.7416,28.61,-80.6,9.7921,8.1673,0,-0.0039435,-3.5817e-7,39224,10988,59.741,0.29979,93.478,93.493,-0.0023753,0.17821,14511689,4289.7,27.096,0.52503,0.59917,0.35025,0.050651,0.12413,1.8492,-0.0033587,-2.9408e-4,0,0,0,0,-0.0015021,0.0075857,6.2992,201.06,84.259,6.6603e-5,NaN,14.888,1011.2,340.32,0.05,0.012906
0.66125,20.286,63.807,86.624,64.117,86.939,2.0754,1.5374e-5,2.0754,4.2443e-4,6.3001,7.3915,28.61,-80.6,9.7921,7.3292,0,-0.0038212,-2.8163e-7,39114,10878,59.637,0.29867,94.222,93.387,0.13257,0.19243,15665787,3812.5,31.093,0.52705,0.58988,0.35007,0.052169,0.12481,1.6053,0.21449,5.3354e-5,0,0,0,0,-0.0012097,0.008221,6.2992,201.06,84.329,1.0606e-4,NaN,14.868,1010.9,340.31,0.05,0.013468
0.71125,23.585,68.146,26.421,68.472,26.458,2.3997,2.1266e-5,2.3997,5.0775e-4,6.6697,1.3874,28.61,-80.6,9.7921,6.5984,0,-0.0034416,-6.3737e-7,39012,10777,59.542,0.29766,94.916,93.289,0.25836,0.20489,16675115,1446.1,34.765,0.52885,0.58201,0.34989,0.053504,0.12546,1.4026,0.36323,2.1358e-5,0,0,0,0,-8.6562e-4,0.0087792,6.2992,201.06,84.395,1.7901e-4,NaN,14.847,1010.5,340.3,0.05,0.013826
0.76125,27.025,69.47,9.6588,69.795,9.6739,2.7348,2.8288e-5,2.7348,5.9266e-4,6.7313,0.54081,28.61,-80.6,9.7921,6.9835,0,-0.0029935,-3.9719e-7,38946,10710,59.48,0.29705,94.551,93.225,0.21054,0.20913,17015767,788.58,36.572,0.52948,0.58787,0.34983,0.05396,0.12569,1.5085,0.31778,4.6033e-5,0,0,0,0,-6.2862e-4,0.0089485,6.2992,201.06,84.453,2.78e-4,NaN,14.824,1010.1,340.28,0.05,0.013995
0.81125,30.511,69.953,10.885,70.273,10.898,3.0706,3.6434e-5,3.0706,6.7983e-4,6.7003,0.52817,28.61,-80.6,9.7921,7.098,0,-0.0025852,-1.157e-7,38915,10680,59.454,0.29687,94.445,93.196,0.19815,0.21065,17133941,836.25,37.203,0.5297,0.58968,0.34981,0.054124,0.12577,1.5405,0.30581,-1.3849e-4,0,0,0,0,-4.6212e-4,0.0090096,6.2992,201.06,84.503,3.2408e-4,NaN,14.802,1009.7,340.27,0.05,0.014327
0.86125,34.022,70.497,12.157,70.813,12.16,3.405,4.568e-5,3.405,7.6865e-4,6.678,0.25524,28.61,-80.6,9.7921,6.665,0,-0.0021135,-1.3345e-7,38895,10659,59.438,0.29681,94.856,93.178,0.26629,0.21191,17231299,886.25,37.275,0.52989,0.58403,0.34979,0.054259,0.12584,1.4209,0.37848,-1.8718e-4,0,0,0,0,-3.0523e-4,0.0090785,6.2992,201.06,84.546,3.3135e-4,NaN,14.779,1009.3,340.25,0.05,0.014603
0.91125,37.562,71.105,13.433,71.417,13.433,3.7386,5.6013e-5,3.7386,8.5842e-4,6.6669,0.083292,28.61,-80.6,9.7921,6.4437,0,-0.0015622,-1.0877e-7,38875,10639,59.421,0.29675,95.073,93.16,0.3036,0.21355,17358851,936.25,37.663,0.53013,0.58136,0.34977,0.054435,0.12593,1.361,0.41311,-3.7859e-4,0,0,0,0,-1.6423e-4,0.0091557,6.2992,201.06,84.579,3.3701e-4,NaN,14.756,1008.8,340.24,0.05,0.014764
0.96125,41.134,71.777,14.679,72.085,14.679,4.0719,6.7419e-5,4.0719,9.4867e-4,6.6617,0.0089165,28.61,-80.6,9.7921,6.424,0,-9.7581e-4,-1.1848e-7,38854,10619,59.405,0.29669,95.093,93.142,0.30976,0.21554,17515382,984.98,38.357,0.53043,0.58142,0.34974,0.05465,0.12604,1.3558,0.42053,3.5734e-4,0,0,0,0,-6.2905e-5,0.0092411,6.2992,201.06,84.602,3.3677e-4,NaN,14.733,1008.4,340.23,0.05,0.015001
1.0113,44.741,72.511,15.064,72.816,15.064,4.4049,7.9883e-5,4.4049,0.0010391,6.6595,0.06529,28.61,-80.6,9.792,6.505,0,-3.7338e-4,-2.3038e-7,38832,10596,59.387,0.29663,95.015,93.122,0.30056,0.21781,17694158,1e3,39.25,0.53076,0.58286,0.3497,0.054895,0.12617,1.3776,0.41447,-3.781e-4,0,0,0,0,-9.0196e-6,0.0093346,6.2992,201.06,84.614,3.8441e-4,NaN,14.709,1008,340.21,0.05,0.015166
1.0613,48.386,73.265,15.069,73.566,15.07,4.7377,9.3394e-5,4.7377,0.0011295,6.6521,0.14941,28.61,-80.6,9.792,6.57,0,2.163e-4,2.7743e-7,38799,10563,59.36,0.29653,94.953,93.092,0.29537,0.22013,17877329,1e3,40.161,0.53111,0.58411,0.34967,0.055146,0.1263,1.3953,0.41254,1.9473e-4,0,0,0,0,2.9637e-6,0.0094305,6.2992,201.06,84.615,3.7972e-4,NaN,14.685,1007.6,340.2,0.05,0.015499
1.1113,52.068,74.019,15.068,74.317,15.069,5.0703,1.0794e-4,5.0703,0.0012197,6.6526,0.12535,28.61,-80.6,9.792,5.9195,0,9.0624e-4,1.0662e-7,38758,10522,59.327,0.29641,95.607,93.056,0.40496,0.2219,18014704,1e3,40.216,0.53137,0.5759,0.34964,0.055336,0.1264,1.2228,0.49535,-3.5078e-4,0,0,0,0,5.1204e-5,0.0095265,6.2992,201.06,84.605,3.3849e-4,NaN,14.662,1007.1,340.18,0.05,0.01581
1.1613,55.788,74.773,15.074,75.069,15.075,5.4031,1.2349e-4,5.4031,0.0013095,6.6599,0.16961,28.61,-80.6,9.792,5.7548,0,0.0016752,1.7658e-7,38717,10482,59.294,0.29629,95.78,93.019,0.43821,0.22406,18184138,1e3,40.861,0.5317,0.57416,0.3496,0.055569,0.12653,1.1803,0.51689,-3.0991e-4,0,0,0,0,1.7162e-4,0.0096226,6.2992,201.06,84.582,3.0095e-4,NaN,14.637,1006.7,340.17,0.05,0.016023
1.2113,59.545,75.527,15.081,75.821,15.082,5.7363,1.4004e-4,5.7363,0.0013987,6.6698,0.19737,28.61,-80.6,9.792,5.6393,0,0.002493,8.9106e-8,38676,10441,59.261,0.29617,95.903,92.983,0.4636,0.22627,18357408,1e3,41.573,0.53203,0.57307,0.34957,0.055808,0.12666,1.1508,0.53298,2.1725e-4,0,0,0,0,3.7272e-4,0.0097189,6.2992,201.06,84.545,2.8436e-4,NaN,14.613,1006.3,340.15,0.05,0.016219
1.2613,63.34,76.282,15.089,76.573,15.09,6.07,1.5756e-4,6.07,0.0014873,6.6774,0.16395,28.61,-80.6,9.792,5.6608,0,0.0033341,1.2814e-7,38636,10400,59.228,0.29605,95.882,92.946,0.46605,0.2286,1.854e7,1e3,42.463,0.53239,0.57372,0.34953,0.05606,0.12679,1.1564,0.53852,3.6951e-4,0,0,0,0,6.5321e-4,0.0098151,6.2992,201.06,84.492,2.8846e-4,NaN,14.588,1005.8,340.14,0.05,0.016517
1.3113,67.173,77.037,15.087,77.327,15.093,6.4042,1.7606e-4,6.4042,0.0015751,6.692,0.41991,28.61,-80.6,9.792,5.1191,0,0.0042346,2.3161e-7,38595,10359,59.194,0.29594,96.471,92.909,0.56544,0.2305,18688347,1e3,42.68,0.53267,0.56742,0.3495,0.056267,0.12691,1.0209,0.57658,5.2419e-5,0,0,0,0,0.0010365,0.0099115,6.2992,201.06,84.424,2.9927e-4,NaN,14.563,1005.4,340.12,0.05,0.016756
1.3613,71.044,77.791,15.086,78.081,15.1,6.7394,1.955e-4,6.7394,0.0016621,6.7191,0.65093,28.61,-80.6,9.792,4.6404,0,0.0051958,2.8641e-7,38554,10319,59.161,0.29582,97.018,92.872,0.65808,0.23247,18841861,1e3,42.995,0.53298,0.56221,0.34947,0.05648,0.12703,0.90553,0.5944,-2.9619e-4,0,0,0,0,0.0015342,0.010008,6.2992,201.06,84.339,2.9016e-4,NaN,14.538,1004.9,340.11,0.05,0.016917
1.4113,74.952,78.546,15.087,78.836,15.107,7.0763,2.159e-4,7.0763,0.0017481,6.7554,0.77847,28.61,-80.6,9.7919,4.3933,0,0.0061913,1.8839e-8,38514,10278,59.128,0.2957,97.31,92.835,0.71044,0.23463,1.901e7,1e3,43.593,0.5333,0.55984,0.34943,0.056715,0.12716,0.8476,0.59956,3.0123e-4,0,0,0,0,0.0021387,0.010105,6.2992,201.06,84.237,3.122e-4,NaN,14.513,1004.5,340.09,0.05,0.017197
1.4613,78.899,79.301,15.091,79.591,15.113,7.415,2.3725e-4,7.415,0.0018333,6.7949,0.81793,28.61,-80.6,9.7919,4.3477,0,0.0072141,5.1137e-8,38473,10237,59.094,0.29558,97.367,92.798,0.72525,0.23695,19191787,1e3,44.43,0.53366,0.55972,0.3494,0.056966,0.1273,0.83705,0.60407,-1.3508e-4,0,0,0,0,0.0028473,0.010201,6.2992,201.06,84.116,3.9208e-4,NaN,14.487,1004,340.08,0.05,0.017545
1.5113,82.882,80.056,15.09,80.347,15.121,7.7558,2.5957e-4,7.7558,0.0019175,6.8392,0.9605,28.61,-80.6,9.7919,4.1097,0,0.0082606,-2.8098e-8,38432,10196,59.061,0.29546,97.657,92.761,0.7772,0.23915,19362620,1e3,45.06,0.534,0.55756,0.34936,0.057205,0.12743,0.78248,0.60434,-3.9529e-5,0,0,0,0,0.0036655,0.010298,6.2992,201.06,83.977,4.617e-4,NaN,14.461,1003.5,340.06,0.05,0.01788
1.5613,86.904,80.811,15.089,81.104,15.128,8.0991,2.8285e-4,8.0991,0.002001,6.8912,1.087,28.61,-80.6,9.7919,3.9248,0,0.0093227,1.9886e-8,38391,10156,59.027,0.29534,97.887,92.724,0.81971,0.24139,19537577,1e3,45.763,0.53434,0.55603,0.34932,0.057449,0.12758,0.74078,0.60256,-4.5104e-5,0,0,0,0,0.0045826,0.010395,6.2992,201.06,83.819,5.5916e-4,NaN,14.435,1003.1,340.05,0.05,0.018198
1.6113,90.964,81.566,15.095,81.861,15.132,8.445,3.0714e-4,8.445,0.0020838,6.9446,1.0584,28.61,-80.6,9.7919,4.0701,0,0.010415,3.8827e-7,38351,10115,58.993,0.29522,97.709,92.687,0.79729,0.24391,19734150,1e3,46.858,0.53473,0.55792,0.34928,0.057723,0.12773,0.77357,0.61096,3.0096e-5,0,0,0,0,0.0056028,0.010492,6.2992,201.06,83.641,6.1238e-4,NaN,14.409,1002.6,340.03,0.05,0.018629
1.6613,95.061,82.321,15.097,82.618,15.138,8.7935,3.3242e-4,8.7935,0.0021659,6.9984,1.1117,28.61,-80.6,9.7919,4.066,0,0.011542,3.6937e-7,38310,10074,58.96,0.2951,97.716,92.649,0.80431,0.24633,19923138,1e3,47.801,0.53511,0.55827,0.34924,0.057987,0.12789,0.77268,0.61476,2.0764e-4,0,0,0,0,0.006746,0.010589,6.2992,201.06,83.444,6.5433e-4,NaN,14.382,1002.1,340.01,0.05,0.019078
1.7113,99.196,83.076,15.094,83.376,15.145,9.1449,3.5871e-4,9.1449,0.0022474,7.0575,1.2335,28.61,-80.6,9.7919,3.9472,0,0.01269,2.4223e-7,38269,10033,58.926,0.29498,97.865,92.612,0.83391,0.24868,20106112,1e3,48.623,0.53548,0.55744,0.3492,0.058243,0.12804,0.74591,0.61406,-1.1128e-4,0,0,0,0,0.0080027,0.010686,6.2992,201.06,83.226,7.2682e-4,NaN,14.355,1001.6,340,0.05,0.019421
1.7613,103.37,83.831,15.09,84.133,15.152,9.4993,3.8603e-4,9.4993,0.0023283,7.1208,1.3648,28.61,-80.6,9.7919,3.8298,0,0.013865,2.3414e-7,38228,9992.7,58.892,0.29486,98.014,92.574,0.86352,0.25106,20290596,1e3,49.461,0.53585,0.55665,0.34915,0.058502,0.12819,0.71973,0.61255,-3.3677e-4,0,0,0,0,0.0093744,0.010783,6.2992,201.06,82.987,8.065e-4,NaN,14.328,1001.1,339.98,0.05,0.019745
1.8113,107.58,84.586,15.07,84.892,15.168,9.8573,4.1439e-4,9.8573,0.0024087,7.1999,1.7212,28.61,-80.6,9.7918,3.3015,0,0.015016,4.3889e-7,38188,9951.9,58.858,0.29474,98.7,92.537,0.97841,0.25311,20448451,1e3,49.828,0.53617,0.55201,0.34912,0.058725,0.12833,0.60475,0.58067,3.9182e-4,0,0,0,0,0.010818,0.010881,6.2992,201.06,82.727,8.7539e-4,NaN,14.301,1000.6,339.97,0.05,0.020505
1.8613,111.83,85.34,15.071,85.65,15.17,10.219,4.4384e-4,10.219,0.0024884,7.2855,1.7255,28.61,-80.6,9.7918,3.4691,0,0.016184,5.021e-8,38147,9911.2,58.824,0.29462,98.481,92.499,0.9496,0.25576,20654818,1e3,51.031,0.53659,0.55396,0.34907,0.059015,0.1285,0.64073,0.59565,-1.8509e-4,0,0,0,0,0.012309,0.010978,6.2992,201.06,82.446,9.8274e-4,NaN,14.273,1000.1,339.95,0.05,0.020934
1.9113,116.11,86.094,15.065,86.409,15.177,10.586,4.744e-4,10.586,0.0025677,7.375,1.8416,28.61,-80.6,9.7918,3.4381,0,0.017385,9.272e-8,38106,9870.5,58.79,0.2945,98.523,92.461,0.96236,0.25827,2.085e7,1e3,52.024,0.53699,0.55409,0.34902,0.059289,0.12867,0.63408,0.59665,1.9252e-4,0,0,0,0,0.01393,0.011075,6.2992,201.06,82.144,0.0011016,NaN,14.245,999.63,339.93,0.05,0.02154
1.9613,120.44,86.847,15.059,87.168,15.182,10.957,5.0613e-4,10.957,0.0026466,7.4685,1.9331,28.61,-80.6,9.7918,3.4686,0,0.018622,3.8039e-7,38065,9829.7,58.756,0.29439,98.485,92.423,0.96233,0.26087,21051804,1e3,53.118,0.5374,0.55479,0.34898,0.059574,0.12885,0.6407,0.60123,-2.7121e-4,0,0,0,0,0.015668,0.011173,6.2992,201.06,81.82,0.0012066,NaN,14.217,999.12,339.91,0.05,0.021841
2.0113,124.8,87.6,15.03,87.927,15.2,11.333,5.3906e-4,11.333,0.0027253,7.5725,2.2669,28.61,-80.6,9.7918,3.0775,0,0.019857,5.2279e-7,38025,9789,58.722,0.29427,99.009,92.385,1.0515,0.2631,21223753,1e3,53.702,0.53775,0.5517,0.34894,0.059818,0.129,0.55764,0.56927,-2.1485e-4,0,0,0,0,0.017516,0.01127,6.2992,201.06,81.474,0.0012729,NaN,14.189,998.61,339.9,0.05,0.022127
2.0613,129.2,88.351,14.984,88.686,15.232,11.715,5.7323e-4,11.715,0.0028036,7.6988,2.7359,28.61,-80.6,9.7918,2.4463,0,0.020984,8.6359e-7,37984,9748.2,58.687,0.29415,99.899,92.347,1.1988,0.26512,21378443,1e3,54.051,0.53808,0.54714,0.3489,0.06004,0.12914,0.42934,0.49532,1.361e-4,0,0,0,0,0.019266,0.011368,6.2992,201.06,81.106,0.0013452,NaN,14.16,998.1,339.88,0.05,0.022589
2.1113,133.63,89.1,14.955,89.444,15.251,12.103,6.087e-4,12.103,0.0028816,7.8418,2.9874,28.61,-80.6,9.7918,2.2419,0,0.022029,8.7963e-7,37943,9707.5,58.653,0.29403,100.2,92.309,1.2528,0.26756,21566221,1e3,54.92,0.53847,0.54615,0.34885,0.060307,0.12931,0.38936,0.46666,-2.2867e-4,0,0,0,0,0.020849,0.011465,6.2992,201.06,80.719,0.0014371,NaN,14.131,997.58,339.86,0.05,0.022919
2.1613,138.11,89.847,14.917,90.202,15.276,12.499,6.4554e-4,12.499,0.0029591,7.9983,3.2916,28.61,-80.6,9.7918,1.9532,0,0.023016,7.3308e-7,37902,9666.8,58.618,0.29391,100.64,92.271,1.3284,0.26993,21748704,1e3,55.725,0.53885,0.54476,0.34881,0.060567,0.12947,0.33414,0.42184,-1.7631e-6,0,0,0,0,0.022365,0.011562,6.2992,201.06,80.313,0.0015304,NaN,14.102,997.05,339.84,0.05,0.02329
2.2113,142.62,90.592,14.866,90.96,15.311,12.903,6.8381e-4,12.903,0.0030364,8.1729,3.6629,28.61,-80.6,9.7917,1.5462,0,0.02387,8.8723e-7,37862,9626,58.584,0.29379,101.28,92.233,1.436,0.2722,21922604,1e3,56.451,0.53921,0.54298,0.34876,0.060816,0.12963,0.25883,0.34754,-1.5123e-4,0,0,0,0,0.023657,0.01166,6.2992,201.06,79.891,0.0016625,NaN,14.073,996.52,339.83,0.05,0.023584
2.2613,147.17,91.335,14.818,91.717,15.341,13.317,7.2361e-4,13.317,0.0031134,8.3625,3.9718,28.61,-80.6,9.7917,1.275,0,0.024628,1.1238e-6,37821,9585.3,58.549,0.29367,101.72,92.195,1.5124,0.27461,22107851,1e3,57.341,0.5396,0.5422,0.34872,0.061081,0.1298,0.21032,0.29325,4.4322e-5,0,0,0,0,0.024746,0.011757,6.2992,201.06,79.454,0.001793,NaN,14.043,995.99,339.81,0.05,0.023863
2.3113,151.75,92.074,14.738,92.472,15.399,13.74,7.6503e-4,13.74,0.0031902,8.5748,4.4643,28.61,-80.6,9.7917,0.62893,0,0.025109,3.2625e-6,37780,9544.5,58.515,0.29355,102.83,92.156,1.6945,0.27664,22262922,1e3,57.991,0.53993,0.54058,0.34868,0.061305,0.12995,0.10008,0.14469,2.2781e-5,0,0,0,0,0.025347,0.011855,6.2992,201.06,79.006,0.0019397,NaN,14.014,995.45,339.79,0.05,0.02412
2.3612,156.37,92.81,14.685,93.227,15.43,14.174,8.0819e-4,14.174,0.0032669,8.8042,4.7389,28.61,-80.6,9.7917,0.44435,0,0.025416,4.4558e-6,37739,9503.8,58.48,0.29343,103.16,92.118,1.7536,0.27915,22454947,1e3,59.021,0.54034,0.54067,0.34863,0.06158,0.13013,0.069967,0.096748,-2.1847e-4,0,0,0,0,0.025511,0.011952,6.2992,201.06,78.551,0.0020902,NaN,13.984,994.91,339.77,0.05,0.024279
2.4112,161.03,93.543,14.604,93.98,15.485,14.621,8.532e-4,14.621,0.0033435,9.052,5.1468,28.61,-80.6,9.7917,0.030864,0,-0.025477,8.1175e-5,37699,9463.1,58.445,0.29331,103.93,92.079,1.8821,0.28135,22622657,1e3,59.926,0.5407,0.5407,0.34859,0.061823,0.13029,0.0047446,0.034336,-4.5992e-4,0,0,0,0,-0.025237,0.012049,6.2992,201.06,78.093,0.0022076,NaN,13.953,994.36,339.75,0.05,0.024448
2.4612,165.73,94.272,14.538,94.731,15.524,15.08,9.0018e-4,15.08,0.0034202,9.3168,5.4441,28.61,-80.6,9.7917,0.25636,0,-0.025317,9.4138e-6,37658,9422.3,58.41,0.29319,103.51,92.04,1.8212,0.2838,2.281e7,1e3,60.999,0.5411,0.54121,0.34854,0.062093,0.13047,0.039936,0.097067,4.7802e-4,0,0,0,0,-0.024494,0.012146,6.2992,201.06,77.635,0.0023363,NaN,13.923,993.81,339.74,0.05,0.024607
2.5112,170.46,94.997,14.469,95.481,15.565,15.553,9.4924e-4,15.553,0.003497,9.5965,5.7356,28.61,-80.6,9.7917,0.46211,0,-0.025003,4.8857e-6,37617,9381.6,58.375,0.29307,103.14,92.002,1.7678,0.28627,22998950,1e3,62.104,0.54151,0.54186,0.34849,0.062366,0.13065,0.072854,0.15243,4.6852e-5,0,0,0,0,-0.023483,0.012243,6.2992,201.06,77.182,0.0024452,NaN,13.892,993.26,339.72,0.05,0.024762
2.5612,175.23,95.719,14.391,96.229,15.612,16.04,0.0010005,16.04,0.003574,9.8905,6.0532,28.61,-80.6,9.7916,0.71606,0,-0.024558,3.1718e-6,37576,9340.8,58.34,0.29295,102.69,91.963,1.7024,0.28867,23182398,1e3,63.22,0.5419,0.54275,0.34844,0.062631,0.13083,0.11455,0.21726,-3.8148e-4,0,0,0,0,-0.022281,0.01234,6.2992,201.06,76.736,0.0025405,NaN,13.861,992.7,339.7,0.05,0.024929
2.6112,180.03,96.436,14.268,96.975,15.694,16.542,0.0010541,16.542,0.0036511,10.206,6.5355,28.61,-80.6,9.7916,1.277,0,-0.023819,2.5102e-6,37536,9300.1,58.305,0.29284,101.73,91.924,1.557,0.29071,23336039,1e3,64.328,0.54224,0.54486,0.3484,0.062857,0.13099,0.21078,0.34842,4.6563e-4,0,0,0,0,-0.02067,0.012437,6.2992,201.06,76.3,0.0026383,NaN,13.83,992.14,339.68,0.05,0.025084
2.6612,184.87,97.147,14.158,97.718,15.766,17.061,0.0011102,17.061,0.0037283,10.543,6.9374,28.61,-80.6,9.7916,1.6656,0,-0.0228,1.9218e-6,37495,9259.4,58.27,0.29272,101.11,91.885,1.4639,0.29291,23502111,1e3,65.521,0.54261,0.54699,0.34835,0.063099,0.13115,0.28078,0.43005,3.3259e-4,0,0,0,0,-0.018657,0.012533,6.2992,201.06,75.88,0.0027037,NaN,13.798,991.57,339.66,0.05,0.025253
2.7112,189.75,97.853,14.059,98.458,15.83,17.597,0.0011688,17.597,0.0038056,10.898,7.277,28.61,-80.6,9.7916,1.9391,0,-0.021593,1.4379e-6,37454,9218.6,58.235,0.2926,100.68,91.846,1.4027,0.29519,23675487,1e3,66.738,0.54299,0.54886,0.34831,0.063353,0.13133,0.3317,0.48203,9.9903e-5,0,0,0,0,-0.016478,0.012629,6.2992,201.06,75.48,0.0027454,NaN,13.767,991,339.64,0.05,0.025406
2.7612,194.66,98.554,13.965,99.196,15.89,18.151,0.00123,18.151,0.0038828,11.27,7.582,28.61,-80.6,9.7916,2.1577,0,-0.020244,1.4526e-6,37414,9177.9,58.2,0.29248,100.35,91.807,1.3566,0.29751,23850760,1e3,67.963,0.54337,0.55059,0.34826,0.063609,0.13151,0.37339,0.5212,2.9555e-4,0,0,0,0,-0.01426,0.012725,6.2992,201.06,75.104,0.0027873,NaN,13.735,990.42,339.62,0.05,0.025561
2.8112,199.6,99.251,13.872,99.933,15.95,18.724,0.001294,18.724,0.0039598,11.656,7.8724,28.61,-80.6,9.7916,2.3602,0,-0.018785,7.8562e-7,37373,9137.1,58.164,0.29236,100.05,91.767,1.3155,0.29981,24024282,1e3,69.193,0.54376,0.55232,0.34821,0.063864,0.13168,0.41278,0.55483,4.5762e-4,0,0,0,0,-0.012094,0.012821,6.2992,201.06,74.752,0.0028009,NaN,13.703,989.84,339.6,0.05,0.02576
2.8612,204.58,99.942,13.758,100.67,16.031,19.317,0.0013609,19.317,0.0040366,12.06,8.2283,28.61,-80.6,9.7915,2.674,0,-0.017169,3.463e-7,37332,9096.4,58.129,0.29224,99.603,91.728,1.2501,0.30192,24183119,1e3,70.467,0.54411,0.55496,0.34817,0.064099,0.13185,0.47526,0.60454,-3.9802e-4,0,0,0,0,-0.0099622,0.012916,6.2992,201.06,74.428,0.0027701,NaN,13.67,989.26,339.58,0.05,0.025915
2.9112,209.59,100.63,13.692,101.4,16.071,19.93,0.0014306,19.93,0.0041128,12.476,8.4151,28.61,-80.6,9.7915,2.7364,0,-0.015461,8.3522e-7,37291,9055.6,58.093,0.29212,99.517,91.689,1.2427,0.3043,24362499,1e3,71.653,0.54451,0.55585,0.34811,0.064362,0.13204,0.48794,0.61454,2.9881e-4,0,0,0,0,-0.0079541,0.013012,6.2992,201.06,74.135,0.0027538,NaN,13.638,988.67,339.56,0.05,0.026067
2.9612,214.64,101.31,13.602,102.13,16.135,20.564,0.0015033,20.564,0.0041884,12.903,8.6791,28.61,-80.6,9.7915,2.9308,0,-0.013673,6.9633e-7,37251,9014.9,58.058,0.292,99.247,91.649,1.2062,0.30647,24524976,1e3,72.886,0.54488,0.55778,0.34807,0.064603,0.13221,0.52778,0.64319,1.1205e-4,0,0,0,0,-0.0061339,0.013107,6.2992,201.06,73.872,0.0027369,NaN,13.605,988.08,339.54,0.05,0.026221
3.0112,219.73,101.99,13.492,102.86,16.22,21.221,0.001579,21.221,0.0042632,13.346,9.0031,28.61,-80.6,9.7915,3.2231,0,-0.011754,7.103e-7,37210,8974.2,58.022,0.29188,98.851,91.61,1.1496,0.30846,24672843,1e3,74.166,0.54522,0.56063,0.34802,0.064824,0.13237,0.58894,0.68131,4.0562e-4,0,0,0,0,-0.0044747,0.013202,6.2992,201.06,73.643,0.0027208,NaN,13.572,987.48,339.52,0.05,0.026373
3.0612,224.84,102.66,13.419,103.59,16.273,21.899,0.0016577,21.899,0.004337,13.801,9.2062,28.61,-80.6,9.7915,3.3548,0,-0.0097301,5.8569e-7,37169,8933.4,57.986,0.29176,98.677,91.57,1.1283,0.31059,24832005,1e3,75.359,0.54558,0.56219,0.34798,0.065062,0.13254,0.61704,0.69877,-2.2972e-4,0,0,0,0,-0.0030249,0.013297,6.2992,201.06,73.45,0.0027092,NaN,13.539,986.88,339.5,0.05,0.026526
3.1112,229.99,103.33,13.384,104.31,16.294,22.601,0.0017394,22.601,0.0044097,14.265,9.2925,28.61,-80.6,9.7915,3.3433,0,-0.0076404,1.3936e-6,37128,8892.7,57.95,0.29164,98.695,91.53,1.1374,0.31285,25001317,1e3,76.453,0.54597,0.56248,0.34793,0.065314,0.13272,0.6146,0.70058,-4.2495e-4,0,0,0,0,-0.0018385,0.013393,6.2992,201.06,73.293,0.0027343,NaN,13.505,986.28,339.48,0.05,0.026678
3.1612,235.18,104,13.391,105.04,16.278,23.326,0.0018244,23.326,0.0044813,14.727,9.2552,28.61,-80.6,9.7915,3.1848,0,-0.00557,1.416e-6,37088,8851.9,57.914,0.29152,98.909,91.49,1.1777,0.31527,25182581,1e3,77.453,0.54638,0.56148,0.34788,0.065583,0.13292,0.58095,0.68524,3.9716e-4,0,0,0,0,-9.623e-4,0.013488,6.2992,201.06,73.174,0.0027976,NaN,13.471,985.67,339.46,0.05,0.026831
3.2112,240.39,104.67,13.287,105.77,16.372,24.074,0.0019126,24.074,0.0045519,15.199,9.5655,28.61,-80.6,9.7914,3.517,0,-0.0034008,6.0435e-7,37047,8811.2,57.878,0.29141,98.47,91.45,1.1145,0.31697,25307042,1e3,78.711,0.54667,0.56483,0.34784,0.065773,0.13306,0.65211,0.72751,3.3431e-4,0,0,0,0,-3.5493e-4,0.013583,6.2992,201.06,73.094,0.0028273,NaN,13.437,985.06,339.44,0.05,0.026985
3.2612,245.64,105.33,13.282,106.49,16.373,24.846,0.0020041,24.846,0.0046215,15.679,9.5749,28.61,-80.6,9.7914,3.466,0,-0.0011447,6.3366e-7,37006,8770.5,57.842,0.29129,98.539,91.41,1.1317,0.31913,25466915,1e3,79.719,0.54704,0.56473,0.34779,0.066013,0.13324,0.64111,0.72571,4.5331e-4,0,0,0,0,-3.9673e-5,0.013679,6.2992,201.06,73.053,0.0028539,NaN,13.403,984.44,339.42,0.05,0.027138
3.3112,250.93,106,13.36,107.22,16.299,25.641,0.0020989,25.641,0.00469,16.152,9.336,28.61,-80.6,9.7914,3.113,0,0.0010733,4.9041e-7,36965,8729.7,57.806,0.29117,99.012,91.37,1.2132,0.32165,25655858,1e3,80.539,0.54748,0.56198,0.34773,0.066295,0.13345,0.56595,0.68671,-1.2118e-4,0,0,0,0,3.4339e-5,0.013775,6.2992,201.06,73.052,0.0028884,NaN,13.369,983.82,339.4,0.05,0.027401
3.3612,256.24,106.67,13.428,107.96,16.239,26.461,0.0021972,26.461,0.0047576,16.613,9.1325,28.61,-80.6,9.7914,2.8293,0,0.0031947,7.8211e-7,36925,8689,57.77,0.29105,99.405,91.33,1.2819,0.32405,25834783,1e3,81.41,0.54789,0.56004,0.34768,0.066563,0.13365,0.50717,0.64988,2.7632e-4,0,0,0,0,2.998e-4,0.013871,6.2992,201.06,73.091,0.0029371,NaN,13.334,983.2,339.38,0.05,0.027737
3.4112,261.59,107.34,13.46,108.69,16.215,27.303,0.002299,27.303,0.0048245,17.068,9.0414,28.61,-80.6,9.7914,2.7179,0,0.005281,8.3071e-7,36884,8648.2,57.734,0.29093,99.564,91.29,1.3135,0.32616,25990685,1e3,82.347,0.54826,0.55953,0.34763,0.066799,0.13383,0.4845,0.63586,-2.6709e-4,0,0,0,0,8.0874e-4,0.013967,6.2992,201.06,73.167,0.0030103,NaN,13.3,982.57,339.36,0.05,0.027997
3.4612,266.98,108.02,13.535,109.43,16.154,28.167,0.0024043,28.167,0.0048907,17.514,8.817,28.61,-80.6,9.7914,2.4521,0,0.0072873,7.4893e-7,36843,8607.5,57.697,0.29081,99.947,91.249,1.3808,0.32845,26160763,1e3,83.22,0.54866,0.55794,0.34758,0.067056,0.13402,0.43126,0.5944,2.9026e-4,0,0,0,0,0.0015187,0.014064,6.2992,201.06,73.28,0.0031092,NaN,13.265,981.94,339.34,0.05,0.028232
3.5112,272.39,108.7,13.594,110.17,16.112,29.054,0.0025133,29.054,0.0049564,17.952,8.6487,28.61,-80.6,9.7913,2.2825,0,0.0092256,1.1946e-6,36802,8566.8,57.661,0.29069,100.2,91.209,1.427,0.33057,26316257,1e3,84.118,0.54903,0.55714,0.34753,0.067293,0.13421,0.39796,0.56517,-3.6686e-4,0,0,0,0,0.0024033,0.014161,6.2992,201.06,73.429,0.0032331,NaN,13.229,981.3,339.32,0.05,0.028401
3.5612,277.85,109.38,13.701,110.91,16.027,29.962,0.0026261,29.962,0.0050218,18.376,8.3165,28.61,-80.6,9.7913,1.914,0,0.011003,2.3685e-6,36762,8526,57.624,0.29057,100.76,91.168,1.5221,0.33294,26492279,1e3,84.985,0.54944,0.55524,0.34747,0.067559,0.13441,0.32736,0.49465,-3.1215e-4,0,0,0,0,0.0033702,0.014258,6.2992,201.06,73.611,0.0034424,NaN,13.194,980.66,339.29,0.05,0.028567
3.6112,283.33,110.07,13.763,111.66,15.986,30.891,0.0027428,30.891,0.0050872,18.786,8.1307,28.61,-80.6,9.7913,1.7608,0,0.012615,3.4365e-6,36721,8485.3,57.588,0.29045,101,91.127,1.5667,0.33497,2.664e7,1e3,85.887,0.5498,0.55474,0.34743,0.067786,0.13459,0.29874,0.46395,1.3426e-4,0,0,0,0,0.0043777,0.014356,6.2992,201.06,73.824,0.0037528,NaN,13.158,980.02,339.27,0.05,0.028793
3.6612,288.85,110.76,13.782,112.41,15.984,31.841,0.0028636,31.841,0.0051529,19.193,8.0966,28.61,-80.6,9.7913,1.8291,0,0.014262,3.9391e-6,36680,8444.5,57.551,0.29033,100.89,91.087,1.5565,0.33662,26758271,1e3,86.785,0.55009,0.55541,0.34739,0.067971,0.13473,0.31146,0.47971,8.5271e-5,0,0,0,0,0.0055408,0.014454,6.2992,201.06,74.066,0.0041029,NaN,13.122,979.37,339.25,0.05,0.029065
3.7112,294.41,111.45,13.893,113.16,15.903,32.81,0.0029888,32.81,0.0052193,19.591,7.7385,28.61,-80.6,9.7913,1.4821,0,0.015827,3.3489e-6,36639,8403.8,57.514,0.29021,101.44,91.046,1.6506,0.33886,26922593,1e3,87.665,0.55048,0.55403,0.34733,0.068223,0.13493,0.24774,0.40209,4.3791e-4,0,0,0,0,0.0067349,0.014552,6.2992,201.06,74.337,0.0044636,NaN,13.086,978.72,339.23,0.05,0.029348
3.7612,300,112.15,14.065,113.91,15.77,33.799,0.0031186,33.799,0.0052866,19.962,7.132,28.61,-80.6,9.7913,0.80352,0,0.016946,4.2574e-6,36599,8363.1,57.477,0.29009,102.58,91.005,1.8381,0.34159,27125981,1e3,88.706,0.55097,0.55204,0.34727,0.06853,0.13517,0.1294,0.2307,-3.5039e-4,0,0,0,0,0.0075985,0.014651,6.2992,201.06,74.633,0.0048333,NaN,13.05,978.07,339.21,0.05,0.029611
3.8112,305.62,112.85,14.197,114.67,15.672,34.806,0.0032533,34.806,0.0053554,20.306,6.637,28.61,-80.6,9.7912,0.27397,0,0.017477,6.3786e-6,36558,8322.3,57.44,0.28997,103.54,90.964,1.996,0.34411,27312203,1e3,89.878,0.55141,0.55154,0.34721,0.068814,0.13539,0.042809,0.077016,-5.6122e-5,0,0,0,0,0.0079652,0.014749,6.2992,201.06,74.943,0.0052685,NaN,13.013,977.41,339.19,0.05,0.029896
3.8612,311.28,113.57,14.289,115.43,15.608,35.83,0.003393,35.83,0.0054258,20.629,6.2804,28.61,-80.6,9.7912,0.057121,0,-0.017592,1.6439e-5,36517,8281.6,57.403,0.28986,103.95,90.923,2.0675,0.34633,27474182,1e3,91.023,0.55181,0.55182,0.34715,0.069063,0.13559,0.0088139,0.026199,1.9903e-4,0,0,0,0,-0.0079685,0.014848,6.2992,201.06,75.26,0.0057285,NaN,12.977,976.74,339.16,0.05,0.030176
3.9112,316.98,114.28,14.398,116.19,15.528,36.869,0.003538,36.869,0.0054983,20.931,5.8166,28.61,-80.6,9.7912,0.52253,0,-0.017209,-1.2381e-6,36476,8240.8,57.366,0.28974,103.09,90.882,1.9379,0.34879,27654727,1e3,92.405,0.55225,0.55271,0.34709,0.06934,0.13581,0.082838,0.16848,2.4077e-5,0,0,0,0,-0.0075189,0.014947,6.2992,201.06,75.574,0.0062146,NaN,12.94,976.07,339.14,0.05,0.030448
3.9612,322.71,115.01,14.481,116.95,15.471,37.922,0.0036886,37.922,0.005573,21.213,5.4462,28.61,-80.6,9.7912,0.83686,0,-0.016423,-1.2865e-6,36436,8200.1,57.329,0.28962,102.54,90.84,1.8566,0.35103,27818290,1e3,93.722,0.55265,0.55382,0.34704,0.069593,0.13602,0.13506,0.25708,-2.2447e-4,0,0,0,0,-0.0067616,0.015046,6.2992,201.06,75.877,0.0066878,NaN,12.902,975.4,339.12,0.05,0.030711
4.0112,328.48,115.73,14.564,117.71,15.413,38.99,0.003845,38.99,0.0056502,21.475,5.0462,28.61,-80.6,9.7912,1.1771,0,-0.015243,-2.1465e-6,36395,8159.4,57.292,0.2895,101.96,90.799,1.7717,0.35337,27988404,1e3,95.168,0.55307,0.55535,0.34698,0.069857,0.13623,0.19362,0.34849,-4.8086e-4,0,0,0,0,-0.0057491,0.015145,6.2992,201.06,76.162,0.0071395,NaN,12.865,974.72,339.1,0.05,0.031039
4.0612,334.29,116.46,14.601,118.47,15.391,40.07,0.0040073,40.07,0.00573,21.723,4.8695,28.61,-80.6,9.7911,1.2441,0,-0.013876,-1.3282e-6,36354,8118.6,57.255,0.28938,101.85,90.757,1.7609,0.3553,28126284,1e3,96.247,0.55342,0.55595,0.34693,0.070074,0.13641,0.20541,0.36683,1.9039e-4,0,0,0,0,-0.0047134,0.015244,6.2992,201.06,76.425,0.007568,NaN,12.827,974.04,339.07,0.05,0.031294
4.1112,340.13,117.19,14.644,119.23,15.363,41.162,0.0041757,41.162,0.0058124,21.961,4.6443,28.61,-80.6,9.7911,1.3776,0,-0.012396,-1.1085e-6,36314,8077.9,57.217,0.28926,101.63,90.716,1.733,0.35738,28276352,1e3,97.476,0.55379,0.55689,0.34688,0.07031,0.1366,0.22913,0.40111,4.577e-4,0,0,0,0,-0.0037181,0.015343,6.2992,201.06,76.661,0.0079543,NaN,12.789,973.36,339.05,0.05,0.031455
4.1612,346,117.93,14.689,120,15.332,42.266,0.0043504,42.266,0.0058974,22.187,4.3953,28.61,-80.6,9.7911,1.5458,0,-0.010725,-2.2128e-6,36273,8037.1,57.18,0.28914,101.36,90.674,1.6968,0.35958,28434854,1e3,98.816,0.55419,0.55807,0.34682,0.070559,0.13681,0.25947,0.44321,4.2255e-5,0,0,0,0,-0.0027497,0.015442,6.2992,201.06,76.87,0.0083513,NaN,12.751,972.67,339.03,0.05,0.031625
4.2112,351.92,118.66,14.711,120.76,15.316,43.38,0.0045314,43.38,0.005985,22.403,4.2607,28.61,-80.6,9.7911,1.5948,0,-0.0089495,-1.6249e-6,36232,7996.4,57.142,0.28902,101.29,90.632,1.6914,0.36163,28581988,1e3,99.988,0.55457,0.55868,0.34677,0.070791,0.137,0.26842,0.45577,4.9831e-4,0,0,0,0,-0.0018932,0.01554,6.2992,201.06,77.047,0.0087295,NaN,12.713,971.98,339,0.05,0.031855
4.2612,357.87,119.4,14.741,121.52,15.293,44.506,0.004719,44.506,0.0060752,22.611,4.0716,28.61,-80.6,9.7911,1.7159,0,-0.0070457,-2.7019e-6,36191,7955.6,57.105,0.2889,101.1,90.59,1.668,0.36387,28742802,1e3,101.34,0.55497,0.55972,0.34672,0.071044,0.13721,0.29072,0.48618,-2.9207e-4,0,0,0,0,-0.0011592,0.015639,6.2992,201.06,77.191,0.0090962,NaN,12.674,971.28,338.98,0.05,0.032085
4.3112,363.86,120.14,14.757,122.29,15.278,45.641,0.0049133,45.641,0.0061678,22.813,3.9562,28.61,-80.6,9.7911,1.7697,0,-0.005055,-2.892e-6,36151,7914.9,57.067,0.28878,101.02,90.549,1.6616,0.36605,28899348,1e3,102.61,0.55537,0.56041,0.34666,0.071292,0.13742,0.30071,0.50007,-4.0596e-4,0,0,0,0,-5.8969e-4,0.015737,6.2992,201.06,77.3,0.009473,NaN,12.635,970.58,338.96,0.05,0.032332
4.3612,369.89,120.88,14.784,123.05,15.256,46.787,0.0051143,46.787,0.006263,23.005,3.765,28.61,-80.6,9.791,1.9157,0,-0.0028966,-2.7897e-6,36110,7874.2,57.029,0.28866,100.79,90.506,1.6328,0.36845,29072866,1e3,104.12,0.55581,0.56169,0.3466,0.071564,0.13765,0.32808,0.53596,-1.9426e-4,0,0,0,0,-1.9114e-4,0.015836,6.2992,201.06,77.372,0.0097966,NaN,12.596,969.87,338.93,0.05,0.032729
4.4112,375.95,121.62,14.777,123.81,15.25,47.942,0.0053222,47.942,0.0063606,23.194,3.7679,28.61,-80.6,9.791,1.8759,0,-6.97e-4,-2.2152e-6,36069,7833.4,56.991,0.28854,100.86,90.464,1.6496,0.37061,29226956,1e3,105.3,0.55621,0.56185,0.34654,0.071809,0.13786,0.32062,0.52919,3.7969e-4,0,0,0,0,-1.094e-5,0.015934,6.2992,201.06,77.404,0.010044,NaN,12.556,969.16,338.91,0.05,0.033087
4.4612,382.05,122.36,14.801,124.57,15.228,49.106,0.0055371,49.106,0.0064606,23.378,3.579,28.61,-80.599,9.791,2.045,0,0.0016265,-1.2574e-6,36028,7792.7,56.953,0.28842,100.6,90.422,1.6156,0.37319,29413999,1e3,106.98,0.55668,0.56335,0.34647,0.072102,0.13811,0.35268,0.56941,-3.6838e-4,0,0,0,0,5.8757e-5,0.016032,6.2992,201.06,77.396,0.010198,NaN,12.517,968.44,338.88,0.05,0.033377
4.5112,388.18,123.1,14.819,125.33,15.208,50.279,0.0057591,50.279,0.0065628,23.552,3.4158,28.61,-80.599,9.791,2.1987,0,0.004145,-1.0235e-6,35988,7751.9,56.915,0.28831,100.37,90.38,1.5861,0.37583,29605459,1e3,108.7,0.55717,0.56483,0.3464,0.072402,0.13836,0.38227,0.60642,-2.183e-4,0,0,0,0,3.7633e-4,0.016131,6.2992,201.06,77.344,0.010211,NaN,12.477,967.72,338.86,0.05,0.033545
4.5612,394.36,123.84,14.824,126.09,15.193,51.461,0.0059881,51.461,0.006667,23.72,3.3265,28.61,-80.599,9.791,2.2944,0,0.0068448,-5.786e-7,35947,7711.2,56.877,0.28819,100.23,90.337,1.5707,0.37847,29796037,1e3,110.37,0.55766,0.56598,0.34634,0.072702,0.13862,0.40093,0.62846,6.7845e-5,0,0,0,0,0.0010121,0.016229,6.2992,201.06,77.246,0.010165,NaN,12.437,967,338.84,0.05,0.03385
4.6112,400.57,124.58,14.787,126.85,15.193,52.651,0.006224,52.651,0.0067731,23.89,3.4901,28.61,-80.599,9.7909,2.1708,0,0.0095698,-3.4664e-8,35906,7670.5,56.839,0.28807,100.42,90.295,1.6071,0.3808,29962720,1e3,111.58,0.55809,0.56558,0.34627,0.072968,0.13885,0.37694,0.60347,3.507e-4,0,0,0,0,0.0019545,0.016326,6.2992,201.06,77.098,0.010034,NaN,12.396,966.27,338.81,0.05,0.034026
4.6612,406.81,125.32,14.719,127.61,15.207,53.85,0.0064668,53.85,0.0068806,24.072,3.8188,28.61,-80.599,9.7909,1.9111,0,0.012131,2.3801e-7,35865,7629.7,56.8,0.28795,100.82,90.252,1.6769,0.38297,30116036,1e3,112.52,0.5585,0.56437,0.34621,0.073215,0.13907,0.3274,0.54592,4.6438e-4,0,0,0,0,0.0031057,0.016424,6.2992,201.06,76.902,0.0098474,NaN,12.356,965.54,338.79,0.05,0.034182
4.7112,413.1,126.05,14.651,128.37,15.222,55.059,0.0067164,55.059,0.0069893,24.272,4.1308,28.61,-80.599,9.7909,1.6838,0,0.014451,-4.4511e-7,35825,7589,56.762,0.28783,101.17,90.209,1.7404,0.38527,30278941,1e3,113.62,0.55893,0.56353,0.34615,0.073477,0.1393,0.28501,0.49215,-1.833e-4,0,0,0,0,0.0043553,0.016523,6.2992,201.06,76.663,0.0096862,NaN,12.315,964.8,338.76,0.05,0.034336
4.7612,419.42,126.79,14.586,129.13,15.235,56.278,0.0069726,56.278,0.0070988,24.483,4.397,28.61,-80.599,9.7909,1.5165,0,0.016634,-6.8816e-7,35784,7548.2,56.723,0.28771,101.44,90.167,1.7899,0.38774,30455300,1e3,114.92,0.55939,0.56316,0.34609,0.073759,0.13954,0.25442,0.44929,-7.0565e-6,0,0,0,0,0.0056982,0.016621,6.2992,201.06,76.383,0.0095227,NaN,12.274,964.06,338.74,0.05,0.034491
4.8112,425.78,127.51,14.445,129.89,15.3,57.508,0.0072355,57.508,0.0072088,24.719,5.042,28.61,-80.599,9.7909,0.98772,0,0.018393,8.519e-7,35743,7507.5,56.685,0.28759,102.32,90.124,1.9361,0.3896,30583574,1e3,115.56,0.55974,0.56137,0.34603,0.073972,0.13973,0.161,0.30522,3.6698e-4,0,0,0,0,0.0069019,0.016719,6.2992,201.06,76.066,0.0093514,NaN,12.232,963.31,338.71,0.05,0.034644
4.8612,432.17,128.23,14.28,130.64,15.393,58.75,0.007505,58.75,0.0073192,24.99,5.7459,28.61,-80.599,9.7908,0.38392,0,0.019363,3.4773e-6,35702,7466.8,56.646,0.28747,103.39,90.081,2.1125,0.39135,30702788,1e3,116.3,0.56007,0.56032,0.34599,0.074172,0.13991,0.060484,0.12009,-2.6319e-5,0,0,0,0,0.0075819,0.016817,6.2992,201.06,75.725,0.0091848,NaN,12.191,962.56,338.69,0.05,0.034881
4.9112,438.6,128.94,14.154,131.4,15.458,60.007,0.0077811,60.007,0.0074295,25.289,6.2152,28.61,-80.599,9.7908,0.019203,0,0.019618,1.1612e-4,35662,7426,56.608,0.28735,104.07,90.038,2.2278,0.39353,30855148,1e3,117.53,0.56048,0.56048,0.34593,0.074421,0.14013,0.0029621,-0.0010527,1.463e-4,0,0,0,0,0.0076978,0.016916,6.2992,201.06,75.374,0.0090597,NaN,12.149,961.81,338.66,0.05,0.035191
4.9612,445.07,129.65,14.042,132.15,15.511,61.28,0.0080638,61.28,0.0075396,25.609,6.5883,28.61,-80.599,9.7908,0.23634,0,-0.019438,1.2224e-5,35621,7385.3,56.569,0.28723,103.67,89.994,2.1702,0.39588,31021436,1e3,118.97,0.56093,0.56102,0.34586,0.07469,0.14037,0.036924,0.087445,-3.2548e-4,0,0,0,0,-0.0074689,0.017014,6.2992,201.06,75.021,0.0088966,NaN,12.107,961.05,338.64,0.05,0.035497
5.0112,451.57,130.35,13.898,132.9,15.593,62.568,0.0083531,62.568,0.0076492,25.952,7.0694,28.61,-80.599,9.7908,0.59714,0,-0.018681,6.1478e-6,35580,7344.5,56.53,0.28711,103.01,89.951,2.0732,0.39802,3.117e7,1e3,120.35,0.56133,0.56194,0.3458,0.074935,0.14059,0.095254,0.20386,4.8148e-4,0,0,0,0,-0.0068258,0.017112,6.2992,201.06,74.678,0.0087199,NaN,12.065,960.29,338.61,0.05,0.035879
5.0612,458.1,131.04,13.819,133.65,15.618,63.875,0.008649,63.875,0.0077581,26.31,7.2776,28.61,-80.599,9.7908,0.66939,0,-0.017663,6.4856e-6,35539,7303.8,56.491,0.28699,102.89,89.908,2.0603,0.40064,31355932,1e3,121.99,0.56183,0.56259,0.34573,0.075235,0.14087,0.10723,0.22654,8.3162e-5,0,0,0,0,-0.0060231,0.01721,6.2992,201.06,74.35,0.0085571,NaN,12.022,959.52,338.58,0.05,0.036148
5.1112,464.67,131.73,13.717,134.4,15.665,65.2,0.0089515,65.2,0.0078663,26.683,7.5657,28.61,-80.599,9.7907,0.82839,0,-0.016367,5.469e-6,35499,7263.1,56.452,0.28687,102.61,89.864,2.0234,0.40305,31525634,1e3,123.55,0.56229,0.56345,0.34566,0.075512,0.14112,0.1339,0.27637,3.2448e-4,0,0,0,0,-0.0051111,0.017308,6.2992,201.06,74.044,0.0084348,NaN,11.98,958.75,338.56,0.05,0.036316
5.1612,471.27,132.41,13.685,135.15,15.648,66.543,0.0092605,66.543,0.0079735,27.06,7.5891,28.61,-80.599,9.7907,0.73097,0,-0.015128,5.7487e-6,35458,7222.3,56.413,0.28676,102.78,89.821,2.0579,0.40592,3.173e7,1e3,125.28,0.56284,0.56375,0.34558,0.075841,0.14142,0.11753,0.24635,1.5176e-4,0,0,0,0,-0.0043054,0.017406,6.2992,201.06,73.76,0.0083045,NaN,11.937,957.98,338.53,0.05,0.036509
5.2112,477.91,133.09,13.549,135.9,15.731,67.906,0.009576,67.906,0.0080797,27.45,7.9932,28.61,-80.599,9.7907,1.0157,0,-0.013643,4.752e-6,35417,7181.6,56.373,0.28664,102.29,89.777,1.9872,0.40799,31872527,1e3,126.73,0.56324,0.56498,0.34552,0.076079,0.14164,0.16594,0.33362,4.2361e-4,0,0,0,0,-0.0034666,0.017504,6.2992,201.06,73.501,0.0081955,NaN,11.894,957.2,338.51,0.05,0.036728
5.2612,484.58,133.77,13.45,136.64,15.782,69.289,0.0098979,69.289,0.0081848,27.857,8.2564,28.61,-80.599,9.7907,1.1679,0,-0.011828,3.9872e-6,35376,7140.8,56.334,0.28652,102.04,89.733,1.9539,0.41025,32028834,1e3,128.26,0.56367,0.56596,0.34545,0.076339,0.14188,0.19243,0.37852,1.4229e-5,0,0,0,0,-0.0025777,0.017602,6.2992,201.06,73.271,0.0080983,NaN,11.85,956.42,338.48,0.05,0.037024
5.3112,491.29,134.44,13.338,137.38,15.851,70.692,0.010226,70.692,0.0082885,28.277,8.5638,28.61,-80.599,9.7907,1.3685,0,-0.0097431,4.237e-6,35336,7100.1,56.294,0.2864,101.71,89.689,1.9086,0.41232,32170747,1e3,129.73,0.56407,0.56719,0.34539,0.076578,0.1421,0.22798,0.43725,-2.8668e-4,0,0,0,0,-0.0017317,0.0177,6.2992,201.06,73.077,0.0080742,NaN,11.807,955.63,338.45,0.05,0.037353
5.3612,498.03,135.1,13.223,138.12,15.93,72.116,0.010561,72.116,0.0083908,28.715,8.883,28.61,-80.599,9.7906,1.5869,0,-0.0072558,5.6091e-6,35295,7059.4,56.255,0.28628,101.36,89.645,1.86,0.41426,32301594,1e3,131.17,0.56445,0.5686,0.34534,0.076801,0.14231,0.26754,0.49847,-3.2381e-4,0,0,0,0,-9.5157e-4,0.017797,6.2992,201.06,72.923,0.0081689,NaN,11.763,954.84,338.43,0.05,0.037675
5.4112,504.8,135.77,13.201,138.86,15.921,73.563,0.010903,73.563,0.0084918,29.158,8.9004,28.61,-80.599,9.7906,1.5508,0,-0.0047063,6.2229e-6,35254,7018.6,56.215,0.28616,101.42,89.601,1.8766,0.41661,32465349,1e3,132.62,0.5649,0.56888,0.34527,0.077072,0.14256,0.26096,0.49002,4.2827e-4,0,0,0,0,-3.9589e-4,0.017895,6.2992,201.06,72.815,0.0084199,NaN,11.719,954.07,338.4,0.05,0.037984
5.4612,511.6,136.42,13.108,139.6,15.991,75.033,0.011251,75.033,0.0085915,29.612,9.1591,28.61,-80.599,9.7906,1.7408,0,-0.0018965,7.0856e-6,35214,6977.9,56.176,0.28604,101.12,89.557,1.8362,0.4184,32584991,1e3,133.97,0.56525,0.57022,0.34522,0.077278,0.14276,0.29594,0.54309,-3.2235e-4,0,0,0,0,-6.3753e-5,0.017992,6.2992,201.06,72.756,0.0087425,NaN,11.675,953.31,338.37,0.05,0.038301
5.5112,518.44,137.08,13.166,140.34,15.913,76.524,0.011607,76.524,0.0086902,30.064,8.9382,28.61,-80.599,9.7906,1.5343,0,8.4377e-4,7.196e-6,35173,6937.1,56.136,0.28592,101.45,89.512,1.8958,0.42089,32759403,1e3,135.32,0.56574,0.56964,0.34514,0.077565,0.14303,0.25801,0.48869,4.398e-4,0,0,0,0,1.2472e-5,0.01809,6.2992,201.06,72.746,0.0091882,NaN,11.63,952.55,338.35,0.05,0.038623
5.5612,525.31,137.74,13.174,141.08,15.893,78.039,0.01197,78.039,0.0087883,30.511,8.89,28.61,-80.599,9.7906,1.4944,0,0.0034975,6.6224e-6,35132,6896.4,56.096,0.2858,101.52,89.468,1.9134,0.42295,3.29e7,1e3,136.59,0.56614,0.56985,0.34508,0.077803,0.14326,0.25078,0.4799,2.2823e-4,0,0,0,0,2.1224e-4,0.018188,6.2992,201.06,72.786,0.0096354,NaN,11.585,951.78,338.32,0.05,0.038955
5.6112,532.21,138.4,13.283,141.82,15.778,79.575,0.012341,79.575,0.0088861,30.947,8.5137,28.61,-80.599,9.7905,1.1894,0,0.005928,6.9487e-6,35091,6855.6,56.056,0.28568,102.02,89.423,2.0004,0.42548,33076079,1e3,137.91,0.56664,0.56902,0.34501,0.078095,0.14353,0.19633,0.39201,3.1502e-4,0,0,0,0,6.026e-4,0.018285,6.2992,201.06,72.871,0.010089,NaN,11.541,951.01,338.29,0.05,0.039276
5.6612,539.15,139.07,13.457,142.56,15.607,81.133,0.012721,81.133,0.0089837,31.357,7.9042,28.61,-80.599,9.7905,0.68945,0,0.007645,6.4769e-6,35051,6814.9,56.016,0.28556,102.89,89.379,2.1442,0.42838,33281553,1e3,139.45,0.56721,0.56802,0.34492,0.078431,0.14386,0.1107,0.23674,3.1516e-4,0,0,0,0,9.8883e-4,0.018383,6.2992,201.06,72.994,0.010542,NaN,11.496,950.23,338.27,0.05,0.039597
5.7112,546.12,139.75,13.535,143.31,15.532,82.711,0.01311,82.711,0.0090818,31.743,7.6181,28.61,-80.599,9.7905,0.48263,0,0.00872,7.9436e-6,35010,6774.2,55.976,0.28544,103.26,89.334,2.2104,0.43063,33435490,1e3,140.8,0.56765,0.56805,0.34485,0.078691,0.14411,0.076599,0.16803,-4.0142e-4,0,0,0,0,0.0012733,0.018481,6.2992,201.06,73.142,0.010994,NaN,11.45,949.46,338.24,0.05,0.039904
5.7612,553.13,140.42,13.528,144.05,15.539,84.307,0.013508,84.307,0.0091803,32.126,7.6452,28.61,-80.599,9.7905,0.56405,0,0.0097819,9.3135e-6,34969,6733.4,55.936,0.28533,103.11,89.289,2.1946,0.4322,33537058,1e3,141.83,0.56796,0.56851,0.3448,0.078874,0.14428,0.089943,0.19592,2.8382e-4,0,0,0,0,0.0015909,0.018579,6.2992,201.06,73.309,0.011508,NaN,11.405,948.67,338.21,0.05,0.040207
5.8112,560.16,141.1,13.588,144.8,15.484,85.923,0.013916,85.923,0.0092795,32.504,7.424,28.61,-80.599,9.7905,0.43152,0,0.010804,1.0933e-5,34928,6692.7,55.895,0.28521,103.35,89.244,2.2401,0.43421,33671768,1e3,143.08,0.56836,0.56868,0.34474,0.079106,0.14451,0.068298,0.15093,-1.8287e-4,0,0,0,0,0.0019233,0.018677,6.2992,201.06,73.494,0.012038,NaN,11.359,947.89,338.18,0.05,0.040698
5.8612,567.24,141.78,13.692,145.54,15.391,87.558,0.014333,87.558,0.0093795,32.865,7.0307,28.61,-80.599,9.7904,0.15115,0,0.011383,2.346e-5,34888,6651.9,55.855,0.28509,103.88,89.199,2.3299,0.43652,3.383e7,1e3,144.53,0.56882,0.56886,0.34467,0.079374,0.14477,0.023542,0.052748,3.9105e-4,0,0,0,0,0.0021125,0.018775,6.2992,201.06,73.695,0.01255,NaN,11.313,947.1,338.15,0.05,0.041401
5.9112,574.34,142.47,13.781,146.29,15.313,89.209,0.014761,89.209,0.0094805,33.208,6.6772,28.61,-80.599,9.7904,0.09149,0,-0.011448,2.8725e-5,34847,6611.2,55.814,0.28497,103.99,89.154,2.3554,0.43875,33981470,1e3,146,0.56926,0.56928,0.3446,0.079633,0.14503,0.014202,0.035848,-2.9367e-4,0,0,0,0,-0.0021153,0.018873,6.2992,201.06,73.901,0.01302,NaN,11.267,946.3,338.13,0.05,0.041758
5.9612,581.48,143.16,13.884,147.04,15.223,90.878,0.015199,90.878,0.0095827,33.532,6.2436,28.61,-80.599,9.7904,0.39405,0,-0.010916,2.4715e-6,34806,6570.5,55.774,0.28485,103.43,89.109,2.2739,0.44115,34145149,1e3,147.66,0.56974,0.57001,0.34453,0.079911,0.1453,0.062254,0.14318,-1.6897e-4,0,0,0,0,-0.0019027,0.01897,6.2992,201.06,74.103,0.01349,NaN,11.22,945.5,338.1,0.05,0.042092
6.0112,588.66,143.86,13.982,147.78,15.14,92.562,0.015648,92.562,0.0096861,33.833,5.8078,28.61,-80.599,9.7904,0.6859,0,-0.00976,4.786e-7,34765,6529.7,55.733,0.28473,102.91,89.064,2.1985,0.44357,34310813,1e3,149.43,0.57023,0.57104,0.34445,0.080193,0.14558,0.11019,0.24368,1.6071e-4,0,0,0,0,-0.0015049,0.019068,6.2992,201.06,74.29,0.013971,NaN,11.174,944.7,338.07,0.05,0.042634
6.0612,595.87,144.56,14.073,148.53,15.065,94.261,0.016108,94.261,0.009791,34.113,5.377,28.61,-80.599,9.7903,0.96579,0,-0.0080059,-3.2996e-7,34725,6489,55.692,0.28461,102.43,89.018,2.129,0.44605,3.448e7,1e3,151.31,0.57072,0.57232,0.34438,0.080481,0.14586,0.15762,0.33689,-2.6617e-4,0,0,0,0,-0.0010015,0.019165,6.2992,201.06,74.451,0.01434,NaN,11.127,943.9,338.04,0.05,0.042865
6.1112,603.11,145.27,14.142,149.28,15.008,95.973,0.016578,95.973,0.0098973,34.372,5.0243,28.61,-80.599,9.7903,1.1835,0,-0.0057258,-1.1194e-6,34684,6448.2,55.651,0.28449,102.06,88.972,2.0784,0.44848,34645926,1e3,153.17,0.57121,0.57359,0.3443,0.080765,0.14615,0.19551,0.40656,4.059e-4,0,0,0,0,-5.0684e-4,0.019262,6.2992,201.06,74.575,0.014622,NaN,11.08,943.09,338.01,0.05,0.043096
6.1612,610.4,145.98,14.161,150.03,14.98,97.698,0.01706,97.698,0.010005,34.618,4.8848,28.61,-80.599,9.7903,1.2492,0,-0.0031116,-2.0284e-6,34643,6407.5,55.61,0.28437,101.96,88.927,2.0688,0.45067,34792680,1e3,154.73,0.57166,0.5743,0.34423,0.08102,0.1464,0.20712,0.42851,-3.6335e-4,0,0,0,0,-1.4825e-4,0.019359,6.2992,201.06,74.655,0.014905,NaN,11.032,942.27,337.98,0.05,0.043386
6.2112,617.71,146.68,14.112,150.77,14.99,99.435,0.017553,99.435,0.010114,34.867,5.056,28.61,-80.599,9.7903,1.0999,0,-6.131e-4,-1.4205e-6,34602,6366.8,55.569,0.28425,102.21,88.881,2.1161,0.45247,34908434,1e3,155.77,0.57202,0.57408,0.34417,0.081229,0.14661,0.18089,0.38263,-1.0619e-4,0,0,0,0,-5.7111e-6,0.019456,6.2992,201.06,74.688,0.015083,NaN,10.985,941.46,337.96,0.05,0.043563
6.2612,625.06,147.39,14.088,151.52,14.981,101.18,0.018057,101.18,0.010225,35.122,5.0953,28.61,-80.599,9.7903,1.0607,0,0.0017293,-5.3589e-7,34562,6326,55.528,0.28413,102.28,88.835,2.1343,0.45461,35051031,1e3,157.19,0.57245,0.57438,0.34411,0.08148,0.14687,0.17409,0.37172,-7.2293e-5,0,0,0,0,4.5016e-5,0.019553,6.2992,201.06,74.678,0.015125,NaN,10.937,940.64,337.93,0.05,0.043747
6.3112,632.45,148.09,14.079,152.26,14.96,102.95,0.018572,102.95,0.010336,35.375,5.0577,28.61,-80.599,9.7902,1.0901,0,0.0041228,-8.6329e-7,34521,6285.3,55.487,0.28401,102.23,88.789,2.1343,0.45702,35213227,1e3,158.89,0.57294,0.57497,0.34403,0.081761,0.14715,0.17922,0.38266,4.203e-4,0,0,0,0,2.5322e-4,0.01965,6.2992,201.06,74.625,0.015082,NaN,10.889,939.81,337.9,0.05,0.044428
6.3612,639.87,148.8,14.046,153,14.95,104.72,0.019098,104.72,0.010449,35.63,5.1203,28.61,-80.599,9.7902,1.0588,0,0.0065362,-1.1469e-6,34480,6244.5,55.446,0.28389,102.29,88.743,2.1506,0.45938,35371899,1e3,160.5,0.57342,0.57534,0.34395,0.082037,0.14743,0.17379,0.37333,-2.3723e-4,0,0,0,0,6.3001e-4,0.019746,6.2992,201.06,74.529,0.015049,NaN,10.841,938.98,337.87,0.05,0.045108
6.4112,647.33,149.5,13.988,153.75,14.951,106.51,0.019635,106.51,0.010562,35.888,5.2798,28.61,-80.599,9.7902,0.97046,0,0.0088888,-2.3209e-7,34439,6203.8,55.404,0.28378,102.44,88.697,2.1823,0.46171,35527362,1e3,162.03,0.5739,0.57552,0.34388,0.082309,0.14771,0.15854,0.34434,-3.4496e-5,0,0,0,0,0.0011536,0.019843,6.2992,201.06,74.39,0.014937,NaN,10.792,938.15,337.84,0.05,0.045349
6.4612,654.82,150.2,13.884,154.49,14.983,108.31,0.020182,108.31,0.010676,36.162,5.6343,28.61,-80.599,9.7902,0.75248,0,0.010868,1.5755e-6,34399,6163.1,55.363,0.28366,102.82,88.65,2.2499,0.46381,35664829,1e3,163.3,0.57433,0.57531,0.34381,0.082555,0.14797,0.12146,0.27177,-4.5681e-5,0,0,0,0,0.0017092,0.01994,6.2992,201.06,74.212,0.014743,NaN,10.744,937.31,337.81,0.05,0.045524
6.5112,662.35,150.89,13.818,155.23,14.985,110.13,0.02074,110.13,0.01079,36.448,5.7973,28.61,-80.599,9.7901,0.68349,0,0.012562,2.4641e-6,34358,6122.3,55.321,0.28354,102.95,88.604,2.2771,0.46634,35834783,1e3,165.04,0.57485,0.57566,0.34373,0.082851,0.14827,0.10991,0.24799,-2.4309e-4,0,0,0,0,0.0022594,0.020036,6.2992,201.06,74.001,0.014509,NaN,10.695,936.47,337.78,0.05,0.045705
6.5612,669.91,151.58,13.743,155.97,14.991,111.96,0.021308,111.96,0.010905,36.741,5.988,28.61,-80.599,9.7901,0.60324,0,0.01418,4.5002e-6,34317,6081.6,55.279,0.28342,103.09,88.557,2.3077,0.46891,36007732,1e3,166.81,0.57538,0.57601,0.34364,0.083152,0.14858,0.096577,0.21993,3.3343e-4,0,0,0,0,0.0028478,0.020133,6.2992,201.06,73.76,0.014248,NaN,10.646,935.62,337.75,0.05,0.045894
