# Time (s),Altitude (m),Vertical velocity (m/s),Vertical acceleration (m/s²),Total velocity (m/s),Total acceleration (m/s²),Position East of launch (m),Position North of launch (m),Lateral distance (m),Lateral direction (°),Lateral velocity (m/s),Lateral acceleration (m/s²),Latitude (°),Longitude (°),Gravitational acceleration (m/s²),Angle of attack (°),Roll rate (r/s),Pitch rate (r/s),Yaw rate (r/s),Mass (g),Propellant mass (g),Longitudinal moment of inertia (kg·m²),Rotational moment of inertia (kg·m²),CP location (in),CG location (in),Stability margin calibers (​),Mach number (​),Reynolds number (​),Thrust (N),Drag force (N),Drag coefficient (​),Axial drag coefficient (​),Friction drag coefficient (​),Pressure drag coefficient (​),Base drag coefficient (​),Normal force coefficient (​),Pitch moment coefficient (​),Yaw moment coefficient (​),Side force coefficient (​),Roll moment coefficient (​),Roll forcing coefficient (​),Roll damping coefficient (​),Pitch damping coefficient (​),Coriolis acceleration (m/s²),Reference length (in),Reference area (cm²),Vertical orientation (zenith) (°),Lateral orientation (azimuth) (°),Wind velocity (m/s),Air temperature (°C),Air pressure (mbar),Speed of sound (m/s),Simulation time step (s),Computation time (s)
0,0,0,-5.6763,0,5.7075,0,0,0,0,0,0.5966,28.61,-80.6,9.7922,84,0,0,0,40581,12346,60.972,0.31372,NaN,94.756,NaN,0.014025,1143781,163.58,4.4333e-4,0.58304,0.0015796,0.42081,0.042206,0.12003,NaN,NaN,NaN,NaN,NaN,NaN,NaN,NaN,0,6.2992,201.06,84,0,NaN,15,1013.2,340.39,0.01,0.0011654
0.01,0,0,61.573,0,61.913,0,0,0,0,0,6.4716,28.61,-80.6,9.7922,84,0,0,0,40581,12346,60.972,0.31372,NaN,94.756,NaN,0.01411,1150718,2907.7,4.4835e-4,0.58254,0.0015783,0.42031,0.042206,0.12003,NaN,NaN,NaN,NaN,NaN,NaN,NaN,NaN,0,6.2992,201.06,84,0,NaN,15,1013.2,340.39,0.01,0.0014838
0.02,0.0030793,0.6159,90.45,0.61929,90.949,3.2365e-4,0,3.2365e-4,0,0.064734,9.5067,28.61,-80.6,9.7922,76.831,0,0,0,40570,12334,60.962,0.31362,NaN,94.746,NaN,0.014498,1182409,4084.9,0.0045949,0.58032,0.01532,0.41809,0.042206,0.12003,NaN,NaN,NaN,NaN,NaN,NaN,NaN,NaN,7.942e-5,6.2992,201.06,84,0,NaN,15,1013.2,340.39,0.01,0.00178
0.03,0.013763,1.5208,89.063,1.5292,89.553,0.0014465,0,0.0014465,0,0.15985,9.3609,28.61,-80.6,9.7922,67.147,0,0,0,40549,12313,60.944,0.31341,NaN,94.727,NaN,0.015411,1256866,4026.2,0.023804,0.57539,0.07024,0.41315,0.042206,0.12003,NaN,NaN,NaN,NaN,NaN,NaN,NaN,NaN,1.9611e-4,6.2992,201.06,84,0,NaN,15,1013.2,340.39,0.01,0.0019746
0.04,0.033426,2.4119,88.815,2.4252,89.304,0.0035132,0,0.0035132,0,0.2535,9.3348,28.61,-80.6,9.7922,58.875,0,0,0,40525,12290,60.923,0.31317,NaN,94.706,NaN,0.016689,1361036,4013.8,0.062002,0.56908,0.15602,0.40684,0.042207,0.12004,NaN,NaN,NaN,NaN,NaN,NaN,NaN,NaN,3.1102e-4,6.2992,201.06,84,0,NaN,15,1013.2,340.39,0.01,0.0021469
0.05,0.061988,3.3005,89.02,3.3187,89.51,0.0065152,0,0.0065152,0,0.3469,9.3564,28.61,-80.6,9.7922,51.92,0,0,0,40502,12266,60.903,0.31293,NaN,94.685,NaN,0.018257,1488929,4019.9,0.12014,0.56215,0.2526,0.39989,0.042209,0.12004,NaN,NaN,NaN,NaN,NaN,NaN,NaN,NaN,4.256e-4,6.2992,201.06,84,0,NaN,15,1013.2,340.39,0.01,0.0024674
0.06,0.099446,4.1912,89.946,4.2143,90.442,0.010452,0,0.010452,0,0.44051,9.4537,28.61,-80.6,9.7922,46.38,0,0,0,40479,12243,60.882,0.31269,NaN,94.664,NaN,0.020172,1645067,4055.4,0.19714,0.55465,0.33956,0.39239,0.04221,0.12005,NaN,NaN,NaN,NaN,NaN,NaN,NaN,NaN,5.4045e-4,6.2992,201.06,84,0,NaN,14.999,1013.2,340.39,0.01,0.0027156
0.07,0.14586,5.0911,91.048,5.1192,91.55,0.01533,0,0.01533,0,0.5351,9.5696,28.61,-80.6,9.7922,41.789,0,0,0,40455,12220,60.861,0.31245,NaN,94.643,NaN,0.022262,1815522,4098,0.29264,0.54745,0.41384,0.38517,0.042212,0.12006,NaN,NaN,NaN,NaN,NaN,NaN,NaN,NaN,6.565e-4,6.2992,201.06,84,0,NaN,14.999,1013.2,340.39,0.01,0.0029522
0.08,0.20132,6.0021,92.152,6.0352,92.659,0.02116,0,0.02116,0,0.63085,9.6855,28.61,-80.6,9.7922,37.958,0,0,0,40432,12196,60.84,0.31221,NaN,94.622,NaN,0.024496,1997698,4140.5,0.40581,0.54065,0.47399,0.37836,0.042214,0.12008,NaN,NaN,NaN,NaN,NaN,NaN,NaN,NaN,7.7397e-4,6.2992,201.06,84,0,NaN,14.999,1013.2,340.39,0.01,0.0031083
0.09,0.26595,6.9241,93.089,6.9622,93.602,0.027953,0,0.027953,0,0.72775,9.784,28.61,-80.6,9.7922,34.74,0,0,0,40408,12173,60.82,0.31197,NaN,94.6,NaN,0.026847,2189478,4176.3,0.53578,0.53431,0.52097,0.372,0.042217,0.12009,NaN,NaN,NaN,NaN,NaN,NaN,NaN,NaN,8.9286e-4,6.2992,201.06,84,0,NaN,14.998,1013.2,340.39,0.01,0.0033373
0.1,0.33985,7.8555,93.039,7.8987,93.552,0.03572,0,0.03572,0,0.82564,9.7788,28.61,-80.6,9.7922,32.018,0,0,0,40385,12149,60.799,0.31173,NaN,94.579,NaN,0.029294,2388956,4172,0.68157,0.52843,0.55667,0.3661,0.042219,0.12011,NaN,NaN,NaN,NaN,NaN,NaN,NaN,NaN,0.001013,6.2992,201.06,84,0,NaN,14.998,1013.2,340.39,0.01,0.0035496
0.11,0.42306,8.7863,93.326,8.8347,93.84,0.044465,0,0.044465,0,0.92348,9.809,28.61,-80.6,9.7922,29.204,0,0,0,40361,12125,60.778,0.31148,NaN,94.557,NaN,0.031591,2576268,4181.4,0.84041,0.52345,0.59021,0.3611,0.042222,0.12013,NaN,NaN,NaN,NaN,NaN,NaN,NaN,NaN,0.001133,6.2992,201.06,84,0,NaN,14.997,1013.2,340.39,0.01,0.0037027
0.12,0.51559,9.7201,93.859,9.7736,94.376,0.054191,0,0.054191,0,1.0216,9.8649,28.61,-80.6,9.7922,26.771,0,0,0,40337,12101,60.757,0.31124,NaN,94.535,NaN,0.033961,2769559,4200.7,1.0107,0.51877,0.61421,0.3564,0.042225,0.12015,NaN,NaN,NaN,NaN,NaN,NaN,NaN,NaN,0.0012534,6.2992,201.06,84,0,NaN,14.997,1013.2,340.39,0.01,0.0039372
0.13,0.61749,10.659,94.391,10.718,94.911,0.064901,0,0.064901,0,1.1203,9.9209,28.61,-80.6,9.7922,24.647,0,0,0,40313,12077,60.735,0.31099,NaN,94.514,NaN,0.036399,2968352,4220,1.192,0.51438,0.63058,0.35198,0.042229,0.12017,NaN,NaN,NaN,NaN,NaN,NaN,NaN,NaN,0.0013745,6.2992,201.06,84,0,NaN,14.996,1013.2,340.39,0.01,0.0042286
0.14,0.7288,11.604,94.924,11.667,95.447,0.0766,0,0.0766,0,1.2196,9.9769,28.61,-80.6,9.7922,22.784,0,0,0,40289,12054,60.714,0.31075,NaN,94.492,NaN,0.038895,3171885,4239.3,1.3928,0.51374,0.64529,0.35131,0.042232,0.1202,NaN,NaN,NaN,NaN,NaN,NaN,NaN,NaN,0.0014963,6.2992,201.06,84,0,NaN,14.995,1013.2,340.39,0.01,0.0045529
0.15,0.84958,12.553,95.457,12.622,95.983,0.089295,0,0.089295,0,1.3194,10.033,28.61,-80.6,9.7922,21.139,0,0,0,40265,12030,60.693,0.3105,NaN,94.47,NaN,0.041442,3379558,4258.5,1.6074,0.51377,0.65597,0.35131,0.042236,0.12022,NaN,NaN,NaN,NaN,NaN,NaN,NaN,NaN,0.0016187,6.2992,201.06,84,0,NaN,14.994,1013.2,340.39,0.01,0.0047631
0.16,0.97989,13.508,95.991,13.583,96.52,0.10299,0,0.10299,0,1.4198,10.089,28.61,-80.6,9.7922,19.614,0,0,0,40241,12006,60.672,0.31025,NaN,94.448,NaN,0.044011,3588951,4277.8,1.8323,0.51379,0.66303,0.3513,0.042241,0.12025,NaN,NaN,NaN,NaN,NaN,NaN,NaN,NaN,0.0017419,6.2992,201.06,84,0,NaN,14.994,1013.1,340.39,0.01,0.0050336
0.17,1.1198,14.469,96.525,14.548,97.057,0.11769,0,0.11769,0,1.5207,10.145,28.61,-80.6,9.7922,18.251,0,0,0,40218,11982,60.65,0.31001,NaN,94.426,NaN,0.046621,3801819,4297.1,2.0678,0.51382,0.66681,0.35129,0.042245,0.12028,NaN,NaN,NaN,NaN,NaN,NaN,NaN,NaN,0.0018657,6.2992,201.06,84,0,NaN,14.993,1013.1,340.38,0.01,0.0052993
0.18,1.2693,15.435,96.906,15.52,97.439,0.13341,0,0.13341,0,1.6222,10.185,28.61,-80.6,9.7922,17.029,0,0,0,40194,11958,60.629,0.30976,NaN,94.405,NaN,0.049271,4017830,4310.2,2.3136,0.51385,0.668,0.35128,0.04225,0.12032,NaN,NaN,NaN,NaN,NaN,NaN,NaN,NaN,0.0019903,6.2992,201.06,84,0,NaN,14.992,1013.1,340.38,0.01,0.0055618
0.19,1.4285,16.404,96.668,16.494,97.2,0.15014,0,0.15014,0,1.7241,10.16,28.61,-80.6,9.7922,15.928,0,0,0,40170,11934,60.607,0.30952,NaN,94.383,NaN,0.051952,4236358,4298.3,2.5655,0.51388,0.66628,0.35127,0.042257,0.12035,NaN,NaN,NaN,NaN,NaN,NaN,NaN,NaN,0.0021153,6.2992,201.06,84,0,NaN,14.991,1013.1,340.38,0.01,0.0057617
0.2,1.5974,17.371,96.808,17.467,97.341,0.16789,0,0.16789,0,1.8258,10.175,28.61,-80.6,9.7922,14.938,0,0,0,40146,11910,60.586,0.30927,NaN,94.361,NaN,0.054643,4455733,4301.6,2.8192,0.51392,0.66184,0.35126,0.042265,0.12039,NaN,NaN,NaN,NaN,NaN,NaN,NaN,NaN,0.00224,6.2992,201.06,84,0,NaN,14.99,1013.1,340.38,0.01,0.0059251
0.21,1.7759,18.34,97.164,18.441,97.699,0.18666,0,0.18666,0,1.9276,10.212,28.61,-80.6,9.7922,14.37,0,0,0,40122,11886,60.565,0.30902,NaN,94.339,NaN,0.057474,4686562,4313.7,3.1018,0.51396,0.65821,0.35125,0.042274,0.12043,NaN,NaN,NaN,NaN,NaN,NaN,NaN,NaN,0.0023649,6.2992,201.06,84,0,NaN,14.988,1013,340.38,0.01,0.0062285
0.22,1.9642,19.312,97.52,19.418,98.057,0.20644,0,0.20644,0,2.0298,10.25,28.61,-80.6,9.7922,13.853,0,0,0,40098,11862,60.543,0.30878,NaN,94.316,NaN,0.060321,4918631,4325.8,3.3963,0.514,0.6543,0.35124,0.042283,0.12047,NaN,NaN,NaN,NaN,NaN,NaN,NaN,NaN,0.0024903,6.2992,201.06,84,0,NaN,14.987,1013,340.38,0.01,0.0063933
0.23,2.1622,20.288,97.876,20.399,98.415,0.22725,0,0.22725,0,2.1323,10.287,28.61,-80.6,9.7922,13.38,0,0,0,40074,11838,60.522,0.30853,NaN,94.294,NaN,0.063183,5151888,4337.9,3.7031,0.51404,0.65025,0.35123,0.042293,0.12052,NaN,NaN,NaN,NaN,NaN,NaN,NaN,NaN,0.0026161,6.2992,201.06,84,0,NaN,14.986,1013,340.38,0.01,0.0065421
0.24,2.3699,21.267,98.232,21.384,98.773,0.24909,0,0.24909,0,2.2352,10.325,28.61,-80.6,9.7922,12.946,0,0,0,40050,11814,60.5,0.30828,NaN,94.272,NaN,0.066059,5386290,4349.9,4.0224,0.51408,0.64619,0.35121,0.042302,0.12057,NaN,NaN,NaN,NaN,NaN,NaN,NaN,NaN,0.0027423,6.2992,201.06,84,0,NaN,14.985,1013,340.38,0.01,0.006835
0.25,2.5875,22.25,98.588,22.372,99.131,0.27196,0,0.27196,0,2.3385,10.362,28.61,-80.6,9.7922,12.547,0,0,0,40026,11791,60.478,0.30804,NaN,94.25,NaN,0.068949,5621802,4362,4.3547,0.51413,0.64217,0.3512,0.042312,0.12062,NaN,NaN,NaN,NaN,NaN,NaN,NaN,NaN,0.0028691,6.2992,201.06,84,0,NaN,14.983,1012.9,340.38,0.01,0.0072222
0.26,2.815,23.236,98.945,23.364,99.49,0.29586,0,0.29586,0,2.4422,10.4,28.61,-80.6,9.7922,12.081,0,0,0,40002,11767,60.457,0.30779,NaN,94.228,NaN,0.071812,5855142,4374.1,4.6869,0.51418,0.63716,0.35119,0.042323,0.12067,NaN,NaN,NaN,NaN,NaN,NaN,NaN,NaN,0.0029963,6.2992,201.06,84,0,NaN,14.982,1012.9,340.38,0.01,0.0075714
0.27,3.0523,24.226,99.302,24.359,99.849,0.32081,0,0.32081,0,2.5463,10.437,28.61,-80.6,9.7922,11.649,0,0,0,39978,11743,60.435,0.30754,NaN,94.206,NaN,0.07469,6089669,4386.2,5.031,0.51423,0.63227,0.35117,0.042333,0.12073,NaN,NaN,NaN,NaN,NaN,NaN,NaN,NaN,0.0031239,6.2992,201.06,84,0,NaN,14.98,1012.9,340.38,0.01,0.0077239
0.28,3.2995,25.22,99.659,25.358,100.21,0.34679,0,0.34679,0,2.6507,10.475,28.61,-80.6,9.7922,11.248,0,0,0,39954,11719,60.414,0.3073,NaN,94.184,NaN,0.077582,6325347,4398.3,5.3873,0.51428,0.62753,0.35116,0.042344,0.12078,NaN,NaN,NaN,NaN,NaN,NaN,NaN,NaN,0.003252,6.2992,201.06,84,0,NaN,14.979,1012.9,340.38,0.01,0.007871
0.29,3.5567,26.217,100.02,26.361,100.57,0.37382,0,0.37382,0,2.7555,10.512,28.61,-80.6,9.7922,10.874,0,0,0,39930,11695,60.392,0.30705,NaN,94.161,NaN,0.080488,6562144,4410.3,5.7562,0.51434,0.62297,0.35114,0.042356,0.12084,NaN,NaN,NaN,NaN,NaN,NaN,NaN,NaN,0.0033806,6.2992,201.06,84,0,NaN,14.977,1012.8,340.37,0.01,0.0080178
0.3,3.8238,27.217,100.37,27.367,100.92,0.4019,0,0.4019,0,2.8607,10.549,28.61,-80.6,9.7922,10.525,0,0,0,39907,11671,60.37,0.3068,NaN,94.139,NaN,0.083408,6.8e6,4422.2,6.1379,0.5144,0.6186,0.35112,0.042368,0.1209,NaN,NaN,NaN,NaN,NaN,NaN,NaN,NaN,0.0035097,6.2992,201.06,84,0,NaN,14.975,1012.8,340.37,0.01,0.008173
0.31,4.101,28.221,100.71,28.377,101.27,0.43104,0,0.43104,0,2.9662,10.585,28.61,-80.6,9.7922,10.1,0,0,0,39883,11647,60.348,0.30656,NaN,94.117,NaN,0.086298,7035493,4433.7,6.5125,0.51445,0.61315,0.35111,0.042379,0.12097,NaN,NaN,NaN,NaN,NaN,NaN,NaN,NaN,0.0036391,6.2992,201.06,84,0,NaN,14.973,1012.8,340.37,0.01,0.008323
0.32,4.3883,29.229,101.06,29.39,101.61,0.46123,0,0.46123,0,3.0721,10.622,28.61,-80.6,9.7922,9.7017,0,0,0,39859,11623,60.327,0.30631,NaN,94.094,NaN,0.089203,7272121,4445.3,6.8991,0.51451,0.60795,0.35109,0.042392,0.12103,NaN,NaN,NaN,NaN,NaN,NaN,NaN,NaN,0.0037691,6.2992,201.06,84,0,NaN,14.971,1012.7,340.37,0.01,0.0084699
0.33,4.6856,30.24,101.4,30.407,101.96,0.49248,0,0.49248,0,3.1784,10.658,28.61,-80.6,9.7922,9.3276,0,0,0,39835,11599,60.305,0.30606,NaN,94.072,NaN,0.092122,7509883,4456.9,7.2978,0.51458,0.603,0.35107,0.042404,0.1211,NaN,NaN,NaN,NaN,NaN,NaN,NaN,NaN,0.0038994,6.2992,201.06,84,0,NaN,14.97,1012.7,340.37,0.01,0.0086222
0.34,4.9931,31.255,101.63,31.427,102.22,0.5248,0,0.5248,0,3.285,11.025,28.61,-80.6,9.7922,8.9756,0,0,0,39811,11575,60.283,0.30581,92.785,94.05,-0.20077,0.095054,7748750,4462.1,7.7091,0.51464,0.59831,0.35105,0.042418,0.12117,2.0946,-0.42064,2.4447e-4,0,0,0,0,0,0.0040303,6.2992,201.06,84,0,NaN,14.968,1012.7,340.37,0.015,0.0087938
0.355,5.4734,32.779,101.14,32.96,101.73,0.57531,2.6224e-8,0.57531,2.6117e-6,3.4503,10.952,28.61,-80.6,9.7922,8.5733,0,-2.8953e-5,0,39781,11545,60.256,0.30551,93.11,94.022,-0.14474,0.099507,8111366,4442.7,8.3722,0.51475,0.59296,0.35102,0.042438,0.12129,1.9704,-0.28548,3.2307e-4,0,0,0,0,-2.5961e-7,0.0042269,6.2992,201.06,84,1.9961e-7,NaN,14.964,1012.6,340.37,0.0225,0.0089482
0.3775,6.2365,35.057,101.4,35.251,101.99,0.65571,1.678e-7,0.65571,1.4662e-5,3.6962,10.917,28.61,-80.6,9.7922,8.2568,0,-6.1359e-5,-1.6355e-8,39736,11500,60.215,0.30505,93.374,93.98,-0.096113,0.10627,8662183,4451.1,9.4933,0.51553,0.58954,0.35097,0.04309,0.12147,1.8747,-0.17992,-1.4046e-4,0,0,0,0,-1.0223e-6,0.0045208,6.2992,201.06,84,1.4212e-6,NaN,14.959,1012.5,340.36,0.03375,0.0090976
0.41125,7.4775,38.485,101.83,38.699,102.41,0.78667,6.2673e-7,0.78667,4.5647e-5,4.0637,10.876,28.61,-80.6,9.7922,7.7717,0,-8.7139e-5,-7.2315e-9,39669,11434,60.154,0.30436,93.794,93.917,-0.019581,0.11642,9488309,4461.6,11.291,0.5168,0.58438,0.35089,0.044146,0.12176,1.7313,-0.034206,-4.7905e-4,0,0,0,0,-1.7181e-6,0.004963,6.2992,201.06,84.001,3.2565e-6,NaN,14.951,1012.4,340.36,0.05,0.0092463
0.46125,9.5293,43.588,102.31,43.831,102.88,1.0034,1.9037e-6,1.0034,1.087e-4,4.6061,10.811,28.61,-80.6,9.7921,7.0784,0,-4.9647e-5,2.9795e-8,39571,11335,60.063,0.30335,94.425,93.824,0.095411,0.13148,10713743,4470.6,14.221,0.51873,0.5772,0.35076,0.045718,0.12225,1.5335,0.14665,3.7448e-4,0,0,0,0,-4.3729e-7,0.0056211,6.2992,201.06,84.003,-1.1082e-6,NaN,14.938,1012.1,340.35,0.05,0.009396
0.51125,11.837,48.716,102.14,48.987,102.7,1.2472,3.9695e-6,1.2472,1.8236e-4,5.1436,10.63,28.61,-80.6,9.7921,6.729,0,6.7979e-5,-6.5594e-8,39453,11218,59.955,0.30214,94.761,93.713,0.16644,0.14674,11955307,4453.6,17.636,0.52073,0.57478,0.35061,0.047321,0.1228,1.4371,0.23955,-4.6489e-4,0,0,0,0,6.5817e-7,0.0062823,6.2992,201.06,84.003,-1.1082e-6,NaN,14.923,1011.9,340.34,0.05,0.0095443
0.56125,14.401,53.835,100.16,54.133,100.69,1.5176,6.9105e-6,1.5176,2.6089e-4,5.6734,10.308,28.61,-80.6,9.7921,6.2257,0,2.8724e-4,8.2064e-8,39337,11102,59.847,0.30095,95.262,93.602,0.26354,0.16186,13183492,4365.3,21.288,0.52277,0.57046,0.35045,0.048916,0.12341,1.3019,0.34309,1.1999e-4,0,0,0,0,9.66e-6,0.0069423,6.2992,201.06,84,-5.1628e-6,NaN,14.906,1011.6,340.33,0.05,0.0096932
0.61125,17.218,58.854,98.473,59.179,98.983,1.8142,1.0802e-5,1.8142,3.4116e-4,6.1874,10.037,28.61,-80.6,9.7921,5.7783,0,6.2757e-4,3.6517e-8,39224,10988,59.741,0.29979,95.728,93.493,0.35478,0.17666,14386060,4289.7,25.2,0.52482,0.56702,0.35027,0.050487,0.12406,1.1854,0.42025,1.6964e-4,0,0,0,0,3.8709e-5,0.0075892,6.2992,201.06,83.992,-1.9165e-5,NaN,14.888,1011.2,340.32,0.05,0.0098414
0.66125,20.284,63.788,86.543,64.138,86.984,2.1361,1.5714e-5,2.1361,4.2149e-4,6.6892,8.7531,28.61,-80.6,9.7921,5.2421,0,0.0011025,1.4162e-7,39114,10878,59.637,0.29867,96.311,93.387,0.46423,0.19112,1.556e7,3812.5,29.259,0.52686,0.56268,0.35008,0.052029,0.12475,1.0505,0.48731,4.4623e-4,0,0,0,0,1.0208e-4,0.0082252,6.2992,201.06,83.976,-2.398e-5,NaN,14.868,1010.9,340.31,0.05,0.0099913
0.71125,23.582,68.123,26.375,68.495,26.486,2.4815,2.1718e-5,2.4815,5.0145e-4,7.1292,2.4274,28.61,-80.6,9.7921,4.6908,0,0.0017171,-2.7299e-7,39012,10777,59.542,0.29766,96.941,93.289,0.57975,0.20376,16583260,1446.1,32.98,0.52869,0.55825,0.34991,0.053383,0.1254,0.91701,0.53119,2.6897e-4,0,0,0,0,2.1787e-4,0.0087839,6.2992,201.06,83.951,-5.2568e-6,NaN,14.847,1010.5,340.3,0.05,0.010141
0.76125,27.021,69.444,9.6158,69.821,9.6389,2.841,2.8875e-5,2.841,5.8232e-4,7.2511,0.66754,28.61,-80.6,9.7921,4.5326,0,0.002414,-2.733e-7,38946,10710,59.48,0.29705,97.128,93.225,0.61965,0.20763,16893591,788.58,34.162,0.52926,0.5571,0.34985,0.053799,0.1256,0.8797,0.54443,-2.0315e-4,0,0,0,0,4.1473e-4,0.0089539,6.2992,201.06,83.914,5.8456e-5,NaN,14.824,1010.1,340.28,0.05,0.010361
0.81125,30.505,69.925,10.836,70.303,10.868,3.2045,3.7208e-5,3.2045,6.6527e-4,7.286,0.83334,28.61,-80.6,9.7921,4.4333,0,0.0031395,-1.462e-7,38915,10680,59.454,0.29687,97.246,93.196,0.64288,0.20905,17003401,836.25,34.561,0.52946,0.55624,0.34983,0.053951,0.12568,0.8565,0.55007,4.1885e-4,0,0,0,0,6.9207e-4,0.0090156,6.2992,201.06,83.864,1.023e-4,NaN,14.802,1009.7,340.27,0.05,0.010621
0.86125,34.015,70.467,12.113,70.847,12.15,3.5698,4.6719e-5,3.5698,7.4986e-4,7.3259,0.94169,28.61,-80.6,9.7921,4.5123,0,0.0038781,-2.7224e-7,38895,10659,59.438,0.29681,97.154,93.178,0.6311,0.21077,17138632,886.25,35.191,0.52972,0.55736,0.34981,0.054137,0.12578,0.87498,0.55123,1.6183e-4,0,0,0,0,0.0010388,0.0090852,6.2992,201.06,83.801,1.5895e-4,NaN,14.779,1009.3,340.25,0.05,0.010883
0.91125,37.553,71.072,13.381,71.454,13.439,3.9373,5.7412e-5,3.9373,8.3546e-4,7.3774,1.2451,28.61,-80.6,9.7921,4.1032,0,0.0046339,-5.98e-7,38875,10639,59.421,0.29675,97.647,93.16,0.7123,0.21236,17262624,936.25,35.447,0.52995,0.55327,0.34978,0.054308,0.12586,0.78058,0.55466,2.7618e-4,0,0,0,0,0.0014612,0.0091631,6.2992,201.06,83.724,2.5387e-4,NaN,14.756,1008.8,340.24,0.05,0.011147
0.96125,41.124,71.741,14.618,72.126,14.692,4.3078,6.9303e-5,4.3078,9.2176e-4,7.4418,1.4764,28.61,-80.6,9.7921,3.892,0,0.0054027,-8.5401e-7,38854,10619,59.405,0.29669,97.91,93.142,0.75696,0.21429,17413723,984.98,35.958,0.53024,0.55143,0.34975,0.054515,0.12597,0.73305,0.55268,4.0938e-4,0,0,0,0,0.0019509,0.0092493,6.2992,201.06,83.634,4.1056e-4,NaN,14.733,1008.4,340.23,0.05,0.011471
1.0113,44.729,72.472,14.99,72.861,15.082,4.6818,8.2421e-5,4.6818,0.0010087,7.5193,1.6699,28.61,-80.6,9.792,3.5478,0,0.006178,-1.193e-6,38832,10596,59.387,0.29663,98.351,93.122,0.83008,0.21632,17573142,1e3,36.428,0.53054,0.54844,0.34972,0.054734,0.12608,0.65724,0.54278,2.7809e-5,0,0,0,0,0.0025035,0.0093435,6.2992,201.06,83.53,6.1567e-4,NaN,14.709,1008,340.21,0.05,0.011736
1.0613,48.371,73.222,14.983,73.616,15.091,5.0599,9.6812e-5,5.0599,0.0010963,7.6066,1.8027,28.61,-80.6,9.792,3.2691,0,0.0069499,-1.0285e-6,38799,10563,59.36,0.29653,98.719,93.092,0.89318,0.21846,17741302,1e3,36.989,0.53086,0.54626,0.34969,0.054965,0.1262,0.59743,0.53039,-3.379e-6,0,0,0,0,0.0031067,0.0094404,6.2992,201.06,83.412,8.1501e-4,NaN,14.686,1007.6,340.2,0.05,0.011938
1.1113,52.051,73.972,14.986,74.371,15.1,5.4425,1.1252e-4,5.4425,0.0011846,7.6976,1.8525,28.61,-80.6,9.792,3.2297,0,0.0077327,-1.022e-6,38758,10522,59.327,0.29641,98.773,93.056,0.90759,0.22077,17923005,1e3,37.76,0.53121,0.54628,0.34966,0.055214,0.12634,0.58909,0.53104,4.7822e-4,0,0,0,0,0.0037663,0.0095372,6.2992,201.06,83.28,0.0010075,NaN,14.662,1007.1,340.18,0.05,0.012283
1.1613,55.768,74.721,14.985,75.127,15.113,5.8297,1.296e-4,5.8297,0.0012737,7.7934,1.9597,28.61,-80.6,9.792,3.0588,0,0.0085202,-8.7719e-7,38717,10482,59.294,0.29629,99.005,93.019,0.95031,0.223,18098178,1e3,38.432,0.53154,0.54517,0.34962,0.055455,0.12646,0.55323,0.52089,-4.408e-4,0,0,0,0,0.0044818,0.0096342,6.2992,201.06,83.133,0.001197,NaN,14.638,1006.7,340.17,0.05,0.012559
1.2113,59.523,75.471,14.986,75.883,15.122,6.2219,1.4808e-4,6.2219,0.0013637,7.8923,2.0226,28.61,-80.6,9.792,3.0209,0,0.0093231,-8.9816e-7,38676,10441,59.261,0.29617,99.059,92.983,0.96459,0.22533,18281453,1e3,39.226,0.53189,0.54522,0.34958,0.055707,0.1266,0.54538,0.52108,2.6608e-4,0,0,0,0,0.0052563,0.0097312,6.2992,201.06,82.973,0.0013517,NaN,14.613,1006.3,340.15,0.05,0.012723
1.2613,63.316,76.221,14.978,76.639,15.138,6.6191,1.6803e-4,6.6191,0.0014544,7.9983,2.1952,28.61,-80.6,9.792,2.721,0,0.010114,-7.6035e-7,38636,10400,59.228,0.29605,99.477,92.946,1.0369,0.22749,18450594,1e3,39.815,0.53222,0.54318,0.34955,0.055941,0.12673,0.48389,0.49597,-1.2013e-4,0,0,0,0,0.0060697,0.0098283,6.2992,201.06,82.798,0.0015077,NaN,14.588,1005.8,340.14,0.05,0.012877
1.3113,67.145,76.97,14.977,77.396,15.148,7.0218,1.8947e-4,7.0218,0.001546,8.1097,2.2669,28.61,-80.6,9.792,2.6977,0,0.010906,-7.3328e-7,38595,10359,59.194,0.29594,99.512,92.909,1.0482,0.22985,18636072,1e3,40.642,0.53258,0.54337,0.34951,0.056197,0.12687,0.47921,0.49496,-2.9024e-4,0,0,0,0,0.0069138,0.0099255,6.2992,201.06,82.609,0.0016346,NaN,14.564,1005.4,340.12,0.05,0.013042
1.3613,71.013,77.719,14.969,78.153,15.162,7.4302,2.1245e-4,7.4302,0.0016383,8.2262,2.4101,28.61,-80.6,9.792,2.5117,0,0.011702,-5.8715e-7,38554,10319,59.161,0.29582,99.779,92.872,1.0965,0.23211,18812937,1e3,41.35,0.53292,0.54236,0.34947,0.056442,0.127,0.44197,0.47715,-2.6409e-4,0,0,0,0,0.007806,0.010023,6.2992,201.06,82.405,0.0017492,NaN,14.538,1004.9,340.11,0.05,0.013268
1.4113,74.917,78.468,14.954,78.911,15.183,7.8446,2.3703e-4,7.8446,0.0017312,8.3525,2.6298,28.61,-80.6,9.7919,2.1504,0,0.012454,3.2788e-8,38514,10278,59.128,0.2957,100.31,92.835,1.1871,0.23426,1.898e7,1e3,41.936,0.53325,0.54028,0.34944,0.056674,0.12713,0.37138,0.4323,-2.183e-4,0,0,0,0,0.0086807,0.01012,6.2992,201.06,82.188,0.0018222,NaN,14.513,1004.5,340.09,0.05,0.0135
1.4613,78.859,79.215,14.941,79.669,15.201,8.2656,2.6322e-4,8.2656,0.0018246,8.4881,2.7972,28.61,-80.6,9.7919,1.9396,0,0.013162,-7.1735e-8,38473,10237,59.094,0.29558,100.63,92.798,1.244,0.23651,19156329,1e3,42.656,0.53359,0.53937,0.3494,0.056919,0.12727,0.3313,0.40282,1.2545e-4,0,0,0,0,0.009513,0.010218,6.2992,201.06,81.957,0.0018605,NaN,14.487,1004,340.08,0.05,0.013783
1.5113,82.839,79.962,14.922,80.427,15.223,8.6935,2.9108e-4,8.6935,0.0019184,8.6332,3.0105,28.61,-80.6,9.7919,1.6269,0,0.013814,5.0467e-8,38432,10196,59.061,0.29546,101.12,92.761,1.3276,0.2387,19326986,1e3,43.324,0.53393,0.53805,0.34937,0.057157,0.12741,0.27331,0.35248,-2.8824e-4,0,0,0,0,0.010289,0.010315,6.2992,201.06,81.714,0.0019351,NaN,14.462,1003.5,340.06,0.05,0.014051
1.5613,86.856,80.708,14.899,81.186,15.249,9.1291,3.2063e-4,9.1291,0.0020124,8.7897,3.2497,28.61,-80.6,9.7919,1.2595,0,0.014377,8.4994e-7,38391,10156,59.027,0.29534,101.72,92.724,1.4283,0.24086,19494595,1e3,43.984,0.53426,0.53677,0.34933,0.057391,0.12754,0.20741,0.28579,3.7278e-4,0,0,0,0,0.010946,0.010413,6.2992,201.06,81.46,0.0019703,NaN,14.435,1003.1,340.05,0.05,0.01426
1.6113,90.91,81.453,14.87,81.944,15.278,9.5727,3.5193e-4,9.5727,0.0021064,8.9586,3.5061,28.61,-80.6,9.7919,0.85475,0,0.014812,1.8663e-6,38351,10115,58.993,0.29522,102.41,92.687,1.5432,0.24299,1.966e7,1e3,44.66,0.53459,0.53577,0.34929,0.057623,0.12768,0.13763,0.20121,-2.8063e-4,0,0,0,0,0.011417,0.01051,6.2992,201.06,81.197,0.0019948,NaN,14.409,1002.6,340.03,0.05,0.014423
1.6613,95.001,82.196,14.841,82.703,15.306,10.025,3.8499e-4,10.025,0.0022003,9.1402,3.7412,28.61,-80.6,9.7919,0.51326,0,0.015099,3.8036e-6,38310,10074,58.96,0.2951,103.01,92.649,1.6452,0.24517,19828971,1e3,45.407,0.53493,0.53536,0.34926,0.05786,0.12781,0.081062,0.12138,-3.8754e-4,0,0,0,0,0.011656,0.010608,6.2992,201.06,80.928,0.0020065,NaN,14.382,1002.1,340.01,0.05,0.014624
1.7113,99.129,82.938,14.816,83.462,15.329,10.487,4.1986e-4,10.487,0.0022939,9.3318,3.9326,28.61,-80.6,9.7919,0.29931,0,0.015282,7.86e-6,38269,10033,58.926,0.29498,103.4,92.612,1.7133,0.24743,20005155,1e3,46.235,0.53528,0.53543,0.34922,0.058107,0.12796,0.046695,0.068767,3.7467e-4,0,0,0,0,0.011723,0.010706,6.2992,201.06,80.654,0.0020006,NaN,14.356,1001.6,340,0.05,0.015194
1.7613,103.29,83.679,14.782,84.22,15.358,10.959,4.5657e-4,10.959,0.0023871,9.5345,4.168,28.61,-80.6,9.7919,0.035457,0,-0.015324,7.635e-5,38228,9992.7,58.892,0.29486,103.9,92.574,1.7981,0.24961,20173780,1e3,47.047,0.53562,0.53562,0.34918,0.058344,0.1281,0.0054471,0.021437,1.5213e-4,0,0,0,0,-0.011584,0.010804,6.2992,201.06,80.379,0.0019869,NaN,14.329,1001.1,339.98,0.05,0.015648
1.8113,107.5,84.417,14.75,84.978,15.386,11.441,4.9515e-4,11.441,0.0024798,9.7484,4.3791,28.61,-80.6,9.7918,0.29179,0,-0.015212,1.0334e-5,38188,9951.9,58.858,0.29474,103.42,92.537,1.728,0.25184,20346445,1e3,47.911,0.53597,0.53611,0.34914,0.058587,0.12825,0.045508,0.089945,8.8559e-5,0,0,0,0,-0.011215,0.010901,6.2992,201.06,80.104,0.0019506,NaN,14.301,1000.6,339.97,0.05,0.015886
1.8613,111.74,85.154,14.722,85.736,15.408,11.934,5.3561e-4,11.934,0.0025716,9.9719,4.5451,28.61,-80.6,9.7918,0.41759,0,-0.014997,7.7056e-6,38147,9911.2,58.824,0.29462,103.19,92.499,1.6976,0.25416,20526384,1e3,48.82,0.53634,0.53662,0.3491,0.058841,0.1284,0.065606,0.12177,2.1592e-4,0,0,0,0,-0.010703,0.010999,6.2992,201.06,79.832,0.0019251,NaN,14.274,1000.1,339.95,0.05,0.016045
1.9113,116.01,85.891,14.701,86.494,15.424,12.438,5.7799e-4,12.438,0.0026626,10.202,4.6667,28.61,-80.6,9.7918,0.42729,0,-0.014759,8.2927e-6,38106,9870.5,58.79,0.2945,103.18,92.461,1.7011,0.25657,20713268,1e3,49.762,0.53672,0.53702,0.34905,0.059104,0.12856,0.067173,0.12411,2.3158e-4,0,0,0,0,-0.010174,0.011097,6.2992,201.06,79.564,0.0019165,NaN,14.246,999.64,339.93,0.05,0.016199
1.9613,120.33,86.625,14.674,87.252,15.445,12.954,6.2232e-4,12.954,0.0027526,10.44,4.8204,28.61,-80.6,9.7918,0.52344,0,-0.014471,6.9738e-6,38065,9829.7,58.756,0.29439,103,92.423,1.6798,0.25892,20894379,1e3,50.698,0.53709,0.53754,0.34901,0.05936,0.12871,0.082749,0.14869,-4.3757e-4,0,0,0,0,-0.0096045,0.011195,6.2992,201.06,79.301,0.0019277,NaN,14.218,999.14,339.91,0.05,0.016447
2.0113,124.67,87.359,14.653,88.01,15.461,13.482,6.6863e-4,13.482,0.0028416,10.683,4.9324,28.61,-80.6,9.7918,0.51799,0,-0.014189,7.6281e-6,38025,9789,58.722,0.29427,103.02,92.385,1.6876,0.26134,21081944,1e3,51.662,0.53747,0.53791,0.34897,0.059626,0.12888,0.081868,0.14756,3.8177e-4,0,0,0,0,-0.0090638,0.011293,6.2992,201.06,79.043,0.0019645,NaN,14.19,998.63,339.9,0.05,0.016663
2.0613,129.06,88.091,14.596,88.767,15.505,14.022,7.1698e-4,14.022,0.0029296,10.937,5.2312,28.61,-80.6,9.7918,0.96481,0,-0.013763,4.5662e-6,37984,9748.2,58.687,0.29415,102.23,92.347,1.5695,0.26338,21238155,1e3,52.579,0.5378,0.5393,0.34893,0.059849,0.12902,0.1564,0.25401,4.8744e-4,0,0,0,0,-0.008397,0.011391,6.2992,201.06,78.791,0.0020163,NaN,14.161,998.11,339.88,0.05,0.016988
2.1113,133.48,88.82,14.543,89.524,15.545,14.576,7.6741e-4,14.576,0.0030166,11.206,5.4894,28.61,-80.6,9.7918,1.2986,0,-0.013132,3.2695e-6,37943,9707.5,58.653,0.29403,101.68,92.309,1.4869,0.2655,2.14e7,1e3,53.55,0.53814,0.54082,0.34889,0.060081,0.12916,0.21445,0.32681,2.014e-4,0,0,0,0,-0.0075241,0.011489,6.2992,201.06,78.548,0.0020617,NaN,14.132,997.59,339.86,0.05,0.017231
2.1613,137.94,89.546,14.511,90.28,15.568,15.143,8.1997e-4,15.143,0.0031025,11.484,5.6387,28.61,-80.6,9.7918,1.3888,0,-0.0124,3.1966e-6,37902,9666.8,58.618,0.29391,101.53,92.271,1.4697,0.2678,21577617,1e3,54.53,0.5385,0.54156,0.34885,0.060333,0.12932,0.23048,0.34516,-2.9891e-4,0,0,0,0,-0.006595,0.011587,6.2992,201.06,78.319,0.0020924,NaN,14.103,997.07,339.85,0.05,0.01739
2.2113,142.44,90.272,14.487,91.036,15.585,15.724,8.7473e-4,15.724,0.0031873,11.769,5.7476,28.61,-80.6,9.7917,1.4018,0,-0.01163,3.6859e-6,37862,9626,58.584,0.29379,101.51,92.233,1.4728,0.27016,21759018,1e3,55.51,0.53888,0.542,0.3488,0.060592,0.12949,0.23283,0.34882,4.4261e-4,0,0,0,0,-0.0057005,0.011685,6.2992,201.06,78.102,0.0021681,NaN,14.074,996.54,339.83,0.05,0.017597
2.2613,146.97,90.996,14.472,91.791,15.595,16.32,9.3174e-4,16.32,0.0032711,12.058,5.8118,28.61,-80.6,9.7917,1.3327,0,-0.010862,3.4268e-6,37821,9585.3,58.549,0.29367,101.63,92.195,1.4971,0.27258,21945480,1e3,56.491,0.53928,0.5421,0.34876,0.060859,0.12966,0.22052,0.335,-4.1414e-4,0,0,0,0,-0.0048849,0.011783,6.2992,201.06,77.9,0.0022464,NaN,14.045,996.01,339.81,0.05,0.017761
2.3113,151.54,91.72,14.446,92.547,15.613,16.93,9.9109e-4,16.93,0.0033541,12.351,5.9223,28.61,-80.6,9.7917,1.3738,0,-0.010096,2.9546e-6,37780,9544.5,58.515,0.29355,101.56,92.156,1.4928,0.2749,22123080,1e3,57.483,0.53965,0.54265,0.34871,0.061113,0.12982,0.22786,0.34439,-4.1802e-4,0,0,0,0,-0.0041501,0.011881,6.2992,201.06,77.711,0.0023227,NaN,14.015,995.48,339.79,0.05,0.018041
2.3612,156.14,92.441,14.394,93.303,15.653,17.555,0.0010528,17.555,0.0034362,12.653,6.1503,28.61,-80.6,9.7917,1.6616,0,-0.0092222,3.1206e-6,37739,9503.8,58.48,0.29343,101.1,92.118,1.4258,0.27697,22280679,1e3,58.501,0.53999,0.54433,0.34867,0.061341,0.12997,0.27992,0.40251,3.3298e-4,0,0,0,0,-0.0034116,0.011979,6.2992,201.06,77.537,0.0024162,NaN,13.985,994.94,339.77,0.05,0.018194
2.4112,160.78,93.16,14.362,94.058,15.677,18.196,0.0011171,18.196,0.0035176,12.965,6.2869,28.61,-80.6,9.7917,1.7715,0,-0.0082316,2.6973e-6,37699,9463.1,58.445,0.29331,100.93,92.079,1.4047,0.27919,22449499,1e3,59.509,0.54035,0.54526,0.34863,0.061585,0.13013,0.30022,0.42404,-4.1602e-4,0,0,0,0,-0.0026754,0.012077,6.2992,201.06,77.38,0.0025161,NaN,13.955,994.39,339.76,0.05,0.018556
2.4612,165.46,93.879,14.362,94.813,15.675,18.852,0.0011839,18.852,0.0035982,13.279,6.2789,28.61,-80.6,9.7917,1.616,0,-0.0072519,2.4301e-6,37658,9422.3,58.41,0.29319,101.17,92.04,1.4501,0.28164,22637101,1e3,60.481,0.54075,0.54487,0.34858,0.061855,0.13031,0.27162,0.39555,4.5793e-4,0,0,0,0,-0.0020407,0.012175,6.2992,201.06,77.241,0.0026121,NaN,13.925,993.84,339.74,0.05,0.018752
2.5112,170.17,94.597,14.346,95.569,15.687,19.524,0.0012533,19.524,0.0036782,13.594,6.3458,28.61,-80.6,9.7917,1.6203,0,-0.0062861,2.3421e-6,37617,9381.6,58.375,0.29307,101.17,92.002,1.4555,0.28392,22811228,1e3,61.477,0.54112,0.54527,0.34854,0.062107,0.13048,0.27242,0.39835,2.9332e-4,0,0,0,0,-0.0015089,0.012273,6.2992,201.06,77.119,0.0026835,NaN,13.894,993.29,339.72,0.05,0.018913
2.5612,174.92,95.314,14.322,96.324,15.705,20.211,0.0013255,20.211,0.0037576,13.914,6.4447,28.61,-80.6,9.7916,1.6979,0,-0.0052759,2.0204e-6,37576,9340.8,58.34,0.29295,101.05,91.963,1.4425,0.28612,22977822,1e3,62.482,0.54148,0.54602,0.34849,0.062349,0.13064,0.28667,0.41505,1.9468e-4,0,0,0,0,-0.0010468,0.012371,6.2992,201.06,77.015,0.0027606,NaN,13.863,992.74,339.7,0.05,0.019064
2.6112,179.7,96.03,14.307,97.08,15.717,20.915,0.0014005,20.915,0.0038365,14.238,6.5076,28.61,-80.6,9.7916,1.7215,0,-0.0042189,1.4694e-6,37536,9300.1,58.305,0.29284,101.01,91.924,1.443,0.28835,23146868,1e3,63.48,0.54185,0.54651,0.34845,0.062595,0.13081,0.29105,0.42078,-4.3734e-5,0,0,0,0,-6.5914e-4,0.012469,6.2992,201.06,76.929,0.002831,NaN,13.832,992.17,339.68,0.05,0.019223
2.6612,184.52,96.746,14.303,97.836,15.72,21.635,0.0014783,21.635,0.0039149,14.564,6.5226,28.61,-80.6,9.7916,1.673,0,-0.003152,1.3245e-6,37495,9259.4,58.27,0.29272,101.09,91.885,1.4617,0.29063,2.332e7,1e3,64.468,0.54223,0.54664,0.3484,0.062847,0.13098,0.28212,0.41258,2.6898e-4,0,0,0,0,-3.622e-4,0.012568,6.2992,201.06,76.863,0.0028903,NaN,13.801,991.61,339.66,0.05,0.019372
2.7112,189.38,97.461,14.302,98.592,15.72,22.371,0.001559,22.371,0.0039928,14.891,6.526,28.61,-80.6,9.7916,1.6193,0,-0.0020863,8.1627e-7,37454,9218.6,58.235,0.2926,101.18,91.846,1.4817,0.2929,23492111,1e3,65.455,0.5426,0.54675,0.34835,0.063099,0.13115,0.27229,0.40411,3.7075e-4,0,0,0,0,-1.5625e-4,0.012666,6.2992,201.06,76.816,0.0029263,NaN,13.769,991.04,339.64,0.05,0.019521
2.7612,194.27,98.177,14.315,99.349,15.71,23.124,0.0016427,23.124,0.0040701,15.216,6.4732,28.61,-80.6,9.7916,1.482,0,-0.0010532,1.1239e-6,37414,9177.9,58.2,0.29248,101.4,91.807,1.5232,0.29524,2.367e7,1e3,66.436,0.543,0.54649,0.34831,0.063358,0.13133,0.2474,0.37696,-4.4957e-4,0,0,0,0,-3.9191e-5,0.012764,6.2992,201.06,76.788,0.0029642,NaN,13.737,990.47,339.62,0.05,0.01967
2.8112,199.19,98.894,14.336,100.11,15.694,23.893,0.0017293,23.893,0.0041469,15.538,6.386,28.61,-80.6,9.7916,1.2998,0,-8.6922e-5,1.9144e-6,37373,9137.1,58.164,0.29236,101.7,91.767,1.5769,0.29762,2.385e7,1e3,67.425,0.54339,0.54611,0.34826,0.063622,0.13152,0.21486,0.33922,1.6549e-4,0,0,0,0,-2.6274e-7,0.012863,6.2992,201.06,76.777,0.0030736,NaN,13.705,989.89,339.6,0.05,0.019817
2.8612,204.16,99.612,14.358,100.87,15.676,24.678,0.0018191,24.678,0.0042234,15.854,6.2921,28.61,-80.6,9.7915,1.1207,0,7.672e-4,2.3742e-6,37332,9096.4,58.129,0.29224,102,91.728,1.6308,0.29999,24029424,1e3,68.427,0.54379,0.54582,0.34821,0.063885,0.1317,0.18344,0.29961,8.3559e-5,0,0,0,0,2.0149e-5,0.012962,6.2992,201.06,76.784,0.0032413,NaN,13.673,989.31,339.58,0.05,0.019967
2.9112,209.15,100.33,14.354,101.62,15.681,25.478,0.001912,25.478,0.0042997,16.17,6.3132,28.61,-80.6,9.7915,1.1575,0,0.0016234,1.9368e-6,37291,9055.6,58.093,0.29212,101.94,91.689,1.6276,0.30211,24187969,1e3,69.416,0.54415,0.54631,0.34816,0.064119,0.13187,0.18986,0.30892,-2.9199e-4,0,0,0,0,8.897e-5,0.01306,6.2992,201.06,76.805,0.0034413,NaN,13.64,988.72,339.57,0.05,0.020116
2.9612,214.19,101.05,14.376,102.38,15.666,26.295,0.0020082,26.295,0.0043759,16.484,6.2248,28.61,-80.6,9.7915,1.0155,0,0.0024398,2.161e-6,37251,9014.9,58.058,0.292,102.18,91.649,1.6722,0.30441,24361268,1e3,70.423,0.54453,0.54621,0.34811,0.064375,0.13205,0.16528,0.27575,-2.2392e-6,0,0,0,0,1.9795e-4,0.013159,6.2992,201.06,76.842,0.0036509,NaN,13.608,988.13,339.55,0.05,0.020265
3.0112,219.26,101.77,14.384,103.14,15.661,27.127,0.0021079,27.127,0.0044521,16.794,6.1958,28.61,-80.6,9.7915,0.98868,0,0.0032146,1.7559e-6,37210,8974.2,58.022,0.29188,102.23,91.61,1.686,0.30657,24522797,1e3,71.418,0.5449,0.54649,0.34807,0.064614,0.13222,0.16068,0.27049,1.4146e-4,0,0,0,0,3.3884e-4,0.013258,6.2992,201.06,76.893,0.0038773,NaN,13.575,987.53,339.53,0.05,0.020413
3.0612,224.37,102.49,14.391,103.91,15.657,27.974,0.0022111,27.974,0.0045287,17.104,6.1683,28.61,-80.6,9.7915,0.97503,0,0.0040081,1.0804e-6,37169,8933.4,57.986,0.29176,102.26,91.57,1.6964,0.3087,24681622,1e3,72.41,0.54526,0.54681,0.34802,0.064851,0.13239,0.15835,0.26792,-2.0387e-4,0,0,0,0,5.1959e-4,0.013357,6.2992,201.06,76.958,0.0040824,NaN,13.542,986.94,339.51,0.05,0.020562
3.1112,229.51,103.21,14.426,104.67,15.631,28.837,0.002318,28.837,0.0046055,17.409,6.0199,28.61,-80.6,9.7915,0.76805,0,0.0047167,1.6326e-6,37128,8892.7,57.95,0.29164,102.62,91.53,1.7598,0.31103,24857189,1e3,73.442,0.54566,0.54663,0.34797,0.065111,0.13258,0.12331,0.21658,5.0499e-5,0,0,0,0,7.0887e-4,0.013456,6.2992,201.06,77.036,0.0043118,NaN,13.508,986.33,339.48,0.05,0.020714
3.1612,234.69,103.93,14.452,105.43,15.612,29.715,0.0024286,29.715,0.0046828,17.706,5.9067,28.61,-80.6,9.7915,0.63132,0,0.005296,1.1662e-6,37088,8851.9,57.914,0.29152,102.86,91.49,1.8047,0.31329,25025443,1e3,74.473,0.54604,0.5467,0.34792,0.065362,0.13276,0.10058,0.18069,-4.7679e-4,0,0,0,0,8.81e-4,0.013555,6.2992,201.06,77.127,0.0045789,NaN,13.475,985.73,339.46,0.05,0.020862
3.2112,239.9,104.65,14.464,106.19,15.605,30.608,0.0025432,30.608,0.0047607,18.001,5.8577,28.61,-80.6,9.7914,0.61178,0,0.0058426,1.2492e-6,37047,8811.2,57.878,0.29141,102.9,91.45,1.8169,0.31539,25181633,1e3,75.474,0.5464,0.54702,0.34787,0.065596,0.13293,0.097368,0.17557,2.5594e-4,0,0,0,0,0.0010581,0.013654,6.2992,201.06,77.227,0.0048592,NaN,13.441,985.11,339.44,0.05,0.021009
3.2612,245.15,105.38,14.497,106.95,15.581,31.515,0.0026618,31.515,0.0048393,18.291,5.7096,28.61,-80.6,9.7914,0.43461,0,0.0063204,8.2448e-7,37006,8770.5,57.842,0.29129,103.22,91.41,1.8742,0.31767,25351941,1e3,76.534,0.54679,0.54711,0.34782,0.065851,0.13312,0.068479,0.12711,3.117e-4,0,0,0,0,0.0012207,0.013753,6.2992,201.06,77.337,0.005133,NaN,13.407,984.5,339.42,0.05,0.021158
3.3112,250.44,106.11,14.545,107.72,15.542,32.437,0.0027846,32.437,0.0049187,18.57,5.4769,28.61,-80.6,9.7914,0.12108,0,0.0065627,-4.9337e-6,36965,8729.7,57.806,0.29117,103.8,91.37,1.9731,0.32012,25535349,1e3,77.689,0.54721,0.54724,0.34777,0.066124,0.13332,0.018735,0.035325,2.3841e-4,0,0,0,0,0.0012961,0.013852,6.2992,201.06,77.453,0.0054124,NaN,13.372,983.88,339.4,0.05,0.021306
3.3612,255.76,106.83,14.575,108.48,15.519,33.372,0.0029117,33.372,0.0049991,18.84,5.331,28.61,-80.6,9.7914,0.04201,0,-0.0065903,-2.3173e-5,36925,8689,57.77,0.29105,103.95,91.33,2.0036,0.3224,25704323,1e3,78.799,0.54761,0.54761,0.34772,0.066378,0.13351,0.0064709,0.013848,-1.9203e-4,0,0,0,0,-0.0012889,0.013952,6.2992,201.06,77.572,0.0056837,NaN,13.338,983.25,339.38,0.05,0.021455
3.4112,261.12,107.56,14.596,109.25,15.504,34.321,0.0030433,34.321,0.0050805,19.104,5.2265,28.61,-80.6,9.7914,0.13133,0,-0.0064984,-8.3089e-6,36884,8648.2,57.734,0.29093,103.78,91.29,1.9835,0.32458,25866143,1e3,79.88,0.54798,0.54801,0.34767,0.066623,0.1337,0.020337,0.041297,-3.0917e-4,0,0,0,0,-0.0012365,0.014051,6.2992,201.06,77.69,0.0059414,NaN,13.303,982.62,339.36,0.05,0.02161
3.4612,266.52,108.29,14.62,110.01,15.485,35.282,0.0031793,35.282,0.005163,19.363,5.101,28.61,-80.6,9.7914,0.25225,0,-0.006325,-5.3037e-6,36843,8607.5,57.697,0.29081,103.56,91.249,1.9543,0.32681,26031343,1e3,80.999,0.54837,0.54848,0.34762,0.066872,0.13389,0.039342,0.077688,-2.3476e-5,0,0,0,0,-0.0011556,0.01415,6.2992,201.06,77.805,0.0061677,NaN,13.268,981.99,339.34,0.05,0.021759
3.5112,271.95,109.03,14.661,110.78,15.45,36.257,0.00332,36.257,0.0052465,19.612,4.8727,28.61,-80.6,9.7913,0.52922,0,-0.0059154,-3.4121e-6,36802,8566.8,57.661,0.29069,103.06,91.209,1.8808,0.32926,26213144,1e3,82.279,0.5488,0.54927,0.34756,0.067146,0.13409,0.083872,0.15838,-3.0012e-4,0,0,0,0,-9.9591e-4,0.014249,6.2992,201.06,77.916,0.0063913,NaN,13.232,981.35,339.32,0.05,0.021908
3.5612,277.42,109.76,14.678,111.54,15.436,37.243,0.0034653,37.243,0.0053311,19.853,4.7797,28.61,-80.6,9.7913,0.59616,0,-0.0053519,-3.1362e-6,36762,8526,57.624,0.29057,102.94,91.168,1.8686,0.33145,26374671,1e3,83.401,0.54918,0.54977,0.34751,0.067392,0.13428,0.09485,0.17801,-2.1652e-4,0,0,0,0,-8.0456e-4,0.014348,6.2992,201.06,78.017,0.0066125,NaN,13.197,980.71,339.3,0.05,0.02215
3.6112,282.93,110.5,14.692,112.31,15.423,38.242,0.0036154,38.242,0.0054168,20.09,4.6918,28.61,-80.6,9.7913,0.65976,0,-0.0047259,-3.5836e-6,36721,8485.3,57.588,0.29045,102.83,91.127,1.8575,0.33366,26536860,1e3,84.538,0.54957,0.55029,0.34746,0.067639,0.13447,0.10536,0.19627,5.63e-5,0,0,0,0,-6.1918e-4,0.014447,6.2992,201.06,78.108,0.0068607,NaN,13.161,980.07,339.27,0.05,0.022376
3.6612,288.47,111.23,14.713,113.07,15.403,39.252,0.0037703,39.252,0.0055034,20.322,4.5584,28.61,-80.6,9.7913,0.79287,0,-0.003991,-2.6666e-6,36680,8444.5,57.551,0.29033,102.6,91.087,1.8272,0.33597,26707490,1e3,85.77,0.54997,0.55102,0.3474,0.067898,0.13467,0.12758,0.23351,2.5873e-4,0,0,0,0,-4.3558e-4,0.014546,6.2992,201.06,78.187,0.0071231,NaN,13.125,979.42,339.25,0.05,0.022611
3.7112,294.05,111.97,14.73,113.84,15.387,40.274,0.0039301,40.274,0.0055912,20.547,4.4478,28.61,-80.6,9.7913,0.89723,0,-0.0031173,-3.7612e-6,36639,8403.8,57.514,0.29021,102.42,91.046,1.8053,0.33827,26876724,1e3,86.999,0.55038,0.55171,0.34735,0.068157,0.13488,0.14523,0.2629,1.9416e-4,0,0,0,0,-2.6218e-4,0.014645,6.2992,201.06,78.251,0.0074023,NaN,13.089,978.76,339.23,0.05,0.022876
3.7612,299.67,112.7,14.734,114.6,15.379,41.307,0.004095,41.307,0.0056801,20.768,4.41,28.61,-80.6,9.7913,0.90857,0,-0.0021986,-4.5979e-6,36599,8363.1,57.477,0.29009,102.4,91.005,1.8091,0.34047,27037739,1e3,88.143,0.55077,0.55213,0.34729,0.068404,0.13507,0.14717,0.26617,4.3723e-4,0,0,0,0,-1.2875e-4,0.014744,6.2992,201.06,78.299,0.0077844,NaN,13.052,978.1,339.21,0.05,0.023038
3.8112,305.32,113.44,14.746,115.37,15.364,42.351,0.0042651,42.351,0.0057701,20.986,4.3125,28.61,-80.6,9.7912,1.0081,0,-0.001188,-5.0454e-6,36558,8322.3,57.44,0.28997,102.23,90.964,1.7889,0.34281,2.721e7,1e3,89.416,0.55118,0.55286,0.34724,0.068667,0.13528,0.16422,0.29412,2.5899e-4,0,0,0,0,-3.7085e-5,0.014843,6.2992,201.06,78.329,0.0082422,NaN,13.015,977.44,339.19,0.05,0.023188
3.8612,311.01,114.18,14.745,116.13,15.358,43.405,0.0044405,43.405,0.0058616,21.202,4.297,28.61,-80.6,9.7912,1.0078,0,-1.3155e-4,-5.4032e-6,36517,8281.6,57.403,0.28986,102.24,90.923,1.7959,0.34505,27373096,1e3,90.589,0.55158,0.55326,0.34718,0.068919,0.13548,0.16418,0.29469,-3.2098e-4,0,0,0,0,-4.4888e-7,0.014942,6.2992,201.06,78.341,0.0087348,NaN,12.978,976.77,339.16,0.05,0.023448
3.9112,316.74,114.92,14.752,116.9,15.344,44.471,0.0046217,44.471,0.0059545,21.415,4.2199,28.61,-80.6,9.7912,1.0964,0,9.8813e-4,-5.5567e-6,36476,8240.8,57.366,0.28974,102.09,90.882,1.779,0.34743,27547896,1e3,91.903,0.55201,0.55398,0.34713,0.069187,0.13569,0.17951,0.31918,-1.9519e-4,0,0,0,0,2.4984e-5,0.015041,6.2992,201.06,78.334,0.0092077,NaN,12.941,976.1,339.14,0.05,0.023661
3.9612,322.5,115.66,14.758,117.66,15.33,45.547,0.0048087,45.547,0.0060491,21.623,4.1463,28.61,-80.6,9.7912,1.1882,0,0.0022344,-5.6766e-6,36436,8200.1,57.329,0.28962,101.94,90.84,1.7616,0.34986,27725466,1e3,93.254,0.55244,0.55476,0.34707,0.069461,0.13591,0.19553,0.34414,-1.3169e-4,0,0,0,0,1.2601e-4,0.01514,6.2992,201.06,78.305,0.0096759,NaN,12.904,975.43,339.12,0.05,0.023866
4.0112,328.31,116.39,14.747,118.42,15.328,46.633,0.0050018,46.633,0.0061455,21.832,4.1802,28.61,-80.6,9.7912,1.157,0,0.0035095,-5.66e-6,36395,8159.4,57.292,0.2895,101.99,90.799,1.7768,0.35214,27891815,1e3,94.46,0.55285,0.55505,0.34701,0.069718,0.13612,0.1901,0.33779,-3.7987e-4,0,0,0,0,3.0688e-4,0.015239,6.2992,201.06,78.253,0.010107,NaN,12.866,974.75,339.1,0.05,0.024021
4.0612,334.14,117.13,14.739,119.19,15.321,47.73,0.0052014,47.73,0.0062438,22.041,4.1821,28.61,-80.6,9.7912,1.177,0,0.0048197,-6.2168e-6,36354,8118.6,57.255,0.28938,101.96,90.757,1.7785,0.35453,28066233,1e3,95.767,0.55328,0.55556,0.34695,0.069988,0.13634,0.19361,0.34404,-8.6952e-6,0,0,0,0,5.7107e-4,0.015337,6.2992,201.06,78.178,0.010494,NaN,12.828,974.06,339.07,0.05,0.024175
4.1112,340.02,117.87,14.708,119.95,15.331,48.837,0.0054075,48.837,0.0063441,22.253,4.3275,28.61,-80.599,9.7911,1.0356,0,0.0060926,-6.6134e-6,36314,8077.9,57.217,0.28926,102.2,90.716,1.8232,0.35672,28224666,1e3,96.868,0.55368,0.55545,0.3469,0.070236,0.13654,0.16904,0.30734,1.8281e-4,0,0,0,0,9.0149e-4,0.015436,6.2992,201.06,78.08,0.010863,NaN,12.79,973.37,339.05,0.05,0.024324
4.1612,345.93,118.6,14.662,120.71,15.351,49.956,0.0056205,49.956,0.0064463,22.476,4.5473,28.61,-80.599,9.7911,0.81542,0,0.0071528,-6.5158e-6,36273,8037.1,57.18,0.28914,102.58,90.674,1.8903,0.35883,28375750,1e3,97.894,0.55406,0.55517,0.34684,0.070474,0.13674,0.13148,0.24686,-4.069e-4,0,0,0,0,0.0012282,0.015535,6.2992,201.06,77.96,0.011165,NaN,12.751,972.68,339.03,0.05,0.024476
4.2112,351.88,119.34,14.645,121.48,15.348,51.085,0.0058405,51.085,0.0065505,22.704,4.591,28.61,-80.599,9.7911,0.8204,0,0.0081392,-6.2637e-6,36232,7996.4,57.142,0.28902,102.58,90.632,1.8959,0.36128,28553907,1e3,99.245,0.5545,0.55563,0.34678,0.070751,0.13697,0.13233,0.24982,2.4377e-4,0,0,0,0,0.001569,0.015634,6.2992,201.06,77.823,0.011332,NaN,12.713,971.98,339,0.05,0.024667
4.2612,357.86,120.07,14.617,122.24,15.351,52.226,0.0060676,52.226,0.0066566,22.936,4.6898,28.61,-80.599,9.7911,0.76794,0,0.0091185,-5.7968e-6,36191,7955.6,57.105,0.2889,102.67,90.59,1.9175,0.36367,28727287,1e3,100.55,0.55494,0.55592,0.34672,0.071022,0.13719,0.12352,0.23511,-3.8663e-4,0,0,0,0,0.0019437,0.015732,6.2992,201.06,77.667,0.01143,NaN,12.674,971.28,338.98,0.05,0.024846
4.3112,363.89,120.8,14.577,123,15.363,53.379,0.006302,53.379,0.0067644,23.174,4.8515,28.61,-80.599,9.7911,0.64936,0,0.010004,-5.3832e-6,36151,7914.9,57.067,0.28878,102.88,90.549,1.9577,0.36599,28894417,1e3,101.78,0.55536,0.55607,0.34666,0.071285,0.13741,0.10376,0.20084,3.9757e-5,0,0,0,0,0.0023104,0.015831,6.2992,201.06,77.495,0.011414,NaN,12.635,970.57,338.96,0.05,0.025163
4.3612,369.94,121.53,14.536,123.76,15.374,54.544,0.0065436,54.544,0.0068738,23.421,5.006,28.61,-80.599,9.791,0.54798,0,0.010761,-6.1378e-6,36110,7874.2,57.029,0.28866,103.06,90.506,1.9935,0.36835,29064694,1e3,103.07,0.55579,0.5563,0.3466,0.071552,0.13764,0.087064,0.17094,1.0098e-4,0,0,0,0,0.0026392,0.01593,6.2992,201.06,77.308,0.011358,NaN,12.595,969.86,338.93,0.05,0.025328
4.4112,376.04,122.25,14.502,124.52,15.378,55.721,0.0067926,55.721,0.0069846,23.674,5.1152,28.61,-80.599,9.791,0.50843,0,0.011454,-6.8257e-6,36069,7833.4,56.991,0.28854,103.14,90.464,2.0119,0.37082,29243532,1e3,104.45,0.55625,0.55668,0.34654,0.071833,0.13788,0.080605,0.15966,-3.6514e-4,0,0,0,0,0.0029508,0.016029,6.2992,201.06,77.108,0.011312,NaN,12.556,969.15,338.91,0.05,0.025477
4.4612,382.17,122.98,14.451,125.29,15.395,56.911,0.0070488,56.911,0.0070965,23.934,5.3087,28.61,-80.599,9.791,0.37499,0,0.012065,-7.1467e-6,36028,7792.7,56.953,0.28842,103.38,90.422,2.0575,0.37317,29411976,1e3,105.74,0.55668,0.55692,0.34648,0.0721,0.1381,0.059003,0.11849,3.0756e-4,0,0,0,0,0.0032338,0.016127,6.2992,201.06,76.896,0.011234,NaN,12.516,968.43,338.88,0.05,0.025625
4.5112,388.34,123.7,14.373,126.05,15.435,58.115,0.0073124,58.115,0.0072094,24.208,5.6285,28.61,-80.599,9.791,0.093379,0,0.01236,-2.0559e-5,35988,7751.9,56.915,0.28831,103.91,90.38,2.1478,0.37529,29562194,1e3,106.9,0.55707,0.55708,0.34642,0.07234,0.13831,0.014456,0.027751,-1.0895e-4,0,0,0,0,0.0033559,0.016226,6.2992,201.06,76.676,0.011112,NaN,12.476,967.7,338.86,0.05,0.025838
4.5612,394.54,124.42,14.317,126.8,15.455,59.332,0.0075833,59.332,0.0073231,24.495,5.8194,28.61,-80.599,9.791,0.02998,0,-0.012379,-4.5368e-5,35947,7711.2,56.877,0.28819,104.03,90.337,2.1741,0.37765,29731235,1e3,108.25,0.55751,0.55751,0.34636,0.072609,0.13854,0.0046244,0.013302,-3.4004e-4,0,0,0,0,-0.0033247,0.016325,6.2992,201.06,76.453,0.010971,NaN,12.435,966.98,338.83,0.05,0.025995
4.6112,400.78,125.13,14.265,127.56,15.471,60.564,0.0078615,60.564,0.0074373,24.789,5.9869,28.61,-80.599,9.7909,0.12245,0,-0.012283,-6.5369e-6,35906,7670.5,56.839,0.28807,103.86,90.295,2.1534,0.38006,29903475,1e3,109.64,0.55795,0.55798,0.34629,0.072883,0.13878,0.018991,0.043885,-4.325e-4,0,0,0,0,-0.0032326,0.016424,6.2992,201.06,76.231,0.010869,NaN,12.395,966.25,338.81,0.05,0.026146
4.6612,407.05,125.84,14.182,128.32,15.514,61.811,0.0081471,61.811,0.0075519,25.097,6.2883,28.61,-80.599,9.7909,0.3697,0,-0.011885,3.2729e-7,35865,7629.7,56.8,0.28795,103.4,90.252,2.0877,0.3822,30054585,1e3,110.92,0.55835,0.55859,0.34624,0.073127,0.13899,0.058174,0.12483,1.1142e-4,0,0,0,0,-0.002993,0.016522,6.2992,201.06,76.013,0.010836,NaN,12.354,965.51,338.79,0.05,0.026352
4.7112,413.36,126.55,14.119,129.08,15.54,63.074,0.0084399,63.074,0.0076667,25.416,6.4909,28.61,-80.599,9.7909,0.49943,0,-0.01126,8.5519e-7,35825,7589,56.762,0.28783,103.17,90.209,2.0575,0.38451,30218436,1e3,112.3,0.55878,0.55921,0.34617,0.07339,0.13922,0.079181,0.16605,4.8979e-5,0,0,0,0,-0.0026547,0.016621,6.2992,201.06,75.804,0.010841,NaN,12.313,964.77,338.76,0.05,0.026609
4.7612,419.71,127.26,14.029,129.83,15.592,64.353,0.0087402,64.353,0.0077817,25.749,6.8049,28.61,-80.599,9.7909,0.75295,0,-0.010301,1.2924e-6,35784,7548.2,56.723,0.28771,102.72,90.167,1.9931,0.38658,30363357,1e3,113.61,0.55917,0.56013,0.34612,0.073626,0.13943,0.12111,0.24352,3.7221e-4,0,0,0,0,-0.0021984,0.01672,6.2992,201.06,75.609,0.010832,NaN,12.272,964.03,338.74,0.05,0.026862
4.8112,426.09,127.96,13.976,130.59,15.611,65.649,0.0090479,65.649,0.0078966,26.093,6.955,28.61,-80.599,9.7909,0.8298,0,-0.0091473,2.0413e-6,35743,7507.5,56.685,0.28759,102.59,90.124,1.9791,0.3889,30527557,1e3,115.02,0.55961,0.56077,0.34605,0.073891,0.13966,0.13407,0.26682,2.0301e-4,0,0,0,0,-0.0017132,0.016819,6.2992,201.06,75.434,0.010839,NaN,12.23,963.28,338.71,0.05,0.027118
4.8612,432.5,128.65,13.904,131.34,15.649,66.963,0.0093632,66.963,0.0080115,26.447,7.1813,28.61,-80.599,9.7908,0.99382,0,-0.0077718,2.0991e-6,35702,7466.8,56.646,0.28747,102.31,90.081,1.9415,0.39103,30676479,1e3,116.38,0.56001,0.56166,0.346,0.074135,0.13988,0.16206,0.31547,-4.8161e-4,0,0,0,0,-0.0012234,0.016917,6.2992,201.06,75.282,0.01087,NaN,12.189,962.52,338.69,0.05,0.027377
4.9112,438.95,129.35,13.874,132.1,15.651,68.294,0.0096861,68.294,0.0081262,26.808,7.2435,28.61,-80.599,9.7908,0.99531,0,-0.0062898,3.6353e-6,35662,7426,56.608,0.28735,102.31,90.038,1.9484,0.39338,30842578,1e3,117.78,0.56045,0.56211,0.34593,0.074404,0.14012,0.16233,0.31677,-1.3401e-4,0,0,0,0,-7.9189e-4,0.017016,6.2992,201.06,75.155,0.011003,NaN,12.147,961.77,338.66,0.05,0.027755
4.9612,445.44,130.04,13.854,132.85,15.646,69.643,0.010017,69.643,0.0082408,27.172,7.2701,28.61,-80.599,9.7908,0.97194,0,-0.0047775,3.4581e-6,35621,7385.3,56.569,0.28723,102.35,89.994,1.9621,0.39573,31008093,1e3,119.18,0.5609,0.56248,0.34587,0.074672,0.14036,0.15832,0.31132,4.8009e-4,0,0,0,0,-4.5155e-4,0.017114,6.2992,201.06,75.055,0.011198,NaN,12.105,961.01,338.63,0.05,0.02806
5.0112,451.96,130.74,13.861,133.6,15.617,71.011,0.010355,71.011,0.0083552,27.532,7.1941,28.61,-80.599,9.7908,0.85616,0,-0.0033927,4.6355e-6,35580,7344.5,56.53,0.28711,102.56,89.951,2.001,0.3982,31182746,1e3,120.6,0.56136,0.5626,0.3458,0.074955,0.14061,0.13858,0.27729,4.582e-4,0,0,0,0,-2.2493e-4,0.017213,6.2992,201.06,74.982,0.011414,NaN,12.062,960.24,338.61,0.05,0.028483
5.0612,458.51,131.43,13.827,134.36,15.629,72.397,0.010702,72.397,0.0084697,27.895,7.2859,28.61,-80.599,9.7908,0.92129,0,-0.0019765,4.2585e-6,35539,7303.8,56.491,0.28699,102.45,89.908,1.9905,0.40031,31328916,1e3,121.91,0.56177,0.5632,0.34574,0.075197,0.14083,0.14968,0.29841,-9.1567e-5,0,0,0,0,-7.5544e-5,0.017312,6.2992,201.06,74.934,0.011699,NaN,12.02,959.47,338.58,0.05,0.02888
5.1112,465.1,132.12,13.832,135.11,15.606,73.801,0.011057,73.801,0.0085842,28.258,7.2259,28.61,-80.599,9.7907,0.84497,0,-5.5561e-4,3.6018e-6,35499,7263.1,56.452,0.28687,102.58,89.864,2.0188,0.40262,31490691,1e3,123.27,0.56221,0.56342,0.34567,0.075463,0.14107,0.13671,0.27639,2.2777e-4,0,0,0,0,-5.9025e-6,0.01741,6.2992,201.06,74.911,0.011968,NaN,11.977,958.7,338.56,0.05,0.029099
5.1612,471.72,132.81,13.859,135.86,15.565,75.222,0.01142,75.222,0.0086988,28.616,7.0837,28.61,-80.599,9.7907,0.69819,0,7.0745e-4,3.507e-6,35458,7222.3,56.413,0.28676,102.84,89.821,2.0669,0.40503,31659168,1e3,124.67,0.56267,0.5635,0.3456,0.075739,0.14133,0.11205,0.23198,-7.8579e-5,0,0,0,0,9.4575e-6,0.017509,6.2992,201.06,74.913,0.012214,NaN,11.934,957.92,338.53,0.05,0.029342
5.2112,478.38,133.51,13.884,136.61,15.527,76.662,0.011793,76.662,0.0088136,28.967,6.951,28.61,-80.599,9.7907,0.57079,0,0.0017619,4.5779e-6,35417,7181.6,56.373,0.28664,103.07,89.777,2.1102,0.40737,31822339,1e3,126.05,0.56312,0.56368,0.34554,0.076007,0.14157,0.090952,0.19215,-3.7655e-4,0,0,0,0,5.7998e-5,0.017607,6.2992,201.06,74.935,0.012486,NaN,11.891,957.14,338.5,0.05,0.029563
5.2612,485.07,134.2,13.902,137.37,15.498,78.119,0.012174,78.119,0.0089287,29.313,6.8495,28.61,-80.599,9.7907,0.483,0,0.0026849,5.5323e-6,35376,7140.8,56.334,0.28652,103.23,89.733,2.1426,0.40961,31977376,1e3,127.4,0.56355,0.56395,0.34547,0.076265,0.14181,0.076586,0.16424,2.2872e-4,0,0,0,0,1.3323e-4,0.017706,6.2992,201.06,74.975,0.012843,NaN,11.847,956.36,338.48,0.05,0.029718
5.3112,491.8,134.9,13.948,138.12,15.443,79.593,0.012564,79.593,0.0090441,29.65,6.6287,28.61,-80.599,9.7907,0.28366,0,0.003361,7.7579e-6,35336,7100.1,56.294,0.2864,103.6,89.689,2.2079,0.41204,32146818,1e3,128.85,0.56402,0.56416,0.3454,0.076545,0.14207,0.044471,0.098172,2.9643e-4,0,0,0,0,2.0636e-4,0.017804,6.2992,201.06,75.03,0.013233,NaN,11.803,955.57,338.45,0.05,0.029868
5.3612,498.56,135.6,13.984,138.87,15.399,81.084,0.012963,81.084,0.0091601,29.976,6.4468,28.61,-80.599,9.7906,0.128,0,0.0037006,1.0549e-5,35295,7059.4,56.255,0.28628,103.89,89.645,2.2615,0.41438,32309089,1e3,130.29,0.56447,0.5645,0.34533,0.076814,0.14232,0.019888,0.044242,1.3535e-4,0,0,0,0,2.4739e-4,0.017903,6.2992,201.06,75.094,0.013646,NaN,11.759,954.78,338.43,0.05,0.030018
5.4112,505.36,136.3,13.99,139.62,15.381,82.591,0.013372,82.591,0.0092767,30.298,6.3911,28.61,-80.599,9.7906,0.10176,0,0.0039461,1.3257e-5,35254,7018.6,56.215,0.28616,103.94,89.601,2.2768,0.41647,32452339,1e3,131.59,0.56488,0.56489,0.34527,0.077055,0.14255,0.015788,0.035522,2.3091e-4,0,0,0,0,2.7853e-4,0.018001,6.2992,201.06,75.163,0.014029,NaN,11.715,954.01,338.4,0.05,0.03018
5.4612,512.19,137,14.029,140.38,15.333,84.114,0.013791,84.114,0.0093939,30.612,6.1875,28.61,-80.599,9.7906,0.069239,0,-0.0039457,9.7889e-6,35214,6977.9,56.176,0.28604,104.01,89.557,2.294,0.41883,32617229,1e3,133.09,0.56534,0.56535,0.3452,0.077328,0.1428,0.010724,0.025004,-7.5714e-5,0,0,0,0,-2.7537e-4,0.018099,6.2992,201.06,75.235,0.014366,NaN,11.671,953.25,338.37,0.05,0.030329
5.5112,519.06,137.7,14.037,141.13,15.313,85.652,0.014219,85.652,0.0095118,30.92,6.1188,28.61,-80.599,9.7906,0.10502,0,-0.0037862,4.8145e-6,35173,6937.1,56.136,0.28592,103.94,89.512,2.2908,0.42095,32762070,1e3,134.43,0.56575,0.56577,0.34514,0.077572,0.14304,0.016301,0.037841,-4.963e-4,0,0,0,0,-2.5106e-4,0.018197,6.2992,201.06,75.304,0.014695,NaN,11.626,952.48,338.34,0.05,0.030502
5.5612,525.96,138.4,14.054,141.88,15.284,87.205,0.014658,87.205,0.0096305,31.223,6.0072,28.61,-80.599,9.7906,0.18225,0,-0.0035034,5.0392e-7,35132,6896.4,56.096,0.2858,103.8,89.468,2.2752,0.42315,32913640,1e3,135.85,0.56618,0.56624,0.34508,0.077827,0.14328,0.02842,0.065235,1.1797e-4,0,0,0,0,-2.1276e-4,0.018295,6.2992,201.06,75.37,0.015016,NaN,11.581,951.71,338.32,0.05,0.030739
5.6112,532.9,139.11,14.065,142.63,15.26,88.774,0.015107,88.774,0.00975,31.521,5.9187,28.61,-80.599,9.7905,0.23787,0,-0.0030917,-3.8995e-7,35091,6855.6,56.056,0.28568,103.7,89.423,2.2663,0.42533,33062776,1e3,137.25,0.56661,0.56671,0.34501,0.078078,0.14352,0.037216,0.084355,1.7265e-4,0,0,0,0,-1.6402e-4,0.018394,6.2992,201.06,75.43,0.015351,NaN,11.536,950.93,338.29,0.05,0.031027
5.6612,539.87,139.81,14.079,143.38,15.232,90.357,0.015566,90.357,0.0098702,31.815,5.8142,28.61,-80.599,9.7905,0.30956,0,-0.0025675,1.8481e-7,35051,6814.9,56.016,0.28556,103.57,89.379,2.2527,0.42756,33215502,1e3,138.7,0.56705,0.56721,0.34494,0.078336,0.14376,0.048639,0.1093,1.1871e-4,0,0,0,0,-1.1196e-4,0.018492,6.2992,201.06,75.481,0.015603,NaN,11.491,950.15,338.26,0.05,0.031242
5.7112,546.88,140.51,14.094,144.14,15.202,91.955,0.016035,91.955,0.0099912,32.102,5.6985,28.61,-80.599,9.7905,0.39318,0,-0.0018348,-1.0336e-6,35010,6774.2,55.976,0.28544,103.42,89.334,2.236,0.42984,33371811,1e3,140.2,0.56749,0.56776,0.34488,0.078599,0.14402,0.062081,0.13927,-2.0595e-4,0,0,0,0,-5.6581e-5,0.018589,6.2992,201.06,75.521,0.015794,NaN,11.445,949.37,338.23,0.05,0.031659
5.7612,553.93,141.22,14.061,144.89,15.21,93.568,0.016515,93.568,0.010113,32.39,5.7997,28.61,-80.599,9.7905,0.28672,0,-0.0011616,-5.6467e-7,34969,6733.4,55.936,0.28533,103.62,89.289,2.2745,0.43176,3.35e7,1e3,141.41,0.56787,0.56802,0.34482,0.078822,0.14423,0.044999,0.10252,-2.72e-4,0,0,0,0,-2.2481e-5,0.018687,6.2992,201.06,75.547,0.015923,NaN,11.399,948.58,338.21,0.05,0.032034
5.8112,561,141.92,14.05,145.64,15.2,95.194,0.017005,95.194,0.010235,32.681,5.801,28.61,-80.599,9.7905,0.27414,0,-6.1952e-4,-5.8366e-7,34928,6692.7,55.895,0.28521,103.64,89.244,2.2858,0.43389,33644412,1e3,142.79,0.5683,0.56843,0.34475,0.079069,0.14447,0.042998,0.09791,6.8851e-5,0,0,0,0,-6.3329e-6,0.018785,6.2992,201.06,75.563,0.016007,NaN,11.353,947.79,338.18,0.05,0.032217
5.8612,568.12,142.63,14.057,146.39,15.172,96.836,0.017506,96.836,0.010358,32.967,5.7069,28.61,-80.599,9.7904,0.34915,0,6.3022e-5,-2.3585e-6,34888,6651.9,55.855,0.28509,103.51,89.199,2.2715,0.43622,33803480,1e3,144.34,0.56876,0.56897,0.34468,0.079339,0.14474,0.055007,0.12486,4.4745e-5,0,0,0,0,6.4849e-8,0.018883,6.2992,201.06,75.569,0.01613,NaN,11.307,947,338.15,0.05,0.032411
5.9112,575.27,143.33,14.024,147.14,15.177,98.491,0.018017,98.491,0.010481,33.256,5.8036,28.61,-80.599,9.7904,0.26136,0,6.7162e-4,-2.764e-6,34847,6611.2,55.814,0.28497,103.67,89.154,2.3048,0.43824,33938611,1e3,145.64,0.56916,0.56928,0.34462,0.079573,0.14497,0.040971,0.094803,1.1789e-4,0,0,0,0,7.2983e-6,0.01898,6.2992,201.06,75.562,0.016285,NaN,11.261,946.2,338.12,0.05,0.03271
5.9612,582.45,144.03,14.029,147.88,15.148,100.16,0.018538,100.16,0.010604,33.544,5.7128,28.61,-80.599,9.7904,0.33995,0,0.001294,-2.7943e-6,34806,6570.5,55.774,0.28485,103.53,89.109,2.2895,0.44061,34100907,1e3,147.24,0.56963,0.56984,0.34455,0.079849,0.14524,0.05354,0.12279,2.4241e-4,0,0,0,0,2.6803e-5,0.019078,6.2992,201.06,75.544,0.016446,NaN,11.214,945.4,338.09,0.05,0.03288
6.0112,589.67,144.73,14.036,148.63,15.116,101.85,0.019069,101.85,0.010728,33.826,5.6102,28.61,-80.599,9.7904,0.43035,0,0.0021603,-3.5884e-6,34765,6529.7,55.733,0.28473,103.37,89.064,2.271,0.44305,34267316,1e3,148.9,0.57012,0.57044,0.34447,0.080132,0.14552,0.068137,0.15455,-1.1407e-4,0,0,0,0,7.3902e-5,0.019175,6.2992,201.06,75.513,0.016649,NaN,11.167,944.59,338.07,0.05,0.033041
6.0612,596.92,145.43,14.002,149.38,15.116,103.54,0.019612,103.54,0.010852,34.11,5.6952,28.61,-80.599,9.7903,0.36815,0,0.0029823,-2.2265e-6,34725,6489,55.692,0.28461,103.49,89.018,2.2967,0.4452,34411495,1e3,150.31,0.57055,0.57079,0.3444,0.080383,0.14577,0.058088,0.13289,-2.7497e-4,0,0,0,0,1.3951e-4,0.019273,6.2992,201.06,75.467,0.016783,NaN,11.12,943.78,338.04,0.05,0.033206
6.1112,604.21,146.13,14.013,150.13,15.077,105.26,0.020164,105.26,0.010976,34.391,5.563,28.61,-80.599,9.7903,0.49007,0,0.0039359,-2.5776e-6,34684,6448.2,55.651,0.28449,103.27,88.972,2.2693,0.44777,34587531,1e3,152.11,0.57107,0.57149,0.34432,0.080682,0.14606,0.077875,0.1768,1.747e-4,0,0,0,0,2.4025e-4,0.01937,6.2992,201.06,75.405,0.016872,NaN,11.073,942.97,338.01,0.05,0.033357
6.1612,611.54,146.84,13.99,150.87,15.064,106.98,0.020728,106.98,0.011101,34.669,5.5869,28.61,-80.599,9.7903,0.48919,0,0.0050558,-2.6171e-6,34643,6407.5,55.61,0.28437,103.27,88.927,2.2773,0.45012,34746778,1e3,153.7,0.57154,0.57196,0.34425,0.080956,0.14634,0.07774,0.17694,1.6215e-4,0,0,0,0,3.9235e-4,0.019467,6.2992,201.06,75.324,0.016963,NaN,11.025,942.15,337.98,0.05,0.033509
6.2112,618.9,147.53,13.934,151.62,15.076,108.72,0.021302,108.72,0.011226,34.954,5.7581,28.61,-80.599,9.7903,0.37633,0,0.0059835,-3.3488e-6,34602,6366.8,55.569,0.28425,103.48,88.881,2.3176,0.45227,3.489e7,1e3,155.11,0.57198,0.57223,0.34418,0.081207,0.14659,0.059427,0.13759,-1.9525e-4,0,0,0,0,5.4443e-4,0.019564,6.2992,201.06,75.224,0.017052,NaN,10.977,941.32,337.95,0.05,0.033727
6.2612,626.29,148.23,13.911,152.36,15.058,110.48,0.021886,110.48,0.011351,35.241,5.7647,28.61,-80.599,9.7903,0.40125,0,0.0069218,-3.3846e-6,34562,6326,55.528,0.28413,103.44,88.835,2.3182,0.45475,35058037,1e3,156.83,0.57248,0.57276,0.3441,0.081496,0.14688,0.06346,0.14641,-9.7301e-5,0,0,0,0,7.2076e-4,0.019661,6.2992,201.06,75.108,0.017149,NaN,10.929,940.5,337.92,0.05,0.03402
6.3112,633.72,148.92,13.831,153.11,15.087,112.25,0.022482,112.25,0.011476,35.536,6.0281,28.61,-80.599,9.7902,0.2264,0,0.0076311,-2.9463e-6,34521,6285.3,55.487,0.28401,103.76,88.789,2.3771,0.45683,35194535,1e3,158.18,0.5729,0.57299,0.34404,0.081738,0.14713,0.035452,0.082948,4.0624e-4,0,0,0,0,8.6827e-4,0.019758,6.2992,201.06,74.977,0.017224,NaN,10.881,939.67,337.89,0.05,0.034282
6.3612,641.18,149.61,13.77,153.85,15.1,114.03,0.023089,114.03,0.011601,35.842,6.197,28.61,-80.599,9.7902,0.13076,0,0.0080499,-9.6497e-7,34480,6244.5,55.446,0.28389,103.95,88.743,2.4133,0.45909,35344868,1e3,159.72,0.57336,0.57339,0.34396,0.082002,0.1474,0.020365,0.04776,2.6774e-4,0,0,0,0,9.5687e-4,0.019855,6.2992,201.06,74.835,0.017228,NaN,10.832,938.83,337.86,0.05,0.034777
6.4112,648.68,150.3,13.696,154.59,15.123,115.83,0.023706,115.83,0.011726,36.157,6.4138,28.61,-80.599,9.7902,0.0013057,0,-0.0082251,2.7824e-4,34439,6203.8,55.404,0.28378,104.19,88.697,2.4601,0.46127,35488989,1e3,161.22,0.57381,0.57381,0.34389,0.082257,0.14766,2.0184e-4,0.0013124,3.3759e-4,0,0,0,0,-9.8973e-4,0.019952,6.2992,201.06,74.688,0.017185,NaN,10.784,938,337.83,0.05,0.035026
6.4612,656.21,150.98,13.594,155.33,15.173,117.65,0.024335,117.65,0.011851,36.486,6.7387,28.61,-80.599,9.7902,0.21713,0,-0.0079217,4.2209e-6,34399,6163.1,55.363,0.28366,103.79,88.65,2.4033,0.46325,35617335,1e3,162.6,0.57422,0.5743,0.34383,0.082489,0.1479,0.033992,0.08309,2.221e-4,0,0,0,0,-9.1038e-4,0.020049,6.2992,201.06,74.542,0.017078,NaN,10.735,937.16,337.8,0.05,0.035234
6.5112,663.78,151.66,13.54,156.07,15.18,119.48,0.024974,119.48,0.011976,36.827,6.8628,28.61,-80.599,9.7901,0.27235,0,-0.0073027,4.572e-6,34358,6122.3,55.321,0.28354,103.69,88.604,2.3949,0.46556,3.577e7,1e3,164.22,0.57469,0.57482,0.34375,0.082759,0.14818,0.042779,0.1028,2.3966e-4,0,0,0,0,-7.6614e-4,0.020146,6.2992,201.06,74.405,0.01701,NaN,10.685,936.31,337.77,0.05,0.035463
