# Time (s),Altitude (m),Vertical velocity (m/s),Vertical acceleration (m/s²),Total velocity (m/s),Total acceleration (m/s²),Position East of launch (m),Position North of launch (m),Lateral distance (m),Lateral direction (°),Lateral velocity (m/s),Lateral acceleration (m/s²),Latitude (°),Longitude (°),Gravitational acceleration (m/s²),Angle of attack (°),Roll rate (r/s),Pitch rate (r/s),Yaw rate (r/s),Mass (g),Propellant mass (g),Longitudinal moment of inertia (kg·m²),Rotational moment of inertia (kg·m²),CP location (in),CG location (in),Stability margin calibers (​),Mach number (​),Reynolds number (​),Thrust (N),Drag force (N),Drag coefficient (​),Axial drag coefficient (​),Friction drag coefficient (​),Pressure drag coefficient (​),Base drag coefficient (​),Normal force coefficient (​),Pitch moment coefficient (​),Yaw moment coefficient (​),Side force coefficient (​),Roll moment coefficient (​),Roll forcing coefficient (​),Roll damping coefficient (​),Pitch damping coefficient (​),Coriolis acceleration (m/s²),Reference length (in),Reference area (cm²),Vertical orientation (zenith) (°),Lateral orientation (azimuth) (°),Wind velocity (m/s),Air temperature (°C),Air pressure (mbar),Speed of sound (m/s),Simulation time step (s),Computation time (s)
0,0,0,-5.6763,0,5.7075,0,0,0,0,0,0.5966,28.61,-80.6,9.7922,90,0,0,0,40581,12346,60.972,0.31372,NaN,94.756,NaN,0.022731,1853823,163.58,0,0.54595,0,0.38367,0.042212,0.12007,NaN,NaN,NaN,NaN,NaN,NaN,NaN,NaN,0,6.2992,201.06,84,0,NaN,15,1013.2,340.39,0.01,0.0025183
0.01,0,0,61.573,0,61.913,0,0,0,0,0,6.4716,28.61,-80.6,9.7922,90,0,0,0,40581,12346,60.972,0.31372,NaN,94.756,NaN,0.022836,1862363,2907.7,0,0.54562,0,0.38334,0.042212,0.12007,NaN,NaN,NaN,NaN,NaN,NaN,NaN,NaN,0,6.2992,201.06,84,0,NaN,15,1013.2,340.39,0.01,0.0028765
0.02,0.0030793,0.6159,90.451,0.61929,90.949,3.2365e-4,0,3.2365e-4,0,0.064734,9.5067,28.61,-80.6,9.7922,85.465,0,0,0,40570,12334,60.962,0.31362,NaN,94.746,NaN,0.023013,1876778,4084.9,4.8942e-4,0.54507,6.4769e-4,0.38279,0.042213,0.12007,NaN,NaN,NaN,NaN,NaN,NaN,NaN,NaN,7.942e-5,6.2992,201.06,84,0,NaN,15,1013.2,340.39,0.01,0.0030874
0.03,0.013763,1.5208,89.063,1.5292,89.554,0.0014465,0,0.0014465,0,0.15985,9.3609,28.61,-80.6,9.7922,78.969,0,0,0,40549,12313,60.944,0.31341,NaN,94.727,NaN,0.023479,1914822,4026.2,0.0068032,0.54364,0.008649,0.38136,0.042213,0.12007,NaN,NaN,NaN,NaN,NaN,NaN,NaN,NaN,1.9611e-4,6.2992,201.06,84,0,NaN,15,1013.2,340.39,0.01,0.0033956
0.04,0.033426,2.4119,88.816,2.4252,89.305,0.0035132,0,0.0035132,0,0.25351,9.3349,28.61,-80.6,9.7922,72.893,0,0,0,40525,12290,60.923,0.31317,NaN,94.706,NaN,0.024222,1975374,4013.8,0.025,0.54144,0.029864,0.37915,0.042214,0.12008,NaN,NaN,NaN,NaN,NaN,NaN,NaN,NaN,3.1102e-4,6.2992,201.06,84,0,NaN,15,1013.2,340.39,0.01,0.0036997
0.05,0.061988,3.3006,89.022,3.3187,89.512,0.0065152,0,0.0065152,0,0.3469,9.3566,28.61,-80.6,9.7922,67.253,0,0,0,40502,12266,60.903,0.31293,NaN,94.685,NaN,0.025216,2056459,4019.9,0.058912,0.53863,0.064934,0.37633,0.042215,0.12008,NaN,NaN,NaN,NaN,NaN,NaN,NaN,NaN,4.2561e-4,6.2992,201.06,84,0,NaN,15,1013.2,340.39,0.01,0.0039057
0.06,0.099447,4.1913,89.948,4.2143,90.444,0.010452,0,0.010452,0,0.44052,9.4539,28.61,-80.6,9.7922,61.923,0,0,0,40479,12243,60.882,0.31269,NaN,94.664,NaN,0.026306,2145346,4055.4,0.11135,0.53571,0.11277,0.3734,0.042216,0.12009,NaN,NaN,NaN,NaN,NaN,NaN,NaN,NaN,5.4046e-4,6.2992,201.06,84,0,NaN,14.999,1013.2,340.39,0.01,0.0040525
0.07,0.14586,5.0912,91.051,5.1193,91.553,0.01533,0,0.01533,0,0.53511,9.5699,28.61,-80.6,9.7922,57.008,0,0,0,40455,12220,60.861,0.31245,NaN,94.643,NaN,0.027619,2252458,4098,0.18388,0.53238,0.16893,0.37006,0.042217,0.1201,NaN,NaN,NaN,NaN,NaN,NaN,NaN,NaN,6.5651e-4,6.2992,201.06,84,0,NaN,14.999,1013.2,340.39,0.01,0.0041998
0.08,0.20133,6.0022,92.155,6.0353,92.663,0.02116,0,0.02116,0,0.63086,9.6859,28.61,-80.6,9.7922,52.517,0,0,0,40432,12196,60.84,0.31221,NaN,94.622,NaN,0.029137,2376200,4140.5,0.27726,0.52878,0.22889,0.36645,0.042219,0.12011,NaN,NaN,NaN,NaN,NaN,NaN,NaN,NaN,7.7398e-4,6.2992,201.06,84,0,NaN,14.999,1013.2,340.39,0.01,0.0043466
0.09,0.26596,6.9242,93.093,6.9624,93.605,0.027953,0,0.027953,0,0.72777,9.7844,28.61,-80.6,9.7922,48.447,0,0,0,40408,12173,60.82,0.31197,NaN,94.6,NaN,0.030837,2514814,4176.3,0.39151,0.52503,0.28856,0.36268,0.042221,0.12012,NaN,NaN,NaN,NaN,NaN,NaN,NaN,NaN,8.9287e-4,6.2992,201.06,84,0,NaN,14.998,1013.2,340.39,0.01,0.0045586
0.1,0.33986,7.8556,93.043,7.8989,93.556,0.03572,0,0.03572,0,0.82566,9.7792,28.61,-80.6,9.7922,44.785,0,0,0,40385,12149,60.799,0.31173,NaN,94.579,NaN,0.032695,2666361,4172,0.52598,0.52122,0.34485,0.35885,0.042224,0.12014,NaN,NaN,NaN,NaN,NaN,NaN,NaN,NaN,0.001013,6.2992,201.06,84,0,NaN,14.998,1013.2,340.39,0.01,0.0047252
0.11,0.42307,8.7866,93.33,8.8349,93.845,0.044466,0,0.044466,0,0.9235,9.8094,28.61,-80.6,9.7922,41.954,0,0,0,40361,12125,60.778,0.31148,NaN,94.557,NaN,0.034901,2846256,4181.4,0.67461,0.51703,0.38815,0.35465,0.042227,0.12016,NaN,NaN,NaN,NaN,NaN,NaN,NaN,NaN,0.001133,6.2992,201.06,84,0,NaN,14.997,1013.2,340.39,0.01,0.005002
0.12,0.5156,9.7203,93.863,9.7739,94.38,0.054192,0,0.054192,0,1.0216,9.8654,28.61,-80.6,9.7922,39.456,0,0,0,40337,12101,60.757,0.31124,NaN,94.535,NaN,0.037189,3032798,4200.7,0.8411,0.51373,0.42624,0.35132,0.04223,0.12018,NaN,NaN,NaN,NaN,NaN,NaN,NaN,NaN,0.0012534,6.2992,201.06,84,0,NaN,14.997,1013.2,340.39,0.01,0.0051598
0.13,0.6175,10.659,94.395,10.718,94.915,0.064902,0,0.064902,0,1.1204,9.9214,28.61,-80.6,9.7922,37.238,0,0,0,40313,12077,60.735,0.31099,NaN,94.514,NaN,0.039552,3225447,4220,1.0309,0.51375,0.4619,0.35131,0.042233,0.1202,NaN,NaN,NaN,NaN,NaN,NaN,NaN,NaN,0.0013745,6.2992,201.06,84,0,NaN,14.996,1013.2,340.39,0.01,0.0053071
0.14,0.72881,11.604,94.928,11.668,95.451,0.076602,0,0.076602,0,1.2196,9.9773,28.61,-80.6,9.7922,35.26,0,0,0,40289,12054,60.714,0.31075,NaN,94.492,NaN,0.04198,3423423,4239.3,1.2395,0.51377,0.49295,0.35131,0.042237,0.12023,NaN,NaN,NaN,NaN,NaN,NaN,NaN,NaN,0.0014963,6.2992,201.06,84,0,NaN,14.995,1013.2,340.39,0.01,0.0054545
0.15,0.8496,12.554,95.461,12.623,95.987,0.089297,0,0.089297,0,1.3194,10.033,28.61,-80.6,9.7922,33.489,0,0,0,40265,12030,60.693,0.3105,NaN,94.47,NaN,0.044466,3626096,4258.5,1.4664,0.5138,0.51983,0.3513,0.042241,0.12026,NaN,NaN,NaN,NaN,NaN,NaN,NaN,NaN,0.0016188,6.2992,201.06,84,0,NaN,14.994,1013.2,340.39,0.01,0.0056593
0.16,0.97991,13.509,95.994,13.583,96.523,0.10299,0,0.10299,0,1.4198,10.089,28.61,-80.6,9.7922,31.553,0,0,0,40241,12006,60.672,0.31025,NaN,94.448,NaN,0.046829,3818752,4277.8,1.7141,0.51382,0.54786,0.35129,0.042246,0.12029,NaN,NaN,NaN,NaN,NaN,NaN,NaN,NaN,0.0017419,6.2992,201.06,84,0,NaN,14.994,1013.1,340.39,0.01,0.0058818
0.17,1.1198,14.469,96.527,14.549,97.059,0.1177,0,0.1177,0,1.5208,10.145,28.61,-80.6,9.7922,29.795,0,0,0,40218,11982,60.65,0.31001,NaN,94.426,NaN,0.049254,4016456,4297.1,1.9789,0.51385,0.57175,0.35128,0.04225,0.12032,NaN,NaN,NaN,NaN,NaN,NaN,NaN,NaN,0.0018658,6.2992,201.06,84,0,NaN,14.993,1013.1,340.38,0.01,0.006092
0.18,1.2693,15.435,96.907,15.52,97.441,0.13341,0,0.13341,0,1.6223,10.185,28.61,-80.6,9.7922,28.196,0,0,0,40194,11958,60.629,0.30976,NaN,94.405,NaN,0.051734,4218708,4310.2,2.2602,0.51388,0.59193,0.35127,0.042257,0.12035,NaN,NaN,NaN,NaN,NaN,NaN,NaN,NaN,0.0019903,6.2992,201.06,84,0,NaN,14.992,1013.1,340.38,0.01,0.0062426
0.19,1.4285,16.405,96.668,16.495,97.2,0.15014,0,0.15014,0,1.7242,10.16,28.61,-80.6,9.7922,26.738,0,0,0,40170,11934,60.607,0.30952,NaN,94.383,NaN,0.054262,4424754,4298.3,2.5573,0.51391,0.6088,0.35126,0.042264,0.12038,NaN,NaN,NaN,NaN,NaN,NaN,NaN,NaN,0.0021153,6.2992,201.06,84,0,NaN,14.991,1013.1,340.38,0.01,0.0063906
0.2,1.5974,17.372,96.807,17.467,97.34,0.16789,0,0.16789,0,1.8258,10.175,28.61,-80.6,9.7922,25.414,0,0,0,40146,11910,60.586,0.30927,NaN,94.361,NaN,0.056815,4632880,4301.6,2.8676,0.51395,0.6227,0.35125,0.042272,0.12042,NaN,NaN,NaN,NaN,NaN,NaN,NaN,NaN,0.0022401,6.2992,201.06,84,0,NaN,14.99,1013.1,340.38,0.01,0.0065868
0.21,1.776,18.34,97.161,18.441,97.697,0.18666,0,0.18666,0,1.9276,10.212,28.61,-80.6,9.7922,24.119,0,0,0,40122,11886,60.565,0.30902,NaN,94.339,NaN,0.059361,4840380,4313.7,3.1911,0.51398,0.63482,0.35124,0.04228,0.12046,NaN,NaN,NaN,NaN,NaN,NaN,NaN,NaN,0.002365,6.2992,201.06,84,0,NaN,14.988,1013,340.38,0.01,0.0067467
0.22,1.9642,19.312,97.516,19.419,98.053,0.20645,0,0.20645,0,2.0298,10.249,28.61,-80.6,9.7922,22.928,0,0,0,40098,11862,60.543,0.30878,NaN,94.316,NaN,0.061944,5050926,4325.8,3.5282,0.51402,0.64456,0.35123,0.042288,0.1205,NaN,NaN,NaN,NaN,NaN,NaN,NaN,NaN,0.0024903,6.2992,201.06,84,0,NaN,14.987,1013,340.38,0.01,0.0068985
0.23,2.1622,20.288,97.871,20.4,98.41,0.22726,0,0.22726,0,2.1324,10.287,28.61,-80.6,9.7922,21.828,0,0,0,40074,11838,60.522,0.30853,NaN,94.294,NaN,0.064561,5264266,4337.9,3.8782,0.51406,0.65225,0.35122,0.042297,0.12054,NaN,NaN,NaN,NaN,NaN,NaN,NaN,NaN,0.0026161,6.2992,201.06,84,0,NaN,14.986,1013,340.38,0.01,0.0070461
0.24,2.37,21.267,98.226,21.384,98.768,0.2491,0,0.2491,0,2.2353,10.324,28.61,-80.6,9.7922,20.812,0,0,0,40050,11814,60.5,0.30828,NaN,94.272,NaN,0.06721,5480182,4349.9,4.2409,0.5141,0.65815,0.35121,0.042306,0.12059,NaN,NaN,NaN,NaN,NaN,NaN,NaN,NaN,0.0027424,6.2992,201.06,84,0,NaN,14.985,1013,340.38,0.01,0.0071929
0.25,2.5876,22.25,98.582,22.373,99.125,0.27197,0,0.27197,0,2.3386,10.361,28.61,-80.6,9.7922,19.87,0,0,0,40026,11791,60.478,0.30804,NaN,94.25,NaN,0.069889,5698485,4362,4.616,0.51415,0.66251,0.3512,0.042316,0.12063,NaN,NaN,NaN,NaN,NaN,NaN,NaN,NaN,0.0028691,6.2992,201.06,84,0,NaN,14.983,1012.9,340.38,0.01,0.0074532
0.26,2.815,23.236,98.937,23.364,99.482,0.29587,0,0.29587,0,2.4422,10.399,28.61,-80.6,9.7922,19.284,0,0,0,40002,11767,60.457,0.30779,NaN,94.228,NaN,0.072723,5929402,4374.1,5.0142,0.5142,0.66469,0.35118,0.042326,0.12069,NaN,NaN,NaN,NaN,NaN,NaN,NaN,NaN,0.0029963,6.2992,201.06,84,0,NaN,14.982,1012.9,340.38,0.01,0.0077531
0.27,3.0523,24.226,99.292,24.36,99.839,0.32081,0,0.32081,0,2.5463,10.436,28.61,-80.6,9.7922,18.74,0,0,0,39978,11743,60.435,0.30754,NaN,94.206,NaN,0.075573,6161688,4386.2,5.4281,0.51425,0.66631,0.35117,0.042337,0.12074,NaN,NaN,NaN,NaN,NaN,NaN,NaN,NaN,0.0031239,6.2992,201.06,84,0,NaN,14.98,1012.9,340.38,0.01,0.008081
0.28,3.2996,25.22,99.647,25.358,100.2,0.3468,0,0.3468,0,2.6507,10.473,28.61,-80.6,9.7922,18.233,0,0,0,39954,11719,60.414,0.3073,NaN,94.184,NaN,0.07844,6395290,4398.3,5.8577,0.5143,0.66747,0.35115,0.042348,0.1208,NaN,NaN,NaN,NaN,NaN,NaN,NaN,NaN,0.003252,6.2992,201.06,84,0,NaN,14.979,1012.9,340.38,0.01,0.0082509
0.29,3.5567,26.217,100,26.361,100.55,0.37383,0,0.37383,0,2.7555,10.511,28.61,-80.6,9.7922,17.76,0,0,0,39930,11695,60.392,0.30705,NaN,94.161,NaN,0.081322,6630157,4410.3,6.3031,0.51435,0.66823,0.35114,0.042359,0.12086,NaN,NaN,NaN,NaN,NaN,NaN,NaN,NaN,0.0033806,6.2992,201.06,84,0,NaN,14.977,1012.8,340.37,0.01,0.0084025
0.3,3.8239,27.217,100.35,27.367,100.9,0.40191,0,0.40191,0,2.8606,10.547,28.61,-80.6,9.7922,17.317,0,0,0,39907,11671,60.37,0.3068,NaN,94.139,NaN,0.08422,6866248,4422.2,6.7644,0.51441,0.66866,0.35112,0.042371,0.12092,NaN,NaN,NaN,NaN,NaN,NaN,NaN,NaN,0.0035096,6.2992,201.06,84,0,NaN,14.975,1012.8,340.37,0.01,0.0085501
0.31,4.1011,28.221,100.69,28.376,101.25,0.43104,0,0.43104,0,2.9661,10.583,28.61,-80.6,9.7922,16.665,0,0,0,39883,11647,60.348,0.30656,NaN,94.117,NaN,0.087024,7094660,4433.7,7.2218,0.51447,0.66863,0.3511,0.042383,0.12098,NaN,NaN,NaN,NaN,NaN,NaN,NaN,NaN,0.0036391,6.2992,201.06,84,0,NaN,14.973,1012.8,340.37,0.01,0.0086978
0.32,4.3883,29.228,101.04,29.389,101.59,0.46123,0,0.46123,0,3.072,10.62,28.61,-80.6,9.7922,16.051,0,0,0,39859,11623,60.327,0.30631,NaN,94.094,NaN,0.089848,7324715,4445.3,7.6848,0.51453,0.6675,0.35108,0.042395,0.12105,NaN,NaN,NaN,NaN,NaN,NaN,NaN,NaN,0.003769,6.2992,201.06,84,0,NaN,14.971,1012.7,340.37,0.01,0.0088518
0.33,4.6857,30.239,101.38,30.406,101.94,0.49248,0,0.49248,0,3.1783,10.656,28.61,-80.6,9.7922,15.474,0,0,0,39835,11599,60.305,0.30606,NaN,94.072,NaN,0.092692,7556339,4456.9,8.1536,0.51459,0.66546,0.35107,0.042407,0.12112,NaN,NaN,NaN,NaN,NaN,NaN,NaN,NaN,0.0038993,6.2992,201.06,84,0,NaN,14.97,1012.7,340.37,0.01,0.0090465
0.34,4.9931,31.254,101.53,31.426,102.21,0.5248,0,0.5248,0,3.2849,11.779,28.61,-80.6,9.7922,14.929,0,0,0,39811,11575,60.283,0.30581,89.019,94.05,-0.79859,0.095554,7789470,4462.1,8.6292,0.51465,0.66273,0.35105,0.04242,0.12119,4.2499,-3.3936,-4.0185e-4,0,0,0,0,0,0.0040301,6.2992,201.06,84,0,NaN,14.968,1012.7,340.37,0.015,0.0092523
0.355,5.4734,32.777,101.05,32.959,101.72,0.57539,-1.5696e-4,0.57539,-0.01563,3.4604,11.729,28.61,-80.6,9.7922,14.243,0,-2.696e-4,2.5102e-7,39781,11545,60.256,0.30551,89.374,94.022,-0.73782,0.099904,8143713,4442.7,9.3692,0.51475,0.65831,0.35102,0.04244,0.1213,3.9722,-2.9311,-8.2615e-5,0,0,0,0,-2.2332e-5,0.0042282,6.2992,201.06,84,-0.0070309,NaN,14.964,1012.6,340.37,0.0225,0.0095141
0.3775,6.2364,35.052,101.29,35.249,101.97,0.6562,-9.9854e-4,0.6562,-0.087188,3.7228,11.764,28.61,-80.6,9.7922,13.625,0,-6.6158e-4,1.47e-6,39736,11500,60.215,0.30505,89.709,93.98,-0.67791,0.10656,8685725,4451.1,10.594,0.51557,0.65437,0.35097,0.04312,0.12148,3.7287,-2.5273,-5.4036e-5,0,0,0,0,-1.182e-4,0.0045244,6.2992,201.06,84,-0.043157,NaN,14.959,1012.5,340.36,0.03375,0.0097221
0.41125,7.4772,38.477,101.71,38.696,102.39,0.78848,-0.0037305,0.78849,-0.27108,4.118,11.819,28.61,-80.6,9.7922,12.636,0,-0.0012284,5.0873e-6,39669,11434,60.154,0.30436,90.278,93.917,-0.57763,0.11651,9495515,4461.6,12.51,0.51681,0.64645,0.35089,0.044155,0.12176,3.3517,-1.9356,2.5348e-4,0,0,0,0,-3.4093e-4,0.0049703,6.2992,201.06,84,-0.15347,NaN,14.951,1012.4,340.36,0.05,0.0099324
0.46125,9.5284,43.574,102.18,43.827,102.87,1.009,-0.011287,1.009,-0.64092,4.7066,11.872,28.61,-80.6,9.7921,10.886,0,-0.0018945,1.4935e-5,39571,11335,60.063,0.30335,91.395,93.824,-0.38554,0.13111,10683631,4470.6,15.395,0.51868,0.62837,0.35076,0.04568,0.12223,2.723,-1.0495,-1.8024e-4,0,0,0,0,-6.4033e-4,0.0056344,6.2992,201.06,84,-0.42593,NaN,14.938,1012.1,340.35,0.05,0.010087
0.51125,11.835,48.695,102.01,48.982,102.69,1.2588,-0.02327,1.259,-1.059,5.2981,11.859,28.61,-80.6,9.7921,9.4773,0,-0.0022944,2.8701e-5,39453,11218,59.955,0.30214,92.412,93.713,-0.2064,0.14587,11884391,4453.6,18.56,0.52062,0.61212,0.35062,0.04723,0.12277,2.2544,-0.46461,-3.4769e-5,0,0,0,0,-7.5872e-4,0.006302,6.2992,201.06,84,-0.79014,NaN,14.923,1011.9,340.34,0.05,0.010238
0.56125,14.398,53.806,100.01,54.128,100.69,1.5379,-0.04004,1.5385,-1.4913,5.8893,11.686,28.61,-80.6,9.7921,8.8817,0,-0.002527,4.0867e-5,39337,11102,59.847,0.30095,92.882,93.602,-0.11419,0.16091,13106797,4365.3,22.364,0.52264,0.60631,0.35046,0.048817,0.12337,2.0666,-0.23509,3.8778e-4,0,0,0,0,-7.5643e-4,0.0069691,6.2992,201.06,84,-1.2069,NaN,14.906,1011.6,340.33,0.05,0.010412
0.61125,17.213,58.817,98.302,59.172,98.979,1.8461,-0.062278,1.8472,-1.9321,6.471,11.554,28.61,-80.6,9.7921,8.4128,0,-0.0026455,5.2832e-5,39224,10988,59.741,0.29979,93.271,93.493,-0.035262,0.17568,14305824,4289.7,26.465,0.52468,0.60217,0.35028,0.050382,0.12401,1.923,-0.067531,-3.4641e-4,0,0,0,0,-6.9558e-4,0.0076242,6.2992,201.06,83.999,-1.654,NaN,14.888,1011.2,340.32,0.05,0.010659
0.66125,20.277,63.742,86.364,64.13,86.983,2.1828,-0.090717,2.1847,-2.3798,7.0448,10.362,28.61,-80.6,9.7921,7.8235,0,-0.0026116,6.6629e-5,39114,10878,59.637,0.29867,93.78,93.387,0.062408,0.19011,15476812,3812.5,30.678,0.52672,0.59631,0.3501,0.051921,0.1247,1.7479,0.10955,-2.5999e-4,0,0,0,0,-5.789e-4,0.0082691,6.2992,201.06,83.998,-2.1092,NaN,14.868,1010.9,340.31,0.05,0.011147
0.71125,23.572,68.069,26.195,68.487,26.567,2.5462,-0.12586,2.5493,-2.8298,7.5566,4.4279,28.61,-80.6,9.7921,7.0967,0,-0.0023705,8.3471e-5,39012,10777,59.542,0.29766,94.441,93.289,0.18297,0.20268,16495565,1446.1,34.392,0.52853,0.58836,0.34992,0.053267,0.12534,1.54,0.28182,4.7781e-4,0,0,0,0,-4.1965e-4,0.0088373,6.2992,201.06,83.996,-2.5412,NaN,14.847,1010.5,340.3,0.05,0.011431
0.76125,27.009,69.38,9.4444,69.812,9.8962,2.9266,-0.16745,2.9314,-3.2746,7.7521,2.9561,28.61,-80.6,9.7921,6.5571,0,-0.0019292,1.0193e-4,38946,10710,59.48,0.29705,94.957,93.225,0.27505,0.20637,16790636,788.58,35.237,0.52907,0.5817,0.34987,0.053663,0.12554,1.3915,0.38304,-9.4386e-6,0,0,0,0,-2.6813e-4,0.0090156,6.2992,201.06,83.995,-2.9133,NaN,14.824,1010.1,340.28,0.05,0.011668
0.81125,30.489,69.853,10.663,70.294,11.103,3.314,-0.21485,3.321,-3.7093,7.86,3.0962,28.61,-80.6,9.7921,6.6467,0,-0.0014216,1.0919e-4,38915,10680,59.454,0.29687,94.871,93.196,0.26582,0.20782,16903539,836.25,35.807,0.52928,0.58312,0.34985,0.053819,0.12561,1.4158,0.37689,4.7913e-4,0,0,0,0,-1.4358e-4,0.0090852,6.2992,201.06,83.993,-3.2015,NaN,14.802,1009.7,340.27,0.05,0.011922
0.86125,33.995,70.386,11.927,70.836,12.389,3.7063,-0.26818,3.716,-4.1385,7.9762,3.3506,28.61,-80.6,9.7921,7.0531,0,-9.6897e-4,1.1021e-4,38895,10659,59.438,0.29681,94.486,93.178,0.20757,0.20958,17042054,886.25,36.764,0.52954,0.58889,0.34982,0.054009,0.12571,1.5279,0.31691,-5.2222e-5,0,0,0,0,-6.559e-5,0.0091634,6.2992,201.06,83.991,-3.406,NaN,14.779,1009.3,340.25,0.05,0.012086
0.91125,37.53,70.982,13.206,71.443,13.64,4.1037,-0.32789,4.1168,-4.5683,8.1005,3.4133,28.61,-80.6,9.7921,6.8859,0,-5.2157e-4,1.1459e-4,38875,10639,59.421,0.29675,94.644,93.16,0.23557,0.2113,17176605,936.25,37.228,0.5298,0.5869,0.3498,0.054194,0.1258,1.4815,0.34868,-2.7897e-4,0,0,0,0,-1.8697e-5,0.00925,6.2992,201.06,83.989,-3.5348,NaN,14.756,1008.8,340.24,0.05,0.012241
0.96125,41.095,71.643,14.461,72.114,14.852,4.5067,-0.39397,4.5239,-4.9961,8.2318,3.3829,28.61,-80.6,9.7921,6.4278,0,4.0481e-6,1.1726e-4,38854,10619,59.405,0.29669,95.088,93.142,0.30893,0.2131,17317341,984.98,37.473,0.53006,0.58107,0.34977,0.054387,0.1259,1.3568,0.41941,-1.5148e-4,0,0,0,0,0,0.0093446,6.2992,201.06,83.987,-3.5809,NaN,14.733,1008.4,340.23,0.05,0.012418
1.0113,44.695,72.367,14.858,72.849,15.209,4.9154,-0.46602,4.9374,-5.4159,8.3686,3.2493,28.61,-80.6,9.792,5.8199,0,6.5113e-4,1.1356e-4,38832,10596,59.387,0.29663,95.706,93.122,0.41022,0.21505,1.747e7,1e3,37.648,0.53035,0.57353,0.34974,0.054597,0.12601,1.1969,0.49099,-2.5537e-4,0,0,0,0,2.8139e-5,0.0094466,6.2992,201.06,83.985,-3.5265,NaN,14.709,1008,340.21,0.05,0.012663
1.0613,48.332,73.11,14.866,73.603,15.206,5.3301,-0.54356,5.3577,-5.8229,8.5068,3.2008,28.61,-80.6,9.792,5.6006,0,0.0013692,1.0562e-4,38799,10563,59.36,0.29653,95.938,93.092,0.45178,0.21721,1.764e7,1e3,38.231,0.53067,0.57113,0.34971,0.05483,0.12613,1.1408,0.51532,-3.3859e-4,0,0,0,0,1.2198e-4,0.0095507,6.2992,201.06,83.982,-3.3543,NaN,14.686,1007.6,340.2,0.05,0.012982
1.1113,52.006,73.854,14.882,74.358,15.204,5.7508,-0.62636,5.7848,-6.216,8.6445,3.1116,28.61,-80.6,9.792,5.2451,0,0.0021435,8.7282e-5,38758,10522,59.327,0.29641,96.324,93.056,0.51884,0.21933,17806118,1e3,38.691,0.53099,0.56713,0.34968,0.055058,0.12625,1.0518,0.54587,-1.576e-4,0,0,0,0,2.932e-4,0.0096545,6.2992,201.06,83.979,-3.0546,NaN,14.662,1007.2,340.18,0.05,0.013249
1.1613,55.718,74.599,14.899,75.114,15.202,6.1775,-0.7141,6.2186,-6.594,8.7811,3.0196,28.61,-80.6,9.792,4.881,0,0.0029724,5.7755e-5,38717,10482,59.294,0.29629,96.733,93.019,0.58957,0.22146,17973214,1e3,39.155,0.53131,0.56318,0.34964,0.055288,0.12638,0.96282,0.56695,4.5457e-4,0,0,0,0,5.5307e-4,0.009758,6.2992,201.06,83.975,-2.618,NaN,14.638,1006.7,340.17,0.05,0.013414
1.2113,59.466,75.345,14.912,75.871,15.204,6.6102,-0.80646,6.6592,-6.9558,8.917,2.9612,28.61,-80.6,9.792,4.6513,0,0.0038393,2.5384e-5,38676,10441,59.261,0.29617,96.999,92.983,0.63759,0.22364,18144347,1e3,39.753,0.53164,0.56092,0.34961,0.055524,0.1265,0.90797,0.57751,-3.536e-4,0,0,0,0,9.0491e-4,0.0098611,6.2992,201.06,83.969,-2.037,NaN,14.613,1006.3,340.15,0.05,0.013563
1.2613,63.252,76.091,14.926,76.628,15.205,7.0489,-0.90316,7.1065,-7.3014,9.052,2.902,28.61,-80.6,9.792,4.4254,0,0.0047371,-1.5696e-5,38636,10400,59.228,0.29605,97.266,92.946,0.68586,0.22583,18316034,1e3,40.363,0.53197,0.55878,0.34958,0.055761,0.12663,0.85492,0.58486,3.3e-4,0,0,0,0,0.0013512,0.009964,6.2992,201.06,83.962,-1.3068,NaN,14.589,1005.8,340.14,0.05,0.013712
1.3113,67.075,76.838,14.935,77.385,15.21,7.4936,-1.004,7.5605,-7.6312,9.1867,2.8796,28.61,-80.6,9.792,4.3608,0,0.0056608,-4.0836e-5,38595,10359,59.194,0.29594,97.345,92.909,0.70417,0.22808,18491977,1e3,41.126,0.53231,0.55844,0.34954,0.056004,0.12676,0.83996,0.58916,-4.6583e-4,0,0,0,0,0.0018918,0.010067,6.2992,201.06,83.951,-0.4241,NaN,14.564,1005.4,340.12,0.05,0.01393
1.3613,70.936,77.586,14.949,78.144,15.209,7.9442,-1.1088,8.0212,-7.9458,9.3205,2.8001,28.61,-80.6,9.792,4.0579,0,0.0066056,-1.1794e-4,38554,10319,59.161,0.29582,97.714,92.872,0.7687,0.23026,18662588,1e3,41.685,0.53264,0.55561,0.34951,0.05624,0.12689,0.77059,0.58949,4.2698e-4,0,0,0,0,0.0025276,0.010169,6.2992,201.06,83.937,0.61297,NaN,14.539,1004.9,340.11,0.05,0.014104
1.4113,74.834,78.334,14.962,78.902,15.211,8.4009,-1.2173,8.4886,-8.2449,9.4532,2.7409,28.61,-80.6,9.7919,3.837,0,0.0075667,-1.9188e-4,38514,10278,59.128,0.2957,97.991,92.835,0.81854,0.23247,18835590,1e3,42.328,0.53298,0.55373,0.34947,0.05648,0.12703,0.72104,0.58701,3.5339e-4,0,0,0,0,0.003254,0.010271,6.2992,201.06,83.917,1.8043,NaN,14.514,1004.5,340.09,0.05,0.014367
1.4613,78.77,79.083,14.974,79.662,15.211,8.8635,-1.3291,8.9626,-8.528,9.5845,2.6743,28.61,-80.6,9.7919,3.5631,0,0.0085326,-2.9881e-4,38473,10237,59.094,0.29558,98.343,92.798,0.88024,0.23468,19007788,1e3,42.938,0.53331,0.55145,0.34943,0.05672,0.12716,0.6608,0.57793,4.9019e-4,0,0,0,0,0.0040608,0.010373,6.2992,201.06,83.891,3.1474,NaN,14.488,1004,340.08,0.05,0.014519
1.5113,82.742,79.832,14.981,80.421,15.216,9.3322,-1.4438,9.4432,-8.7948,9.715,2.6626,28.61,-80.6,9.7919,3.5712,0,0.0095142,-2.9417e-4,38432,10196,59.061,0.29546,98.334,92.761,0.88472,0.23697,19186868,1e3,43.796,0.53366,0.55189,0.34939,0.056969,0.1273,0.6626,0.58171,-4.5722e-5,0,0,0,0,0.004952,0.010474,6.2992,201.06,83.857,4.6371,NaN,14.462,1003.5,340.06,0.05,0.014667
1.5613,86.753,80.582,14.986,81.181,15.223,9.8068,-1.5614,9.9304,-9.0466,9.8461,2.6745,28.61,-80.6,9.7919,3.7081,0,0.010537,-2.2164e-4,38391,10156,59.027,0.29534,98.16,92.724,0.86295,0.23932,1.937e7,1e3,44.781,0.53402,0.55357,0.34936,0.057223,0.12745,0.6926,0.59155,4.8914e-4,0,0,0,0,0.0059557,0.010576,6.2992,201.06,83.815,6.2705,NaN,14.436,1003.1,340.05,0.05,0.014855
1.6113,90.801,81.332,14.996,81.941,15.223,10.288,-1.6818,10.424,-9.2847,9.9764,2.6155,28.61,-80.6,9.7919,3.4446,0,0.011565,-3.4094e-4,38351,10115,58.993,0.29522,98.502,92.687,0.92324,0.24154,19543206,1e3,45.422,0.53437,0.55145,0.34932,0.057465,0.12758,0.63525,0.57959,4.7085e-5,0,0,0,0,0.0070444,0.010677,6.2992,201.06,83.762,8.0429,NaN,14.41,1002.6,340.03,0.05,0.015026
1.6613,94.886,82.082,15.002,82.702,15.227,10.774,-1.8047,10.924,-9.5086,10.106,2.6035,28.61,-80.6,9.7919,3.4363,0,0.012611,-3.1115e-4,38310,10074,58.96,0.2951,98.515,92.649,0.93117,0.24386,19723766,1e3,46.301,0.53473,0.55174,0.34928,0.057718,0.12773,0.63349,0.58207,-1.4758e-4,0,0,0,0,0.0082174,0.010778,6.2992,201.06,83.697,9.9438,NaN,14.383,1002.1,340.02,0.05,0.015184
1.7113,99.009,82.833,15.009,83.463,15.23,11.267,-1.9297,11.431,-9.7187,10.235,2.5851,28.61,-80.6,9.7919,3.3657,0,0.013679,-3.0878e-4,38269,10033,58.926,0.29498,98.61,92.612,0.95215,0.24617,19903366,1e3,47.137,0.53509,0.55147,0.34924,0.057969,0.12788,0.61836,0.5788,-1.2559e-4,0,0,0,0,0.0094888,0.010878,6.2992,201.06,83.617,11.963,NaN,14.356,1001.6,340,0.05,0.015471
1.7613,103.17,83.584,15.017,84.224,15.23,11.766,-2.0568,11.945,-9.9151,10.364,2.5398,28.61,-80.6,9.7919,2.9767,0,0.014728,-5.5947e-4,38228,9992.7,58.892,0.29486,99.136,92.574,1.0416,0.24838,20074492,1e3,47.702,0.53543,0.54848,0.3492,0.05821,0.12802,0.53647,0.54832,-2.9421e-4,0,0,0,0,0.010807,0.010978,6.2992,201.06,83.523,14.086,NaN,14.329,1001.1,339.98,0.05,0.015803
1.8113,107.37,84.335,15.022,84.985,15.233,12.272,-2.185,12.465,-10.096,10.489,2.5219,28.61,-80.6,9.7918,2.4555,0,0.015685,-0.0010669,38188,9951.9,58.858,0.29474,99.874,92.537,1.1648,0.25055,20242495,1e3,48.196,0.53577,0.54486,0.34916,0.058446,0.12816,0.431,0.48954,2.5459e-4,0,0,0,0,0.012046,0.011077,6.2992,201.06,83.411,16.289,NaN,14.302,1000.7,339.97,0.05,0.016242
1.8613,111.6,85.087,15.024,85.746,15.238,12.783,-2.3137,12.991,-10.259,10.612,2.5473,28.61,-80.6,9.7918,2.1105,0,0.016559,-0.0014987,38147,9911.2,58.824,0.29462,100.39,92.499,1.2521,0.25279,20415668,1e3,48.864,0.53612,0.54294,0.34912,0.058691,0.12831,0.3639,0.44199,-2.1672e-4,0,0,0,0,0.013191,0.011175,6.2992,201.06,83.282,18.54,NaN,14.275,1000.2,339.95,0.05,0.01641
1.9113,115.88,85.839,15.021,86.507,15.246,13.301,-2.4422,13.524,-10.404,10.733,2.6101,28.61,-80.6,9.7918,1.6917,0,0.017256,-0.0023127,38106,9870.5,58.79,0.2945,101.03,92.461,1.3609,0.25501,20587073,1e3,49.516,0.53647,0.54093,0.34908,0.058933,0.12845,0.2853,0.37374,3.6859e-4,0,0,0,0,0.014078,0.011272,6.2992,201.06,83.133,20.808,NaN,14.247,999.66,339.93,0.05,0.016561
1.9613,120.19,86.59,15.018,87.268,15.253,13.826,-2.5697,14.062,-10.529,10.854,2.6651,28.61,-80.6,9.7918,1.6656,0,0.018042,-0.0020802,38065,9829.7,58.756,0.29439,101.08,92.423,1.3737,0.25737,20769432,1e3,50.433,0.53684,0.54118,0.34904,0.059191,0.12861,0.28052,0.37007,1.0164e-4,0,0,0,0,0.01511,0.011368,6.2992,201.06,82.966,23.065,NaN,14.219,999.15,339.92,0.05,0.016712
2.0113,124.53,87.341,15.01,88.028,15.264,14.357,-2.6958,14.607,-10.635,10.974,2.7717,28.61,-80.6,9.7918,1.3373,0,0.018617,-0.0029581,38025,9789,58.722,0.29427,101.61,92.385,1.464,0.25962,20943585,1e3,51.187,0.5372,0.54003,0.349,0.059437,0.12876,0.22126,0.30795,5.5009e-4,0,0,0,0,0.015812,0.011464,6.2992,201.06,82.78,25.292,NaN,14.191,998.64,339.9,0.05,0.016862
2.0613,128.92,88.092,14.997,88.788,15.278,14.894,-2.8198,15.159,-10.721,11.093,2.9157,28.61,-80.6,9.7918,0.96223,0,0.018792,-0.0048143,37984,9748.2,58.687,0.29415,102.24,92.347,1.57,0.26187,21116246,1e3,51.953,0.53756,0.53905,0.34896,0.059683,0.12891,0.15595,0.22871,0.0014084,0,0,0,0,0.015837,0.011558,6.2992,201.06,82.575,27.465,NaN,14.162,998.13,339.88,0.05,0.017013
2.1113,133.34,88.842,14.98,89.546,15.294,15.438,-2.941,15.716,-10.786,11.211,3.0816,28.61,-80.6,9.7918,0.63052,0,0.017966,-0.0082648,37943,9707.5,58.653,0.29403,102.82,92.309,1.6681,0.26412,2.129e7,1e3,52.776,0.53792,0.53856,0.34892,0.05993,0.12907,0.1003,0.15327,0.0032274,0,0,0,0,0.014231,0.011652,6.2992,201.06,82.353,29.558,NaN,14.133,997.61,339.86,0.05,0.017164
2.1613,137.8,89.591,14.961,90.304,15.311,15.99,-3.0587,16.279,-10.829,11.33,3.2526,28.61,-80.6,9.7918,0.39818,0,0.014438,-0.013868,37902,9666.8,58.618,0.29391,103.24,92.271,1.7409,0.2664,21464960,1e3,53.66,0.53828,0.53854,0.34887,0.06018,0.12923,0.062508,0.099703,0.0078541,0,0,0,0,0.0090353,0.011744,6.2992,201.06,82.116,31.549,NaN,14.104,997.09,339.85,0.05,0.017313
2.2113,142.3,90.339,14.932,91.061,15.334,16.548,-3.172,16.849,-10.852,11.448,3.4886,28.61,-80.6,9.7917,0.38856,0,-0.010416,-0.017153,37862,9626,58.584,0.29379,103.26,92.233,1.75,0.26861,21634079,1e3,54.558,0.53863,0.53888,0.34883,0.060422,0.12938,0.060967,0.11149,0.0124,0,0,0,0,-0.0046259,0.011835,6.2992,201.06,81.867,33.424,NaN,14.075,996.56,339.83,0.05,0.017465
2.2613,146.84,91.085,14.897,91.816,15.361,17.113,-3.2803,17.424,-10.851,11.567,3.7458,28.61,-80.6,9.7917,0.77088,0,-0.01707,-0.010063,37821,9585.3,58.549,0.29367,102.58,92.195,1.6479,0.27082,21803396,1e3,55.541,0.53899,0.53996,0.34879,0.060664,0.12953,0.12363,0.21563,0.0045707,0,0,0,0,-0.012224,0.011925,6.2992,201.06,81.608,35.159,NaN,14.046,996.03,339.81,0.05,0.017615
2.3113,151.41,91.829,14.85,92.569,15.396,17.685,-3.3824,18.005,-10.828,11.685,4.0659,28.61,-80.6,9.7917,1.3226,0,-0.017875,-0.007084,37780,9544.5,58.515,0.29355,101.64,92.156,1.5059,0.27298,21969070,1e3,56.63,0.53934,0.54213,0.34875,0.060903,0.12969,0.21873,0.34226,0.0023911,0,0,0,0,-0.013193,0.012013,6.2992,201.06,81.345,36.733,NaN,14.016,995.49,339.79,0.05,0.017763
2.3612,156.02,92.571,14.813,93.321,15.423,18.264,-3.4775,18.593,-10.78,11.806,4.2923,28.61,-80.6,9.7917,1.5447,0,-0.017379,-0.0061659,37739,9503.8,58.48,0.29343,101.28,92.118,1.4551,0.27526,22142929,1e3,57.689,0.53971,0.54348,0.34871,0.061153,0.12985,0.25859,0.38893,0.0020013,0,0,0,0,-0.012267,0.0121,6.2992,201.06,81.082,38.137,NaN,13.986,994.95,339.77,0.05,0.017913
2.4112,160.67,93.311,14.781,94.071,15.446,18.851,-3.5649,19.185,-10.708,11.93,4.4847,28.61,-80.6,9.7917,1.6654,0,-0.016648,-0.0055582,37699,9463.1,58.445,0.29331,101.09,92.079,1.431,0.27756,22318852,1e3,58.73,0.54008,0.54444,0.34866,0.061406,0.13002,0.28063,0.41267,0.0011783,0,0,0,0,-0.011072,0.012186,6.2992,201.06,80.823,39.376,NaN,13.956,994.41,339.76,0.05,0.018067
2.4612,165.35,94.05,14.745,94.82,15.472,19.446,-3.6439,19.784,-10.613,12.058,4.688,28.61,-80.6,9.7917,1.816,0,-0.015825,-0.0050539,37658,9422.3,58.41,0.29319,100.86,92.04,1.3999,0.27985,22493300,1e3,59.796,0.54045,0.54561,0.34862,0.061658,0.13018,0.30851,0.44214,0.001032,0,0,0,0,-0.0098428,0.012271,6.2992,201.06,80.57,40.462,NaN,13.925,993.86,339.74,0.05,0.018215
2.5112,170.07,94.786,14.67,95.566,15.531,20.048,-3.714,20.389,-10.495,12.189,5.0969,28.61,-80.6,9.7917,2.4432,0,-0.014741,-0.0046529,37617,9381.6,58.375,0.29307,99.917,92.002,1.2566,0.28195,22652821,1e3,61.14,0.5408,0.54989,0.34857,0.061889,0.13033,0.42892,0.54749,0.0011993,0,0,0,0,-0.0084141,0.012354,6.2992,201.06,80.327,41.402,NaN,13.895,993.3,339.72,0.05,0.018363
2.5612,174.83,95.518,14.63,96.31,15.562,20.658,-3.774,21,-10.353,12.325,5.3052,28.61,-80.6,9.7916,2.5938,0,-0.013438,-0.0044038,37576,9340.8,58.34,0.29295,99.702,91.963,1.2285,0.2842,22824298,1e3,62.252,0.54117,0.55135,0.34853,0.062138,0.1305,0.45892,0.5706,0.0011125,0,0,0,0,-0.0068829,0.012436,6.2992,201.06,80.097,42.193,NaN,13.864,992.75,339.7,0.05,0.018511
2.6112,179.63,96.25,14.613,97.054,15.571,21.276,-3.8235,21.616,-10.188,12.468,5.3775,28.61,-80.6,9.7916,2.4702,0,-0.012138,-0.0041626,37536,9300.1,58.305,0.29284,99.882,91.924,1.2633,0.28655,23003038,1e3,63.191,0.54155,0.55085,0.34848,0.062397,0.13067,0.4343,0.55373,6.6001e-4,0,0,0,0,-0.0055243,0.012517,6.2992,201.06,79.882,42.845,NaN,13.832,992.18,339.68,0.05,0.018659
2.6612,184.46,96.98,14.57,97.797,15.604,21.901,-3.8621,22.239,-10.001,12.617,5.5856,28.61,-80.6,9.7916,2.6503,0,-0.01073,-0.0040108,37495,9259.4,58.27,0.29272,99.625,91.885,1.2287,0.28878,23171579,1e3,64.336,0.54192,0.55254,0.34844,0.062643,0.13084,0.47032,0.58212,0.0010191,0,0,0,0,-0.0042511,0.012598,6.2992,201.06,79.684,43.37,NaN,13.801,991.62,339.66,0.05,0.018808
2.7112,189.32,97.709,14.588,98.541,15.583,22.536,-3.8896,22.869,-9.7925,12.773,5.4783,28.61,-80.6,9.7916,2.1988,0,-0.0094429,-0.0037228,37454,9218.6,58.235,0.2926,100.29,91.846,1.3398,0.29126,23360546,1e3,65.083,0.54233,0.54979,0.34839,0.062917,0.13103,0.38126,0.51359,9.8183e-4,0,0,0,0,-0.0032371,0.012678,6.2992,201.06,79.505,43.777,NaN,13.769,991.05,339.64,0.05,0.018958
2.7612,194.23,98.439,14.576,99.285,15.588,23.178,-3.9061,23.505,-9.5659,12.936,5.5253,28.61,-80.6,9.7916,2.0901,0,-0.0081988,-0.0035302,37414,9177.9,58.2,0.29248,100.45,91.807,1.3722,0.2936,23538107,1e3,66.06,0.54272,0.5495,0.34834,0.063176,0.13121,0.36038,0.49679,5.8731e-4,0,0,0,0,-0.0024018,0.012759,6.2992,201.06,79.342,44.082,NaN,13.738,990.47,339.62,0.05,0.019167
2.8112,199.17,99.168,14.566,100.03,15.592,23.829,-3.9118,24.148,-9.3225,13.106,5.5622,28.61,-80.6,9.7916,1.9821,0,-0.0069919,-0.0033558,37373,9137.1,58.164,0.29236,100.62,91.767,1.4048,0.29594,23715173,1e3,67.046,0.54311,0.54924,0.34829,0.063435,0.13139,0.33985,0.47907,5.4654e-4,0,0,0,0,-0.0017194,0.01284,6.2992,201.06,79.198,44.297,NaN,13.705,989.89,339.6,0.05,0.019475
2.8612,204.14,99.896,14.533,100.77,15.617,24.489,-3.9065,24.798,-9.0637,13.281,5.7183,28.61,-80.6,9.7915,2.141,0,-0.0056819,-0.0033233,37332,9096.4,58.129,0.29224,100.38,91.728,1.3732,0.29813,2.388e7,1e3,68.17,0.54348,0.55058,0.34824,0.063678,0.13155,0.37019,0.50984,-1.1139e-4,0,0,0,0,-0.0011189,0.012921,6.2992,201.06,79.071,44.428,NaN,13.673,989.31,339.58,0.05,0.019691
2.9112,209.16,100.62,14.499,101.52,15.644,25.157,-3.8899,25.456,-8.7898,13.463,5.8727,28.61,-80.6,9.7915,2.3081,0,-0.0042331,-0.0033171,37291,9055.6,58.093,0.29212,100.13,91.689,1.3402,0.30031,24043670,1e3,69.31,0.54384,0.55205,0.3482,0.063919,0.13172,0.40259,0.53993,5.1421e-5,0,0,0,0,-6.1219e-4,0.013001,6.2992,201.06,78.964,44.476,NaN,13.64,988.72,339.57,0.05,0.019842
2.9612,214.21,101.35,14.505,102.26,15.634,25.834,-3.8617,26.121,-8.5016,13.652,5.8336,28.61,-80.6,9.7915,2.1158,0,-0.0028576,-0.0032363,37251,9014.9,58.058,0.292,100.42,91.649,1.3924,0.30265,2.422e7,1e3,70.246,0.54424,0.55119,0.34815,0.064179,0.13191,0.3654,0.50856,-6.237e-5,0,0,0,0,-2.747e-4,0.013081,6.2992,201.06,78.878,44.437,NaN,13.608,988.13,339.55,0.05,0.019992
3.0112,219.29,102.07,14.5,103.01,15.636,26.521,-3.822,26.795,-8.2006,13.845,5.8513,28.61,-80.6,9.7915,2.0572,0,-0.0014724,-0.0032094,37210,8974.2,58.022,0.29188,100.51,91.61,1.4131,0.30492,24390674,1e3,71.261,0.54462,0.55122,0.3481,0.064431,0.13209,0.35421,0.5007,9.5261e-5,0,0,0,0,-7.1859e-5,0.013161,6.2992,201.06,78.812,44.319,NaN,13.575,987.53,339.53,0.05,0.02014
3.0612,224.41,102.8,14.501,103.75,15.633,27.216,-3.7708,27.476,-7.8881,14.044,5.8411,28.61,-80.6,9.7915,1.9664,0,-1.158e-4,-0.0031963,37169,8933.4,57.986,0.29176,100.65,91.57,1.4416,0.30719,24561202,1e3,72.263,0.545,0.55106,0.34805,0.064684,0.13227,0.33699,0.4858,5.0024e-4,0,0,0,0,-4.3797e-7,0.013241,6.2992,201.06,78.766,44.123,NaN,13.541,986.93,339.5,0.05,0.020289
3.1112,229.57,103.52,14.486,104.5,15.644,27.92,-3.7082,28.166,-7.5653,14.248,5.9069,28.61,-80.6,9.7915,2.0433,0,0.0013283,-0.0031947,37128,8892.7,57.95,0.29164,100.54,91.53,1.4297,0.30936,24722930,1e3,73.351,0.54537,0.55189,0.34801,0.064924,0.13244,0.3516,0.50244,6.5159e-5,0,0,0,0,5.6832e-5,0.013321,6.2992,201.06,78.741,43.852,NaN,13.508,986.33,339.48,0.05,0.020437
3.1612,234.77,104.25,14.477,105.25,15.653,28.634,-3.6341,28.864,-7.233,14.457,5.9522,28.61,-80.6,9.7915,2.1001,0,0.0028424,-0.0031897,37088,8851.9,57.914,0.29152,100.45,91.49,1.4227,0.31152,24884080,1e3,74.431,0.54574,0.55262,0.34796,0.065165,0.13262,0.36249,0.51578,7.7267e-4,0,0,0,0,2.5666e-4,0.013401,6.2992,201.06,78.737,43.502,NaN,13.474,985.72,339.46,0.05,0.02059
3.2112,240,104.97,14.485,105.99,15.645,29.357,-3.5484,29.571,-6.8919,14.67,5.9128,28.61,-80.6,9.7914,2.0201,0,0.0043526,-0.0032162,37047,8811.2,57.878,0.29141,100.58,91.45,1.4486,0.31374,2.505e7,1e3,75.435,0.54612,0.55251,0.34791,0.065413,0.1328,0.34724,0.50217,-1.3356e-4,0,0,0,0,5.9344e-4,0.013481,6.2992,201.06,78.754,43.066,NaN,13.44,985.1,339.44,0.05,0.020738
3.2612,245.26,105.7,14.506,106.74,15.626,30.09,-3.4513,30.287,-6.5433,14.886,5.8107,28.61,-80.6,9.7914,1.8446,0,0.0057632,-0.0032855,37006,8770.5,57.842,0.29129,100.85,91.41,1.4981,0.31601,25218753,1e3,76.393,0.54651,0.55188,0.34786,0.065665,0.13298,0.31416,0.46945,6.4393e-4,0,0,0,0,0.0010256,0.013561,6.2992,201.06,78.792,42.545,NaN,13.406,984.48,339.42,0.05,0.020996
3.3112,250.57,106.42,14.501,107.49,15.631,30.832,-3.3431,31.012,-6.1885,15.104,5.8352,28.61,-80.6,9.7914,1.9272,0,0.0072842,-0.0031936,36965,8729.7,57.806,0.29117,100.72,91.37,1.4845,0.31811,25374879,1e3,77.484,0.54687,0.55272,0.34781,0.0659,0.13316,0.3297,0.48828,7.0375e-4,0,0,0,0,0.001617,0.013642,6.2992,201.06,78.85,41.939,NaN,13.371,983.86,339.4,0.05,0.021165
3.3612,255.91,107.15,14.516,108.24,15.62,31.583,-3.2238,31.747,-5.8283,15.326,5.7671,28.61,-80.6,9.7914,1.8586,0,0.008812,-0.0031864,36925,8689,57.77,0.29105,100.83,91.33,1.5081,0.32029,25536387,1e3,78.497,0.54724,0.5527,0.34776,0.066143,0.13334,0.31682,0.47517,-6.2009e-5,0,0,0,0,0.0023347,0.013723,6.2992,201.06,78.927,41.238,NaN,13.337,983.24,339.38,0.05,0.02134
3.4112,261.28,107.88,14.559,108.99,15.583,32.344,-3.0937,32.491,-5.4638,15.548,5.5566,28.61,-80.6,9.7914,1.5409,0,0.010102,-0.003418,36884,8648.2,57.734,0.29093,101.33,91.29,1.5943,0.3226,25707891,1e3,79.4,0.54764,0.55145,0.34771,0.066401,0.13353,0.25825,0.40903,2.0726e-4,0,0,0,0,0.003025,0.013805,6.2992,201.06,79.024,40.44,NaN,13.302,982.61,339.36,0.05,0.021625
3.4612,266.69,108.61,14.572,109.74,15.573,33.114,-2.9534,33.245,-5.0966,15.771,5.4928,28.61,-80.6,9.7914,1.5202,0,0.011468,-0.0032808,36843,8607.5,57.697,0.29081,101.37,91.249,1.6063,0.32473,25865282,1e3,80.442,0.54801,0.55172,0.34766,0.06664,0.13371,0.25452,0.40454,5.154e-4,0,0,0,0,0.0038479,0.013887,6.2992,201.06,79.137,39.547,NaN,13.266,981.97,339.34,0.05,0.022001
3.5112,272.14,109.34,14.615,110.5,15.537,33.894,-2.8031,34.009,-4.7278,15.993,5.2726,28.61,-80.6,9.7913,1.2085,0,0.012577,-0.0036144,36802,8566.8,57.661,0.29069,101.88,91.209,1.694,0.32702,26034635,1e3,81.387,0.54841,0.55078,0.34761,0.066896,0.1339,0.19895,0.33252,1.1501e-4,0,0,0,0,0.0045638,0.013971,6.2992,201.06,79.265,38.556,NaN,13.231,981.33,339.32,0.05,0.022426
3.5612,277.63,110.07,14.664,111.26,15.497,34.683,-2.6437,34.784,-4.359,16.213,5.0131,28.61,-80.6,9.7913,0.81244,0,0.013221,-0.0045434,36762,8526,57.624,0.29057,102.56,91.168,1.8078,0.32936,26207530,1e3,82.368,0.54882,0.54991,0.34756,0.067157,0.1341,0.13084,0.23131,2.4993e-4,0,0,0,0,0.0049729,0.014056,6.2992,201.06,79.404,37.473,NaN,13.195,980.69,339.3,0.05,0.022684
3.6112,283.15,110.8,14.712,112.01,15.457,35.482,-2.4761,35.568,-3.9919,16.429,4.7412,28.61,-80.6,9.7913,0.37741,0,0.012106,-0.0079853,36721,8485.3,57.588,0.29045,103.33,91.127,1.9378,0.33173,26383116,1e3,83.437,0.54923,0.54947,0.3475,0.067423,0.13431,0.059299,0.11045,0.0020055,0,0,0,0,0.0041101,0.014143,6.2992,201.06,79.55,36.317,NaN,13.16,980.04,339.27,0.05,0.022887
3.6612,288.71,111.54,14.753,112.77,15.422,36.29,-2.3012,36.363,-3.6284,16.641,4.4932,28.61,-80.6,9.7913,0.20907,0,-0.0091286,-0.011404,36680,8444.5,57.551,0.29033,103.65,91.087,1.9941,0.33411,26558671,1e3,84.618,0.54965,0.54972,0.34745,0.067689,0.13451,0.032533,0.06742,0.0036573,0,0,0,0,-0.0023043,0.014231,6.2992,201.06,79.699,35.113,NaN,13.123,979.39,339.25,0.05,0.023143
3.7112,294.3,112.28,14.787,113.54,15.393,37.107,-2.1202,37.168,-3.2701,16.848,4.2784,28.61,-80.6,9.7913,0.54064,0,-0.013825,-0.0033392,36639,8403.8,57.514,0.29021,103.04,91.046,1.9046,0.33646,26732318,1e3,85.887,0.55006,0.55055,0.34739,0.067953,0.13472,0.08576,0.16808,1.9562e-4,0,0,0,0,-0.005212,0.014321,6.2992,201.06,79.844,33.897,NaN,13.087,978.73,339.23,0.05,0.023308
3.7612,299.93,113.02,14.807,114.3,15.376,37.934,-1.9338,37.983,-2.9183,17.051,4.1446,28.61,-80.6,9.7913,0.7093,0,-0.013465,-0.0017903,36599,8363.1,57.477,0.29009,102.75,91.005,1.8638,0.33869,26895571,1e3,87.087,0.55045,0.55129,0.34734,0.068204,0.13491,0.11361,0.21701,5.1019e-4,0,0,0,0,-0.0048803,0.014412,6.2992,201.06,79.981,32.701,NaN,13.05,978.07,339.21,0.05,0.023553
3.8112,305.6,113.76,14.832,115.06,15.354,38.77,-1.7428,38.809,-2.5738,17.25,3.9668,28.61,-80.6,9.7912,1.0647,0,-0.01262,-7.5581e-4,36558,8322.3,57.44,0.28997,102.13,90.964,1.7734,0.34104,27068736,1e3,88.473,0.55087,0.55273,0.34728,0.068468,0.13512,0.17398,0.31229,8.6471e-5,0,0,0,0,-0.0042281,0.014504,6.2992,201.06,80.108,31.547,NaN,13.014,977.41,339.19,0.05,0.023828
3.8612,311.31,114.5,14.85,115.82,15.339,39.615,-1.5481,39.645,-2.2378,17.443,3.8446,28.61,-80.6,9.7912,1.287,0,-0.011406,-2.912e-4,36517,8281.6,57.403,0.28986,101.77,90.923,1.7214,0.34333,27235965,1e3,89.802,0.55128,0.55398,0.34723,0.068725,0.13532,0.2129,0.36972,-6.7393e-5,0,0,0,0,-0.0034088,0.014598,6.2992,201.06,80.222,30.467,NaN,12.976,976.74,339.16,0.05,0.024192
3.9112,317.05,115.25,14.859,116.59,15.329,40.469,-1.3503,40.492,-1.911,17.633,3.7645,28.61,-80.6,9.7912,1.3861,0,-0.010025,1.3121e-5,36476,8240.8,57.366,0.28974,101.61,90.882,1.7025,0.34555,27397839,1e3,91.039,0.55167,0.55479,0.34717,0.068975,0.13552,0.23056,0.39497,-8.5324e-5,0,0,0,0,-0.0025998,0.014693,6.2992,201.06,80.321,29.486,NaN,12.939,976.06,339.14,0.05,0.024379
3.9612,322.84,115.99,14.869,117.35,15.319,41.333,-1.1499,41.349,-1.5936,17.819,3.6883,28.61,-80.6,9.7912,1.513,0,-0.0085169,2.2317e-4,36436,8200.1,57.329,0.28962,101.4,90.84,1.6768,0.34781,27562246,1e3,92.331,0.55207,0.55578,0.34712,0.06923,0.13573,0.25341,0.42662,1.3412e-4,0,0,0,0,-0.0018524,0.014788,6.2992,201.06,80.405,28.621,NaN,12.902,975.39,339.12,0.05,0.02461
4.0112,328.65,116.73,14.878,118.11,15.31,42.205,-0.9475,42.216,-1.2861,18.002,3.6131,28.61,-80.6,9.7912,1.7081,0,-0.0068459,3.393e-4,36395,8159.4,57.292,0.2895,101.09,90.799,1.6345,0.35013,27731437,1e3,93.736,0.55249,0.55717,0.34706,0.069491,0.13594,0.28913,0.47348,-1.259e-4,0,0,0,0,-0.0011812,0.014883,6.2992,201.06,80.472,27.89,NaN,12.864,974.7,339.09,0.05,0.025167
4.0612,334.51,117.48,14.886,118.88,15.304,43.086,-0.74359,43.093,-0.98872,18.18,3.5536,28.61,-80.6,9.7911,1.9196,0,-0.0049409,3.9557e-4,36354,8118.6,57.255,0.28938,100.77,90.757,1.5892,0.35248,27903074,1e3,95.208,0.55291,0.55878,0.347,0.069757,0.13615,0.32864,0.52336,-2.3861e-4,0,0,0,0,-6.0715e-4,0.01498,6.2992,201.06,80.521,27.317,NaN,12.826,974.02,339.07,0.05,0.025345
4.1112,340.4,118.22,14.886,119.64,15.297,43.976,-0.53873,43.98,-0.70186,18.355,3.5248,28.61,-80.6,9.7911,1.9291,0,-0.0029482,4.5403e-4,36314,8077.9,57.217,0.28926,100.76,90.716,1.5938,0.35473,28065597,1e3,96.435,0.55332,0.55924,0.34695,0.07001,0.13636,0.33046,0.52721,-2.9586e-5,0,0,0,0,-2.1348e-4,0.015077,6.2992,201.06,80.551,26.924,NaN,12.787,973.33,339.05,0.05,0.025569
4.1612,346.33,118.97,14.886,120.4,15.291,44.875,-0.3332,44.877,-0.42541,18.528,3.4992,28.61,-80.6,9.7911,1.977,0,-8.2954e-4,4.6804e-4,36273,8037.1,57.18,0.28914,100.68,90.674,1.5892,0.35702,28231853,1e3,97.74,0.55373,0.55995,0.34689,0.07027,0.13657,0.33954,0.53982,-4.2715e-4,0,0,0,0,-1.6687e-5,0.015175,6.2992,201.06,80.562,26.72,NaN,12.749,972.63,339.02,0.05,0.025788
4.2112,352.3,119.71,14.869,121.16,15.282,45.783,-0.12696,45.783,-0.15889,18.703,3.5303,28.61,-80.6,9.7911,1.5364,0,0.0010757,4.6438e-4,36232,7996.4,57.142,0.28902,101.38,90.632,1.7057,0.35902,28374080,1e3,98.406,0.55409,0.55792,0.34684,0.070495,0.13676,0.25776,0.43974,3.654e-4,0,0,0,0,2.7751e-5,0.015272,6.2992,201.06,80.553,26.705,NaN,12.71,971.93,339,0.05,0.026069
4.2612,358.3,120.46,14.862,121.93,15.275,46.699,0.080661,46.699,0.098963,18.88,3.5286,28.61,-80.6,9.7911,1.487,0,0.0028017,4.3588e-4,36191,7955.6,57.105,0.2889,101.46,90.59,1.7254,0.36129,28537860,1e3,99.614,0.5545,0.5581,0.34678,0.070752,0.13697,0.24883,0.42955,-2.1355e-4,0,0,0,0,1.8592e-4,0.015368,6.2992,201.06,80.526,26.852,NaN,12.671,971.23,338.98,0.05,0.026227
4.3112,364.34,121.2,14.855,122.69,15.268,47.624,0.28989,47.625,0.34875,19.056,3.5284,28.61,-80.6,9.7911,1.478,0,0.0045157,4.0973e-4,36151,7914.9,57.067,0.28878,101.48,90.549,1.7348,0.3636,28704906,1e3,100.89,0.55492,0.55848,0.34672,0.071014,0.13719,0.24722,0.4281,-2.4023e-4,0,0,0,0,4.7693e-4,0.015464,6.2992,201.06,80.482,27.15,NaN,12.632,970.52,338.95,0.05,0.026378
4.3612,370.42,121.94,14.847,123.45,15.262,48.558,0.50074,48.561,0.59083,19.232,3.5321,28.61,-80.6,9.791,1.4943,0,0.006292,3.991e-4,36110,7874.2,57.029,0.28866,101.45,90.506,1.7377,0.36596,28874652,1e3,102.22,0.55535,0.55899,0.34666,0.071281,0.13741,0.25019,0.43414,-4.3087e-4,0,0,0,0,9.142e-4,0.01556,6.2992,201.06,80.419,27.597,NaN,12.592,969.81,338.93,0.05,0.026528
4.4112,376.54,122.69,14.827,124.21,15.258,49.5,0.71335,49.506,0.82563,19.41,3.6016,28.61,-80.599,9.791,1.2482,0,0.0079649,1.738e-4,36069,7833.4,56.991,0.28854,101.86,90.464,1.8086,0.36816,29031883,1e3,103.25,0.55576,0.55832,0.34661,0.07153,0.13762,0.20622,0.37163,1.1071e-4,0,0,0,0,0.0014477,0.015655,6.2992,201.06,80.336,28.188,NaN,12.553,969.09,338.91,0.05,0.026732
4.4612,382.69,123.43,14.804,124.97,15.257,50.452,0.92831,50.46,1.0541,19.592,3.6895,28.61,-80.599,9.791,1.0333,0,0.0093598,-1.1914e-4,36028,7792.7,56.953,0.28842,102.22,90.422,1.8729,0.37039,29191632,1e3,104.36,0.55617,0.55794,0.34655,0.071784,0.13783,0.16873,0.31384,1.0529e-4,0,0,0,0,0.0019754,0.015749,6.2992,201.06,80.235,28.894,NaN,12.513,968.37,338.88,0.05,0.026909
4.5112,388.88,124.17,14.788,125.73,15.252,51.411,1.1462,51.424,1.2771,19.777,3.7366,28.61,-80.599,9.791,1.0124,0,0.010719,-6.5242e-5,35988,7751.9,56.915,0.28831,102.26,90.38,1.8857,0.37277,29362490,1e3,105.7,0.5566,0.55831,0.34649,0.072054,0.13806,0.16514,0.3089,1.5597e-4,0,0,0,0,0.0025582,0.015843,6.2992,201.06,80.116,29.692,NaN,12.472,967.64,338.86,0.05,0.027176
4.5612,395.11,124.91,14.749,126.49,15.261,52.38,1.3673,52.398,1.4953,19.965,3.9211,28.61,-80.599,9.791,0.64591,0,0.011728,-0.0012235,35947,7711.2,56.877,0.28819,102.9,90.337,1.9938,0.37493,29515419,1e3,106.73,0.557,0.55771,0.34643,0.0723,0.13827,0.10322,0.20259,-2.6004e-4,0,0,0,0,0.0030279,0.015935,6.2992,201.06,79.98,30.565,NaN,12.432,966.91,338.83,0.05,0.02733
4.6112,401.37,125.64,14.715,127.25,15.269,53.357,1.5926,53.381,1.7097,20.159,4.0768,28.61,-80.599,9.7909,0.43456,0,0.012239,-0.0026149,35906,7670.5,56.839,0.28807,103.28,90.295,2.0612,0.37719,29676616,1e3,107.94,0.55742,0.55774,0.34637,0.072557,0.1385,0.068621,0.1386,4.2067e-4,0,0,0,0,0.0032585,0.016027,6.2992,201.06,79.83,31.475,NaN,12.391,966.18,338.81,0.05,0.027478
4.6612,407.67,126.38,14.677,128.01,15.278,54.344,1.8228,54.374,1.9211,20.358,4.2442,28.61,-80.599,9.7909,0.24864,0,0.011622,-0.0057599,35865,7629.7,56.8,0.28795,103.62,90.252,2.1226,0.37947,29838533,1e3,109.21,0.55784,0.55795,0.34631,0.072817,0.13872,0.038848,0.079776,2.4264e-4,0,0,0,0,0.0029033,0.016117,6.2992,201.06,79.668,32.391,NaN,12.35,965.44,338.78,0.05,0.027674
4.7112,414.01,127.11,14.641,128.76,15.286,55.339,2.0586,55.377,2.1304,20.562,4.393,28.61,-80.599,9.7909,0.14429,0,0.008109,-0.010357,35825,7589,56.762,0.28783,103.82,90.209,2.1608,0.3818,30003799,1e3,110.54,0.55828,0.55831,0.34625,0.073081,0.13895,0.02241,0.047286,0.0024086,0,0,0,0,0.0013965,0.016206,6.2992,201.06,79.497,33.29,NaN,12.309,964.69,338.76,0.05,0.027844
4.7612,420.38,127.84,14.613,129.52,15.285,56.344,2.3003,56.391,2.3379,20.769,4.4826,28.61,-80.599,9.7909,0.12194,0,0.0099703,-0.0089167,35784,7548.2,56.723,0.28771,103.87,90.167,2.1747,0.38422,30176672,1e3,111.95,0.55873,0.55876,0.34618,0.073358,0.13919,0.018916,0.03872,0.0019806,0,0,0,0,0.0020849,0.016295,6.2992,201.06,79.32,34.161,NaN,12.268,963.95,338.73,0.05,0.028089
4.8112,426.79,128.57,14.534,130.27,15.332,57.358,2.5486,57.414,2.5442,20.984,4.8814,28.61,-80.599,9.7909,0.50821,0,-0.011945,-0.0052464,35743,7507.5,56.685,0.28759,103.16,90.124,2.0689,0.38624,30317132,1e3,113.2,0.55911,0.55955,0.34613,0.073588,0.13939,0.080619,0.1697,2.49e-4,0,0,0,0,-0.0029616,0.016381,6.2992,201.06,79.139,34.994,NaN,12.226,963.19,338.71,0.05,0.028246
4.8612,433.24,129.3,14.481,131.03,15.354,58.381,2.8046,58.448,2.7504,21.207,5.1048,28.61,-80.599,9.7908,0.70264,0,-0.011394,-0.0042374,35702,7466.8,56.646,0.28747,102.81,90.081,2.0212,0.3885,30476059,1e3,114.6,0.55953,0.56037,0.34606,0.073846,0.13962,0.11271,0.23037,8.232e-5,0,0,0,0,-0.0026642,0.016466,6.2992,201.06,78.961,35.74,NaN,12.184,962.44,338.68,0.05,0.028395
4.9112,439.72,130.02,14.442,131.78,15.364,59.414,3.0691,59.493,2.9571,21.435,5.2415,28.61,-80.599,9.7908,0.7553,0,-0.010547,-0.0037155,35662,7426,56.608,0.28735,102.72,90.038,2.0138,0.39084,30641262,1e3,116.01,0.55997,0.56094,0.346,0.074113,0.13986,0.12153,0.24719,2.1222e-4,0,0,0,0,-0.0022559,0.016551,6.2992,201.06,78.791,36.383,NaN,12.142,961.68,338.66,0.05,0.028542
4.9612,446.24,130.74,14.364,132.53,15.414,60.456,3.3426,60.548,3.1647,21.671,5.5912,28.61,-80.599,9.7908,1.1259,0,-0.009159,-0.003415,35621,7385.3,56.569,0.28723,102.09,89.994,1.9201,0.39294,30787128,1e3,117.49,0.56037,0.56248,0.34594,0.074353,0.14007,0.18496,0.35653,-7.0519e-5,0,0,0,0,-0.0016832,0.016633,6.2992,201.06,78.634,36.917,NaN,12.099,960.91,338.63,0.05,0.028746
5.0112,452.8,131.46,14.353,133.27,15.396,61.508,3.626,61.615,3.3738,21.912,5.5709,28.61,-80.599,9.7908,0.96926,0,-0.0077219,-0.0031106,35580,7344.5,56.53,0.28711,102.36,89.951,1.9696,0.39538,3.096e7,1e3,118.85,0.56083,0.56241,0.34588,0.074633,0.14032,0.15786,0.31205,2.8898e-4,0,0,0,0,-0.0011819,0.016716,6.2992,201.06,78.492,37.324,NaN,12.057,960.14,338.61,0.05,0.028907
5.0612,459.39,132.18,14.319,134.02,15.403,62.57,3.9193,62.692,3.5843,22.157,5.6768,28.61,-80.599,9.7908,1.0069,0,-0.006265,-0.0029287,35539,7303.8,56.491,0.28699,102.3,89.908,1.9667,0.39767,3.112e7,1e3,120.25,0.56126,0.56297,0.34581,0.074895,0.14056,0.16436,0.32369,6.552e-4,0,0,0,0,-7.6917e-4,0.016798,6.2992,201.06,78.369,37.618,NaN,12.014,959.37,338.58,0.05,0.029059
5.1112,466.02,132.89,14.305,134.77,15.39,63.642,4.2226,63.782,3.796,22.405,5.678,28.61,-80.599,9.7907,0.91378,0,-0.0048326,-0.0027286,35499,7263.1,56.452,0.28687,102.46,89.864,1.9994,0.40004,31286056,1e3,121.62,0.56172,0.56312,0.34575,0.075166,0.1408,0.1484,0.29729,6.3298e-4,0,0,0,0,-4.5233e-4,0.016879,6.2992,201.06,78.263,37.804,NaN,11.971,958.59,338.55,0.05,0.029211
5.1612,472.68,133.61,14.309,135.52,15.36,64.724,4.5358,64.883,4.0087,22.655,5.5858,28.61,-80.599,9.7907,0.70348,0,-0.0037535,-0.0024317,35458,7222.3,56.413,0.28676,102.83,89.821,2.0649,0.40249,31458341,1e3,122.99,0.56218,0.56303,0.34568,0.075448,0.14106,0.11292,0.23389,-2.7843e-4,0,0,0,0,-2.696e-4,0.016962,6.2992,201.06,78.176,37.9,NaN,11.928,957.81,338.53,0.05,0.029559
5.2112,479.38,134.32,14.287,136.26,15.358,65.816,4.8585,65.995,4.2219,22.907,5.6343,28.61,-80.599,9.7907,0.7097,0,-0.0025926,-0.0023699,35417,7181.6,56.373,0.28664,102.82,89.777,2.0706,0.40476,31615598,1e3,124.38,0.56262,0.56347,0.34561,0.075708,0.1413,0.11397,0.23659,-1.1137e-4,0,0,0,0,-1.2721e-4,0.017044,6.2992,201.06,78.104,37.923,NaN,11.884,957.03,338.5,0.05,0.029837
5.2612,486.11,135.04,14.292,137.01,15.329,66.919,5.1908,67.12,4.4354,23.159,5.5446,28.61,-80.599,9.7907,0.53347,0,-0.0018332,-0.0021415,35376,7140.8,56.334,0.28652,103.14,89.733,2.1277,0.40716,31783734,1e3,125.78,0.56308,0.56357,0.34554,0.075984,0.14155,0.084823,0.18041,5.4626e-4,0,0,0,0,-6.2858e-5,0.017127,6.2992,201.06,78.048,37.884,NaN,11.84,956.24,338.47,0.05,0.030117
5.3112,492.88,135.75,14.247,137.76,15.351,68.032,5.5322,68.257,4.6489,23.415,5.7162,28.61,-80.599,9.7907,0.74082,0,-5.4251e-4,-0.0022524,35336,7100.1,56.294,0.2864,102.77,89.689,2.0767,0.40922,31924241,1e3,127.14,0.56348,0.56441,0.34548,0.076221,0.14177,0.11919,0.2477,1.6779e-4,0,0,0,0,-5.4508e-6,0.01721,6.2992,201.06,78.007,37.794,NaN,11.796,955.44,338.45,0.05,0.030403
5.3612,499.69,136.47,14.228,138.5,15.349,69.156,5.8834,69.406,4.8627,23.674,5.759,28.61,-80.599,9.7906,0.77923,0,7.8943e-4,-0.0022535,35295,7059.4,56.255,0.28628,102.71,89.645,2.0734,0.41141,32074130,1e3,128.51,0.5639,0.56493,0.34542,0.076472,0.142,0.12566,0.26092,7.6423e-5,0,0,0,0,1.1421e-5,0.017292,6.2992,201.06,77.982,37.638,NaN,11.752,954.65,338.42,0.05,0.030692
5.4112,506.53,137.18,14.215,139.25,15.342,70.29,6.2443,70.567,5.0766,23.935,5.7715,28.61,-80.599,9.7906,0.79156,0,0.0021676,-0.0022378,35254,7018.6,56.215,0.28616,102.69,89.601,2.0775,0.41359,32224947,1e3,129.88,0.56432,0.56539,0.34536,0.076724,0.14224,0.12775,0.2655,3.489e-4,0,0,0,0,8.5217e-5,0.017373,6.2992,201.06,77.976,37.407,NaN,11.708,953.88,338.39,0.05,0.031013
5.4612,513.4,137.89,14.203,140,15.336,71.435,6.6151,71.74,5.2907,24.197,5.7829,28.61,-80.599,9.7906,0.81772,0,0.0036297,-0.0021872,35214,6977.9,56.176,0.28604,102.64,89.557,2.0777,0.41574,32372898,1e3,131.24,0.56474,0.56587,0.34529,0.076971,0.14247,0.13217,0.274,-3.4134e-5,0,0,0,0,2.3652e-4,0.017455,6.2992,201.06,77.989,37.098,NaN,11.663,953.11,338.37,0.05,0.031281
5.5112,520.32,138.6,14.21,140.74,15.311,72.59,6.9957,72.926,5.5047,24.459,5.6993,28.61,-80.599,9.7906,0.73298,0,0.0050384,-0.0022124,35173,6937.1,56.136,0.28592,102.8,89.512,2.1087,0.41796,32526064,1e3,132.59,0.56517,0.56609,0.34523,0.077227,0.14271,0.11793,0.24831,3.1036e-4,0,0,0,0,4.5098e-4,0.017537,6.2992,201.06,78.02,36.704,NaN,11.618,952.34,338.34,0.05,0.031492
5.5612,527.26,139.31,14.248,141.49,15.256,73.756,7.3858,74.125,5.7185,24.717,5.4551,28.61,-80.599,9.7906,0.43811,0,0.0058737,-0.002751,35132,6896.4,56.096,0.2858,103.32,89.468,2.1998,0.42035,32691808,1e3,133.97,0.56563,0.56596,0.34516,0.077503,0.14297,0.069324,0.15205,3.9449e-5,0,0,0,0,6.0605e-4,0.01762,6.2992,201.06,78.068,36.233,NaN,11.573,951.56,338.31,0.05,0.031705
5.6112,534.25,140.02,14.28,142.23,15.21,74.932,7.7846,75.336,5.9311,24.969,5.2368,28.61,-80.599,9.7905,0.18308,0,0.0052345,-0.0046043,35091,6855.6,56.056,0.28568,103.8,89.423,2.2819,0.42271,32855238,1e3,135.41,0.56609,0.56615,0.34509,0.077775,0.14323,0.02855,0.064762,7.3093e-4,0,0,0,0,4.7605e-4,0.017704,6.2992,201.06,78.126,35.715,NaN,11.527,950.78,338.28,0.05,0.031877
5.6612,541.27,140.74,14.294,142.98,15.18,76.119,8.1912,76.559,6.1419,25.217,5.1112,28.61,-80.599,9.7905,0.085276,0,0.0013638,-0.0069758,35051,6814.9,56.016,0.28556,103.98,89.379,2.3187,0.42495,33008649,1e3,136.83,0.56653,0.56655,0.34502,0.078034,0.14348,0.013224,0.030954,5.6565e-4,0,0,0,0,3.1979e-5,0.01779,6.2992,201.06,78.19,35.179,NaN,11.482,950,338.26,0.05,0.032768
5.7112,548.32,141.45,14.303,143.73,15.155,77.317,8.6051,77.794,6.3507,25.461,5.0103,28.61,-80.599,9.7905,0.082535,0,-0.0054676,-0.0045154,35010,6774.2,55.976,0.28544,103.99,89.334,2.3271,0.42715,33158808,1e3,138.24,0.56696,0.56698,0.34496,0.078288,0.14372,0.012798,0.029792,2.475e-4,0,0,0,0,-5.0881e-4,0.017876,6.2992,201.06,78.255,34.64,NaN,11.436,949.21,338.23,0.05,0.033107
5.7612,555.41,142.17,14.318,144.48,15.125,78.525,9.026,79.042,6.5571,25.701,4.8747,28.61,-80.599,9.7905,0.20523,0,-0.0067347,-6.4617e-4,34969,6733.4,55.936,0.28533,103.77,89.289,2.2981,0.4294,33313064,1e3,139.71,0.56741,0.56748,0.34489,0.078549,0.14397,0.032054,0.074768,-1.4654e-4,0,0,0,0,-7.64e-4,0.017962,6.2992,201.06,78.32,34.113,NaN,11.39,948.42,338.2,0.05,0.033434
5.8112,562.54,142.89,14.315,145.22,15.11,79.743,9.4534,80.301,6.7608,25.939,4.8363,28.61,-80.599,9.7904,0.17729,0,-0.0064384,2.4428e-4,34928,6692.7,55.895,0.28521,103.82,89.244,2.3139,0.43152,33455940,1e3,141.07,0.56783,0.56788,0.34483,0.078794,0.14421,0.027649,0.064511,-4.6354e-4,0,0,0,0,-6.9156e-4,0.018049,6.2992,201.06,78.381,33.609,NaN,11.344,947.62,338.17,0.05,0.034102
5.8612,569.7,143.6,14.341,145.97,15.071,80.971,9.887,81.573,6.9617,26.171,4.6345,28.61,-80.599,9.7904,0.44823,0,-0.0057377,6.2259e-4,34888,6651.9,55.855,0.28509,103.32,89.199,2.2423,0.4339,33619404,1e3,142.7,0.5683,0.56865,0.34475,0.07907,0.14448,0.071011,0.16019,7.4178e-5,0,0,0,0,-5.4329e-4,0.018137,6.2992,201.06,78.438,33.134,NaN,11.297,946.82,338.14,0.05,0.03435
5.9112,576.9,144.32,14.343,146.72,15.05,82.21,10.326,82.856,7.1593,26.398,4.5588,28.61,-80.599,9.7904,0.50451,0,-0.0046992,8.4714e-4,34847,6611.2,55.814,0.28497,103.23,89.154,2.2338,0.43611,33769003,1e3,144.17,0.56874,0.56918,0.34469,0.079327,0.14472,0.080191,0.17951,-1.0167e-4,0,0,0,0,-3.6081e-4,0.018226,6.2992,201.06,78.484,32.718,NaN,11.25,946.02,338.12,0.05,0.034549
5.9612,584.13,145.04,14.335,147.46,15.037,83.459,10.771,84.151,7.3536,26.624,4.5398,28.61,-80.599,9.7904,0.4678,0,-0.0036693,0.0010883,34806,6570.5,55.774,0.28485,103.29,89.109,2.252,0.43825,33912940,1e3,145.56,0.56916,0.56954,0.34462,0.079575,0.14497,0.074209,0.16758,1.1239e-4,0,0,0,0,-2.1788e-4,0.018315,6.2992,201.06,78.518,32.371,NaN,11.203,945.21,338.09,0.05,0.03477
6.0112,591.4,145.76,14.337,148.21,15.014,84.718,11.22,85.457,7.5445,26.847,4.4568,28.61,-80.599,9.7904,0.56441,0,-0.0025541,0.0011061,34765,6529.7,55.733,0.28473,103.12,89.064,2.2321,0.44053,34067038,1e3,147.11,0.56962,0.57017,0.34455,0.079839,0.14523,0.090037,0.20128,3.4779e-4,0,0,0,0,-1.0449e-4,0.018404,6.2992,201.06,78.54,32.092,NaN,11.156,944.4,338.06,0.05,0.035011
6.0612,598.71,146.47,14.324,148.95,15.001,85.987,11.675,86.776,7.7319,27.069,4.4555,28.61,-80.599,9.7903,0.52506,0,-0.0013486,0.0011862,34725,6489,55.692,0.28461,103.2,89.018,2.251,0.4427,34212688,1e3,148.53,0.57005,0.57053,0.34448,0.080092,0.14548,0.083581,0.18855,-3.2192e-4,0,0,0,0,-2.8853e-5,0.018493,6.2992,201.06,78.548,31.891,NaN,11.108,943.58,338.03,0.05,0.035178
6.1112,606.05,147.19,14.308,149.7,14.989,87.266,12.134,88.105,7.916,27.291,4.4681,28.61,-80.599,9.7903,0.4791,0,-2.2302e-4,0.0012207,34684,6448.2,55.651,0.28449,103.28,88.972,2.2718,0.44488,34358753,1e3,149.96,0.57049,0.57089,0.34441,0.080345,0.14573,0.076073,0.17274,-4.5915e-4,0,0,0,0,-7.8144e-7,0.018582,6.2992,201.06,78.542,31.763,NaN,11.061,942.76,338,0.05,0.035486
6.1612,613.43,147.91,14.294,150.44,14.975,88.555,12.598,89.446,8.097,27.512,4.4664,28.61,-80.599,9.7903,0.47643,0,8.2902e-4,0.0012198,34643,6407.5,55.61,0.28437,103.29,88.927,2.2803,0.44711,34508673,1e3,151.45,0.57094,0.57133,0.34434,0.080606,0.14599,0.075647,0.17256,-3.4542e-4,0,0,0,0,1.0692e-5,0.01867,6.2992,201.06,78.523,31.703,NaN,11.013,941.94,337.97,0.05,0.03569
6.2112,620.84,148.62,14.282,151.19,14.959,89.854,13.068,90.799,8.2748,27.734,4.4499,28.61,-80.599,9.7903,0.51709,0,0.0019021,0.0012495,34602,6366.8,55.569,0.28425,103.22,88.881,2.2764,0.44941,34662595,1e3,153.02,0.5714,0.57187,0.34427,0.080872,0.14626,0.082303,0.18698,3.4655e-4,0,0,0,0,5.5725e-5,0.018759,6.2992,201.06,78.49,31.709,NaN,10.965,941.11,337.94,0.05,0.036123
6.2612,628.29,149.33,14.266,151.93,14.943,91.163,13.542,92.163,8.4494,27.955,4.4466,28.61,-80.599,9.7902,0.55221,0,0.0030736,0.0013097,34562,6326,55.528,0.28413,103.16,88.835,2.2742,0.45171,34817246,1e3,154.6,0.57187,0.5724,0.3442,0.081141,0.14653,0.088077,0.20013,-1.2722e-4,0,0,0,0,1.4405e-4,0.018848,6.2992,201.06,78.443,31.789,NaN,10.916,940.28,337.91,0.05,0.036294
6.3112,635.77,150.05,14.245,152.67,14.931,92.482,14.021,93.538,8.621,28.177,4.4728,28.61,-80.599,9.7902,0.55314,0,0.0043017,0.0013743,34521,6285.3,55.487,0.28401,103.16,88.789,2.2818,0.45401,34970639,1e3,156.16,0.57233,0.57286,0.34413,0.081409,0.1468,0.088239,0.20099,-4.312e-4,0,0,0,0,2.7935e-4,0.018937,6.2992,201.06,78.38,31.947,NaN,10.867,939.44,337.88,0.05,0.036449
6.3612,643.29,150.76,14.212,153.41,14.925,93.811,14.505,94.925,8.7895,28.401,4.5572,28.61,-80.599,9.7902,0.47068,0,0.0055424,0.0013354,34480,6244.5,55.446,0.28389,103.31,88.743,2.3132,0.45624,35119120,1e3,157.65,0.57278,0.57317,0.34405,0.08167,0.14706,0.074743,0.17269,-6.0946e-5,0,0,0,0,4.593e-4,0.019025,6.2992,201.06,78.301,32.185,NaN,10.819,938.6,337.85,0.05,0.036619
6.4112,650.85,151.47,14.158,154.15,14.934,95.15,14.994,96.324,8.9553,28.632,4.7525,28.61,-80.599,9.7902,0.23273,0,0.0064238,4.9684e-4,34439,6203.8,55.404,0.28378,103.75,88.697,2.3902,0.45834,35256667,1e3,158.99,0.57321,0.57331,0.34399,0.081915,0.14731,0.03646,0.087013,3.4956e-5,0,0,0,0,6.1146e-4,0.019113,6.2992,201.06,78.209,32.485,NaN,10.769,937.75,337.83,0.05,0.036871
6.4612,658.44,152.18,14.137,154.89,14.918,96.499,15.489,97.735,9.1189,28.866,4.766,28.61,-80.599,9.7902,0.29294,0,0.0069296,0.0014471,34399,6163.1,55.363,0.28366,103.65,88.65,2.3804,0.46073,35416471,1e3,160.66,0.5737,0.57385,0.34391,0.082194,0.1476,0.046056,0.10864,-3.9661e-4,0,0,0,0,7.043e-4,0.019199,6.2992,201.06,78.109,32.816,NaN,10.72,936.91,337.8,0.05,0.037245
6.5112,666.07,152.88,14.102,155.63,14.911,97.859,15.99,99.157,9.2802,29.103,4.8463,28.61,-80.599,9.7901,0.26088,0,0.0075145,0.0018835,34358,6122.3,55.321,0.28354,103.71,88.604,2.3977,0.46304,3.557e7,1e3,162.26,0.57417,0.57429,0.34383,0.082465,0.14787,0.040946,0.097633,2.7909e-4,0,0,0,0,8.201e-4,0.019286,6.2992,201.06,77.999,33.184,NaN,10.671,936.05,337.77,0.05,0.03849
6.5612,673.73,153.59,14.05,156.37,14.919,99.23,16.497,100.59,9.4394,29.344,5.0179,28.61,-80.599,9.7901,0.10137,0,0.0079919,0.0019087,34317,6081.6,55.279,0.28342,104.01,88.557,2.453,0.46524,35713974,1e3,163.75,0.57462,0.57464,0.34376,0.082722,0.14814,0.015765,0.037883,2.1636e-4,0,0,0,0,9.1904e-4,0.019372,6.2992,201.06,77.882,33.585,NaN,10.621,935.2,337.74,0.05,0.038798
6.6112,681.43,154.29,13.976,157.1,14.947,100.61,17.011,102.04,9.5969,29.595,5.3,28.61,-80.599,9.7901,0.19537,0,-0.0076288,-0.0026485,34276,6040.8,55.237,0.2833,103.84,88.511,2.4328,0.4673,35847235,1e3,165.19,0.57505,0.57511,0.3437,0.082964,0.14839,0.030554,0.074856,2.265e-4,0,0,0,0,-8.3021e-4,0.019456,6.2992,201.06,77.761,33.99,NaN,10.571,934.34,337.7,0.05,0.039382
6.6612,689.16,154.99,13.922,157.84,14.96,102,17.533,103.5,9.7533,29.853,5.4748,28.61,-80.599,9.7901,0.3291,0,-0.0070431,-0.0022979,34236,6000.1,55.196,0.28318,103.59,88.464,2.4014,0.4695,35990860,1e3,166.76,0.5755,0.57569,0.34362,0.083222,0.14866,0.051873,0.12497,-6.1469e-5,0,0,0,0,-7.0115e-4,0.019539,6.2992,201.06,77.645,34.357,NaN,10.52,933.47,337.67,0.05,0.039787
