# Time (s),Altitude (m),Vertical velocity (m/s),Vertical acceleration (m/s²),Total velocity (m/s),Total acceleration (m/s²),Position East of launch (m),Position North of launch (m),Lateral distance (m),Lateral direction (°),Lateral velocity (m/s),Lateral acceleration (m/s²),Latitude (°),Longitude (°),Gravitational acceleration (m/s²),Angle of attack (°),Roll rate (r/s),Pitch rate (r/s),Yaw rate (r/s),Mass (g),Propellant mass (g),Longitudinal moment of inertia (kg·m²),Rotational moment of inertia (kg·m²),CP location (in),CG location (in),Stability margin calibers (​),Mach number (​),Reynolds number (​),Thrust (N),Drag force (N),Drag coefficient (​),Axial drag coefficient (​),Friction drag coefficient (​),Pressure drag coefficient (​),Base drag coefficient (​),Normal force coefficient (​),Pitch moment coefficient (​),Yaw moment coefficient (​),Side force coefficient (​),Roll moment coefficient (​),Roll forcing coefficient (​),Roll damping coefficient (​),Pitch damping coefficient (​),Coriolis acceleration (m/s²),Reference length (in),Reference area (cm²),Vertical orientation (zenith) (°),Lateral orientation (azimuth) (°),Wind velocity (m/s),Air temperature (°C),Air pressure (mbar),Speed of sound (m/s),Simulation time step (s),Computation time (s)
0,0,0,-5.6763,0,5.7076,0,0,0,0,0,0.5966,28.61,-80.6,9.7922,84,0,0,0,40581,12346,60.972,0.31372,NaN,94.756,NaN,0.025375,2069445,163.58,0.0013397,0.53819,0.0014581,0.37589,0.042215,0.12008,NaN,NaN,NaN,NaN,NaN,NaN,NaN,NaN,0,6.2992,201.06,84,0,NaN,15,1013.2,340.39,0.01,0.0020194
0.01,0,0,61.573,0,61.912,0,0,0,0,0,6.4716,28.61,-80.6,9.7922,84,0,0,0,40581,12346,60.972,0.31372,NaN,94.756,NaN,0.025722,2097724,2907.7,0.0013741,0.53725,0.0014556,0.37495,0.042215,0.12009,NaN,NaN,NaN,NaN,NaN,NaN,NaN,NaN,0,6.2992,201.06,84,0,NaN,15,1013.2,340.39,0.01,0.0025633
0.02,0.0030793,0.6159,90.45,0.61929,90.949,3.2365e-4,0,3.2365e-4,0,0.064734,9.5067,28.61,-80.6,9.7922,80.058,0,0,0,40570,12334,60.962,0.31362,NaN,94.746,NaN,0.026321,2146591,4084.9,0.0062449,0.53567,0.0063174,0.37336,0.042216,0.12009,NaN,NaN,NaN,NaN,NaN,NaN,NaN,NaN,7.942e-5,6.2992,201.06,84,0,NaN,15,1013.2,340.39,0.01,0.0029768
0.03,0.013763,1.5208,89.063,1.5292,89.553,0.0014465,0,0.0014465,0,0.15985,9.3609,28.61,-80.6,9.7922,74.564,0,0,0,40549,12313,60.944,0.31341,NaN,94.727,NaN,0.027254,2222650,4026.2,0.023378,0.53329,0.022058,0.37097,0.042217,0.1201,NaN,NaN,NaN,NaN,NaN,NaN,NaN,NaN,1.9611e-4,6.2992,201.06,84,0,NaN,15,1013.2,340.39,0.01,0.0032733
0.04,0.033426,2.4119,88.815,2.4252,89.304,0.0035132,0,0.0035132,0,0.2535,9.3348,28.61,-80.6,9.7922,69.555,0,0,0,40525,12290,60.923,0.31317,NaN,94.706,NaN,0.028405,2316531,4013.8,0.055114,0.53049,0.047874,0.36816,0.042218,0.1201,NaN,NaN,NaN,NaN,NaN,NaN,NaN,NaN,3.1102e-4,6.2992,201.06,84,0,NaN,15,1013.2,340.39,0.01,0.0036015
0.05,0.061988,3.3005,89.021,3.3187,89.511,0.0065152,0,0.0065152,0,0.3469,9.3564,28.61,-80.6,9.7922,64.98,0,0,0,40502,12266,60.903,0.31293,NaN,94.685,NaN,0.029752,2426423,4019.9,0.10362,0.52739,0.082036,0.36506,0.04222,0.12012,NaN,NaN,NaN,NaN,NaN,NaN,NaN,NaN,4.256e-4,6.2992,201.06,84,0,NaN,15,1013.2,340.39,0.01,0.0041099
0.06,0.099446,4.1912,89.947,4.2143,90.442,0.010452,0,0.010452,0,0.44052,9.4538,28.61,-80.6,9.7922,60.269,0,0,0,40479,12243,60.882,0.31269,NaN,94.664,NaN,0.030596,2495236,4055.4,0.17127,0.52554,0.12822,0.3632,0.042221,0.12012,NaN,NaN,NaN,NaN,NaN,NaN,NaN,NaN,5.4045e-4,6.2992,201.06,84,0,NaN,14.999,1013.2,340.39,0.01,0.0044929
0.07,0.14586,5.0912,91.049,5.1192,91.551,0.01533,0,0.01533,0,0.5351,9.5697,28.61,-80.6,9.7922,55.799,0,0,0,40455,12220,60.861,0.31245,NaN,94.643,NaN,0.03165,2581201,4098,0.25945,0.52332,0.18151,0.36097,0.042222,0.12013,NaN,NaN,NaN,NaN,NaN,NaN,NaN,NaN,6.565e-4,6.2992,201.06,84,0,NaN,14.999,1013.2,340.39,0.01,0.0047632
0.08,0.20132,6.0021,92.153,6.0352,92.66,0.02116,0,0.02116,0,0.63085,9.6856,28.61,-80.6,9.7922,51.596,0,0,0,40432,12196,60.84,0.31221,NaN,94.622,NaN,0.032905,2683467,4140.5,0.36881,0.5208,0.23873,0.35844,0.042224,0.12014,NaN,NaN,NaN,NaN,NaN,NaN,NaN,NaN,7.7397e-4,6.2992,201.06,84,0,NaN,14.999,1013.2,340.39,0.01,0.0051097
0.09,0.26595,6.9241,93.09,6.9623,93.603,0.027953,0,0.027953,0,0.72776,9.7841,28.61,-80.6,9.7922,47.68,0,0,0,40408,12173,60.82,0.31197,NaN,94.6,NaN,0.034344,2800862,4176.3,0.49927,0.51806,0.29666,0.35568,0.042226,0.12015,NaN,NaN,NaN,NaN,NaN,NaN,NaN,NaN,8.9286e-4,6.2992,201.06,84,0,NaN,14.998,1013.2,340.39,0.01,0.0055549
0.1,0.33985,7.8555,93.04,7.8988,93.552,0.03572,0,0.03572,0,0.82565,9.7789,28.61,-80.6,9.7922,44.064,0,0,0,40385,12149,60.799,0.31173,NaN,94.579,NaN,0.035951,2931877,4172,0.65,0.51516,0.35247,0.35277,0.042228,0.12017,NaN,NaN,NaN,NaN,NaN,NaN,NaN,NaN,0.001013,6.2992,201.06,84,0,NaN,14.998,1013.2,340.39,0.01,0.0058623
0.11,0.42306,8.7864,93.327,8.8348,93.841,0.044466,0,0.044466,0,0.92349,9.8091,28.61,-80.6,9.7922,41.413,0,0,0,40361,12125,60.778,0.31148,NaN,94.557,NaN,0.038145,3110769,4181.4,0.81894,0.51374,0.39447,0.35132,0.042231,0.12019,NaN,NaN,NaN,NaN,NaN,NaN,NaN,NaN,0.001133,6.2992,201.06,84,0,NaN,14.997,1013.2,340.39,0.01,0.0061424
0.12,0.51559,9.7201,93.859,9.7737,94.376,0.054191,0,0.054191,0,1.0216,9.8649,28.61,-80.6,9.7922,39.047,0,0,0,40337,12101,60.757,0.31124,NaN,94.535,NaN,0.040418,3296121,4200.7,1.009,0.51376,0.43288,0.35131,0.042235,0.12021,NaN,NaN,NaN,NaN,NaN,NaN,NaN,NaN,0.0012534,6.2992,201.06,84,0,NaN,14.997,1013.2,340.39,0.01,0.0064115
0.13,0.61749,10.659,94.391,10.718,94.911,0.064901,0,0.064901,0,1.1203,9.9209,28.61,-80.6,9.7922,36.924,0,0,0,40313,12077,60.735,0.31099,NaN,94.514,NaN,0.042765,3487509,4220,1.2183,0.51378,0.4669,0.3513,0.042239,0.12024,NaN,NaN,NaN,NaN,NaN,NaN,NaN,NaN,0.0013745,6.2992,201.06,84,0,NaN,14.996,1013.2,340.39,0.01,0.0066789
0.14,0.7288,11.604,94.923,11.668,95.446,0.0766,0,0.0766,0,1.2196,9.9768,28.61,-80.6,9.7922,35.013,0,0,0,40289,12054,60.714,0.31075,NaN,94.492,NaN,0.045178,3684228,4239.3,1.4467,0.5138,0.49679,0.3513,0.042243,0.12027,NaN,NaN,NaN,NaN,NaN,NaN,NaN,NaN,0.0014963,6.2992,201.06,84,0,NaN,14.995,1013.2,340.39,0.01,0.0069559
0.15,0.84959,12.553,95.455,12.622,95.981,0.089295,0,0.089295,0,1.3194,10.033,28.61,-80.6,9.7922,33.287,0,0,0,40265,12030,60.693,0.3105,NaN,94.47,NaN,0.047649,3885696,4258.5,1.6937,0.51383,0.52287,0.35129,0.042247,0.1203,NaN,NaN,NaN,NaN,NaN,NaN,NaN,NaN,0.0016187,6.2992,201.06,84,0,NaN,14.994,1013.2,340.39,0.01,0.00732
0.16,0.9799,13.508,95.988,13.583,96.517,0.10299,0,0.10299,0,1.4198,10.089,28.61,-80.6,9.7922,31.14,0,0,0,40241,12006,60.672,0.31025,NaN,94.448,NaN,0.049783,4059705,4277.8,1.9577,0.51385,0.55365,0.35128,0.042251,0.12032,NaN,NaN,NaN,NaN,NaN,NaN,NaN,NaN,0.0017419,6.2992,201.06,84,0,NaN,14.994,1013.1,340.39,0.01,0.0075868
0.17,1.1198,14.469,96.521,14.548,97.052,0.11769,0,0.11769,0,1.5207,10.145,28.61,-80.6,9.7922,29.163,0,0,0,40218,11982,60.65,0.31001,NaN,94.426,NaN,0.051996,4240056,4297.1,2.2369,0.51388,0.57994,0.35127,0.042257,0.12035,NaN,NaN,NaN,NaN,NaN,NaN,NaN,NaN,0.0018657,6.2992,201.06,84,0,NaN,14.993,1013.1,340.38,0.01,0.0078637
0.18,1.2693,15.434,96.9,15.519,97.434,0.13341,0,0.13341,0,1.6222,10.185,28.61,-80.6,9.7922,27.343,0,0,0,40194,11958,60.629,0.30976,NaN,94.405,NaN,0.054279,4426170,4310.2,2.5304,0.51391,0.60201,0.35126,0.042264,0.12038,NaN,NaN,NaN,NaN,NaN,NaN,NaN,NaN,0.0019903,6.2992,201.06,84,0,NaN,14.992,1013.1,340.38,0.01,0.0081306
0.19,1.4285,16.404,96.661,16.494,97.194,0.15014,0,0.15014,0,1.7241,10.159,28.61,-80.6,9.7922,25.666,0,0,0,40170,11934,60.607,0.30952,NaN,94.383,NaN,0.056622,4617206,4298.3,2.8366,0.51394,0.62018,0.35126,0.042271,0.12042,NaN,NaN,NaN,NaN,NaN,NaN,NaN,NaN,0.0021153,6.2992,201.06,84,0,NaN,14.991,1013.1,340.38,0.01,0.008416
0.2,1.5974,17.371,96.799,17.467,97.333,0.16789,0,0.16789,0,1.8258,10.174,28.61,-80.6,9.7922,24.126,0,0,0,40146,11910,60.586,0.30927,NaN,94.361,NaN,0.059004,4811349,4301.6,3.1526,0.51398,0.63476,0.35125,0.042279,0.12045,NaN,NaN,NaN,NaN,NaN,NaN,NaN,NaN,0.00224,6.2992,201.06,84,0,NaN,14.99,1013.1,340.38,0.01,0.0086702
0.21,1.7759,18.34,97.154,18.441,97.689,0.18666,0,0.18666,0,1.9276,10.211,28.61,-80.6,9.7922,23.388,0,0,0,40122,11886,60.565,0.30902,NaN,94.339,NaN,0.061836,5042249,4313.7,3.4965,0.51402,0.64099,0.35123,0.042288,0.1205,NaN,NaN,NaN,NaN,NaN,NaN,NaN,NaN,0.0023649,6.2992,201.06,84,0,NaN,14.988,1013,340.38,0.01,0.0089403
0.22,1.9642,19.312,97.508,19.418,98.045,0.20644,0,0.20644,0,2.0297,10.249,28.61,-80.6,9.7922,22.711,0,0,0,40098,11862,60.543,0.30878,NaN,94.316,NaN,0.064688,5274689,4325.8,3.8576,0.51406,0.64623,0.35122,0.042298,0.12054,NaN,NaN,NaN,NaN,NaN,NaN,NaN,NaN,0.0024902,6.2992,201.06,84,0,NaN,14.987,1013,340.38,0.01,0.0091718
0.23,2.1622,20.287,97.862,20.399,98.402,0.22725,0,0.22725,0,2.1323,10.286,28.61,-80.6,9.7922,22.087,0,0,0,40074,11838,60.522,0.30853,NaN,94.294,NaN,0.067558,5508584,4337.9,4.236,0.51411,0.65063,0.35121,0.042308,0.12059,NaN,NaN,NaN,NaN,NaN,NaN,NaN,NaN,0.002616,6.2992,201.06,84,0,NaN,14.986,1013,340.38,0.01,0.0096868
0.24,2.3699,21.266,98.217,21.383,98.758,0.24909,0,0.24909,0,2.2352,10.323,28.61,-80.6,9.7922,21.512,0,0,0,40050,11814,60.5,0.30828,NaN,94.272,NaN,0.070444,5743860,4349.9,4.6317,0.51416,0.65432,0.35119,0.042318,0.12065,NaN,NaN,NaN,NaN,NaN,NaN,NaN,NaN,0.0027423,6.2992,201.06,84,0,NaN,14.985,1013,340.38,0.01,0.0099608
0.25,2.5875,22.249,98.571,22.371,99.114,0.27196,0,0.27196,0,2.3385,10.36,28.61,-80.6,9.7922,20.979,0,0,0,40026,11791,60.478,0.30804,NaN,94.25,NaN,0.073347,5980455,4362,5.0449,0.51421,0.6574,0.35118,0.042328,0.1207,NaN,NaN,NaN,NaN,NaN,NaN,NaN,NaN,0.002869,6.2992,201.06,84,0,NaN,14.983,1012.9,340.38,0.01,0.010269
0.26,2.8149,23.235,98.926,23.363,99.471,0.29586,0,0.29586,0,2.4421,10.398,28.61,-80.6,9.7922,20.18,0,0,0,40002,11767,60.457,0.30779,NaN,94.228,NaN,0.076066,6201985,4374.1,5.4583,0.51426,0.66136,0.35116,0.042339,0.12075,NaN,NaN,NaN,NaN,NaN,NaN,NaN,NaN,0.0029961,6.2992,201.06,84,0,NaN,14.982,1012.9,340.38,0.01,0.010565
0.27,3.0522,24.225,99.281,24.358,99.827,0.3208,0,0.3208,0,2.5461,10.435,28.61,-80.6,9.7922,19.433,0,0,0,39978,11743,60.435,0.30754,NaN,94.206,NaN,0.078808,6425432,4386.2,5.8852,0.51431,0.66434,0.35115,0.042349,0.12081,NaN,NaN,NaN,NaN,NaN,NaN,NaN,NaN,0.0031238,6.2992,201.06,84,0,NaN,14.98,1012.9,340.38,0.01,0.010822
0.28,3.2994,25.218,99.635,25.357,100.18,0.34678,0,0.34678,0,2.6505,10.472,28.61,-80.6,9.7922,18.734,0,0,0,39954,11719,60.414,0.3073,NaN,94.184,NaN,0.081572,6650695,4398.3,6.3254,0.51436,0.66647,0.35113,0.04236,0.12087,NaN,NaN,NaN,NaN,NaN,NaN,NaN,NaN,0.0032519,6.2992,201.06,84,0,NaN,14.979,1012.9,340.38,0.01,0.011074
0.29,3.5566,26.215,99.99,26.359,100.54,0.37381,0,0.37381,0,2.7553,10.509,28.61,-80.6,9.7922,18.079,0,0,0,39930,11695,60.392,0.30705,NaN,94.161,NaN,0.084358,6877680,4410.3,6.7789,0.51441,0.66788,0.35112,0.042371,0.12093,NaN,NaN,NaN,NaN,NaN,NaN,NaN,NaN,0.0033804,6.2992,201.06,84,0,NaN,14.977,1012.8,340.37,0.01,0.011317
0.3,3.8238,27.215,100.34,27.365,100.89,0.40189,0,0.40189,0,2.8604,10.546,28.61,-80.6,9.7922,17.464,0,0,0,39907,11671,60.37,0.3068,NaN,94.139,NaN,0.087165,7106308,4422.2,7.2456,0.51447,0.66865,0.3511,0.042383,0.12099,NaN,NaN,NaN,NaN,NaN,NaN,NaN,NaN,0.0035094,6.2992,201.06,84,0,NaN,14.975,1012.8,340.37,0.01,0.011562
0.31,4.1009,28.219,100.68,28.375,101.24,0.43102,0,0.43102,0,2.966,10.582,28.61,-80.6,9.7922,17.15,0,0,0,39883,11647,60.348,0.30656,NaN,94.117,NaN,0.090167,7350927,4433.7,7.7558,0.51454,0.66888,0.35108,0.042396,0.12106,NaN,NaN,NaN,NaN,NaN,NaN,NaN,NaN,0.0036388,6.2992,201.06,84,0,NaN,14.973,1012.8,340.37,0.01,0.011784
0.32,4.3882,29.227,101.02,29.388,101.58,0.46121,0,0.46121,0,3.0718,10.618,28.61,-80.6,9.7922,16.855,0,0,0,39859,11623,60.327,0.30631,NaN,94.094,NaN,0.093182,7596524,4445.3,8.2837,0.5146,0.66895,0.35106,0.042409,0.12113,NaN,NaN,NaN,NaN,NaN,NaN,NaN,NaN,0.0037687,6.2992,201.06,84,0,NaN,14.971,1012.7,340.37,0.01,0.012018
0.33,4.6855,30.237,101.36,30.404,101.92,0.49246,0,0.49246,0,3.1781,10.654,28.61,-80.6,9.7922,16.576,0,0,0,39835,11599,60.305,0.30606,NaN,94.072,NaN,0.096209,7843083,4456.9,8.8281,0.51467,0.66879,0.35104,0.042423,0.1212,NaN,NaN,NaN,NaN,NaN,NaN,NaN,NaN,0.0038991,6.2992,201.06,84,0,NaN,14.97,1012.7,340.37,0.01,0.01227
0.34,4.9929,31.251,101.69,31.424,102.18,0.52478,0,0.52478,0,3.2847,9.9991,28.61,-80.6,9.7922,16.313,0,0,0,39811,11575,60.283,0.30581,88.356,94.05,-0.90381,0.099248,8090588,4462.1,9.3892,0.51474,0.66843,0.35102,0.042437,0.12128,4.8325,-4.3677,-1.2936e-5,0,0,0,0,0,0.0040298,6.2992,201.06,84,0,NaN,14.968,1012.7,340.37,0.015,0.012539
0.355,5.4731,32.777,101.21,32.956,101.69,0.57517,2.6174e-8,0.57517,2.6073e-6,3.434,9.8779,28.61,-80.6,9.7922,15.769,0,-3.8983e-4,-3.231e-8,39781,11545,60.256,0.30551,88.611,94.022,-0.85893,0.10369,8452533,4442.7,10.234,0.51521,0.66746,0.35099,0.042823,0.1214,4.5999,-3.9505,-4.2434e-4,0,0,0,0,-4.3343e-5,0.0042264,6.2992,201.06,84.001,6.254e-7,NaN,14.964,1012.6,340.37,0.0225,0.012814
0.3775,6.2362,35.056,101.46,35.246,101.94,0.65493,1.6708e-7,0.65493,1.4616e-5,3.6562,9.882,28.61,-80.6,9.7922,14.58,0,-9.322e-4,-3.4091e-8,39736,11500,60.215,0.30505,89.2,93.98,-0.75869,0.11001,8967092,4451.1,11.428,0.516,0.66228,0.35094,0.043479,0.12157,4.108,-3.116,-2.3481e-4,0,0,0,0,-2.2019e-4,0.00452,6.2992,201.06,84.006,2.2783e-6,NaN,14.959,1012.5,340.36,0.03375,0.01316
0.41125,7.4772,38.486,101.88,38.693,102.36,0.78396,6.2189e-7,0.78396,4.5451e-5,3.9895,9.8812,28.61,-80.6,9.7922,13.024,0,-0.0016257,4.877e-8,39669,11434,60.154,0.30436,90.052,93.917,-0.6135,0.11959,9746942,4461.6,13.271,0.5172,0.65087,0.35087,0.044476,0.12186,3.4978,-2.1451,-2.4887e-4,0,0,0,0,-5.6666e-4,0.0049618,6.2992,201.06,84.022,1.5144e-6,NaN,14.951,1012.4,340.36,0.05,0.013561
0.46125,9.5292,43.592,102.36,43.822,102.83,0.99578,1.8784e-6,0.99578,1.0808e-4,4.4822,9.7852,28.61,-80.6,9.7921,11.355,0,-0.0024001,-3.4701e-8,39571,11335,60.063,0.30335,91.083,93.824,-0.43504,0.13415,10931109,4470.6,16.279,0.51907,0.63468,0.35074,0.045998,0.12234,2.8867,-1.2552,-4.028e-4,0,0,0,0,-9.8175e-4,0.0056195,6.2992,201.06,84.059,-3.6394e-6,NaN,14.938,1012.1,340.35,0.05,0.013895
0.51125,11.837,48.723,102.21,48.975,102.64,1.232,3.8986e-6,1.232,1.8131e-4,4.9627,9.3543,28.61,-80.6,9.7921,10.845,0,-0.0030602,7.976e-8,39453,11218,59.955,0.30214,91.43,93.713,-0.36238,0.14949,12179115,4453.6,20.086,0.5211,0.63078,0.35058,0.047611,0.12291,2.7094,-0.98067,-1.7663e-4,0,0,0,0,-0.0012853,0.0062801,6.2992,201.06,84.108,-1.3372e-5,NaN,14.923,1011.9,340.34,0.05,0.014198
0.56125,14.401,53.846,100.24,54.118,100.62,1.4916,6.7479e-6,1.4916,2.592e-4,5.4199,8.7488,28.61,-80.6,9.7921,10.268,0,-0.0037032,1.2544e-7,39337,11102,59.847,0.30095,91.838,93.602,-0.28,0.16467,13413009,4365.3,24.172,0.52316,0.62576,0.35042,0.049215,0.12353,2.5142,-0.70219,-6.6846e-5,0,0,0,0,-0.0015512,0.0069393,6.2992,201.06,84.169,-3.502e-5,NaN,14.906,1011.6,340.33,0.05,0.014481
0.61125,17.219,58.869,98.558,59.159,98.923,1.7736,1.0481e-5,1.7736,3.3859e-4,5.8569,8.5,28.61,-80.6,9.7921,8.9131,0,-0.0040688,2.6358e-7,39224,10988,59.741,0.29979,92.866,93.493,-0.099574,0.17881,14561144,4289.7,27.757,0.52512,0.60962,0.35024,0.050716,0.12416,2.0768,-0.20499,-1.0033e-4,0,0,0,0,-0.0015882,0.0075855,6.2992,201.06,84.239,-7.6769e-5,NaN,14.888,1011.2,340.32,0.05,0.014781
0.66125,20.286,63.807,86.635,64.115,86.923,2.077,1.5138e-5,2.077,4.1759e-4,6.2779,7.078,28.61,-80.6,9.7921,8.1505,0,-0.0041238,1.3033e-7,39114,10878,59.637,0.29867,93.5,93.387,0.017983,0.1931,15720574,3812.5,31.92,0.52715,0.60134,0.35006,0.052241,0.12485,1.8446,0.034598,-1.1997e-4,0,0,0,0,-0.001399,0.0082207,6.2992,201.06,84.314,-1.1712e-4,NaN,14.868,1010.9,340.31,0.05,0.015088
0.71125,23.585,68.148,26.442,68.469,26.454,2.3996,2.0757e-5,2.3996,4.9562e-4,6.6228,0.81137,28.61,-80.6,9.7921,7.8752,0,-0.0040238,0,39012,10777,59.542,0.29766,93.743,93.289,0.072184,0.20594,16760898,1446.1,36.187,0.52901,0.59963,0.34988,0.053617,0.12551,1.7634,0.12885,-3.2235e-4,0,0,0,0,-0.0011712,0.0087786,6.2992,201.06,84.387,-1.3945e-4,NaN,14.847,1010.5,340.3,0.05,0.015427
0.76125,27.025,69.471,9.6669,69.79,9.6983,2.7317,2.7384e-5,2.7317,5.7435e-4,6.6642,0.78076,28.61,-80.6,9.7921,7.4874,0,-0.0037819,-2.7642e-7,38946,10710,59.48,0.29705,94.088,93.225,0.13709,0.20955,1.705e7,788.58,37.155,0.52954,0.59484,0.34983,0.054006,0.12571,1.6509,0.22772,-2.7814e-4,0,0,0,0,-9.9931e-4,0.0089477,6.2992,201.06,84.457,-1.4376e-4,NaN,14.824,1010.1,340.28,0.05,0.015764
0.81125,30.511,69.955,10.887,70.268,10.904,3.064,3.5041e-5,3.064,6.5526e-4,6.6274,0.60577,28.61,-80.6,9.7921,7.2465,0,-0.0034285,-4.4831e-7,38915,10680,59.454,0.29687,94.308,93.196,0.17638,0.21076,17143124,836.25,37.373,0.52972,0.59173,0.34981,0.054136,0.12577,1.5823,0.27956,-4.1544e-4,0,0,0,0,-8.1192e-4,0.0090087,6.2992,201.06,84.522,-1.0156e-4,NaN,14.802,1009.7,340.27,0.05,0.016516
0.86125,34.022,70.5,12.168,70.807,12.183,3.3946,4.3723e-5,3.3946,7.3798e-4,6.5942,0.60359,28.61,-80.6,9.7921,7.3658,0,-0.0030563,-5.4887e-7,38895,10659,59.438,0.29681,94.2,93.178,0.16214,0.21246,17276143,886.25,38.086,0.52997,0.59365,0.34978,0.054319,0.12587,1.6162,0.26288,3.032e-4,0,0,0,0,-6.3497e-4,0.0090775,6.2992,201.06,84.581,-2.4719e-5,NaN,14.779,1009.3,340.25,0.05,0.016842
0.91125,37.562,71.108,13.45,71.41,13.465,3.7235,5.342e-5,3.7235,8.2201e-4,6.5605,0.64489,28.61,-80.6,9.7921,7.5557,0,-0.0027054,-5.2944e-7,38875,10639,59.421,0.29675,94.03,93.16,0.13806,0.21442,1.743e7,936.25,38.969,0.53026,0.5966,0.34975,0.05453,0.12598,1.6707,0.23093,2.9875e-5,0,0,0,0,-4.8852e-4,0.0091545,6.2992,201.06,84.633,8.4056e-5,NaN,14.756,1008.8,340.24,0.05,0.017183
0.96125,41.135,71.781,14.7,72.077,14.716,4.0506,6.4127e-5,4.0506,9.0709e-4,6.5221,0.70319,28.61,-80.6,9.7921,7.7525,0,-0.002421,-6.5399e-7,38854,10619,59.405,0.29669,93.857,93.142,0.11348,0.21659,17601032,984.98,39.951,0.53058,0.5997,0.34972,0.054764,0.1261,1.7278,0.19643,-2.2415e-4,0,0,0,0,-3.8346e-4,0.0092395,6.2992,201.06,84.679,1.8482e-4,NaN,14.733,1008.4,340.23,0.05,0.017465
1.0113,44.742,72.516,15.077,72.806,15.086,4.3759,7.584e-5,4.3759,9.9301e-4,6.4913,0.54,28.61,-80.6,9.792,7.3616,0,-0.0020614,-5.3383e-7,38832,10596,59.387,0.29663,94.207,93.122,0.17231,0.21845,17745861,1e3,40.273,0.53086,0.59459,0.34969,0.054963,0.1262,1.6152,0.27813,2.7118e-4,0,0,0,0,-2.7334e-4,0.0093327,6.2992,201.06,84.719,2.9075e-4,NaN,14.709,1008,340.21,0.05,0.017739
1.0613,48.387,73.27,15.081,73.555,15.094,4.6997,8.8558e-5,4.6997,0.0010796,6.4615,0.6198,28.61,-80.6,9.792,7.3722,0,-0.0016523,-4.9692e-7,38799,10563,59.36,0.29653,94.199,93.092,0.17566,0.22071,17923897,1e3,41.131,0.5312,0.59511,0.34966,0.055208,0.12633,1.6183,0.28493,2.089e-4,0,0,0,0,-1.7205e-4,0.0094283,6.2992,201.06,84.753,3.93e-4,NaN,14.685,1007.6,340.2,0.05,0.018019
1.1113,52.069,74.025,15.085,74.304,15.093,5.022,1.0228e-4,5.022,0.0011669,6.4329,0.50009,28.61,-80.6,9.792,7.014,0,-0.0011736,-6.2498e-7,38758,10522,59.327,0.29641,94.53,93.056,0.23408,0.22266,18076726,1e3,41.521,0.53149,0.59052,0.34963,0.055419,0.12645,1.5173,0.35499,3.9331e-4,0,0,0,0,-8.5284e-5,0.0095241,6.2992,201.06,84.778,5.1492e-4,NaN,14.662,1007.1,340.18,0.05,0.018289
1.1613,55.789,74.78,15.087,75.054,15.09,5.3432,1.1701e-4,5.3432,0.0012548,6.4136,0.3059,28.61,-80.6,9.792,6.5242,0,-5.5897e-4,-4.3862e-7,38717,10482,59.294,0.29629,95,93.019,0.31451,0.22452,18221704,1e3,41.749,0.53177,0.58422,0.3496,0.055619,0.12655,1.383,0.43485,-4.3802e-4,0,0,0,0,-1.903e-5,0.00962,6.2992,201.06,84.794,6.2652e-4,NaN,14.637,1006.7,340.17,0.05,0.018554
1.2113,59.547,75.534,15.092,75.805,15.094,5.6635,1.3276e-4,5.6635,0.0013431,6.3994,0.23201,28.61,-80.6,9.792,6.2784,0,1.4342e-4,-2.7256e-7,38676,10441,59.261,0.29617,95.245,92.983,0.35914,0.22659,18383942,1e3,42.293,0.53208,0.58132,0.34956,0.055844,0.12667,1.3171,0.47327,-9.9196e-5,0,0,0,0,1.23e-6,0.009716,6.2992,201.06,84.798,6.8673e-4,NaN,14.613,1006.3,340.15,0.05,0.018825
1.2613,63.343,76.29,15.093,76.557,15.093,5.9833,1.4951e-4,5.9833,0.0014317,6.3934,0.0077544,28.61,-80.6,9.792,5.7545,0,9.4214e-4,-6.5846e-7,38636,10400,59.228,0.29605,95.783,92.946,0.45036,0.22846,18529321,1e3,42.498,0.53237,0.57488,0.34953,0.056046,0.12679,1.1803,0.53184,-4.7811e-4,0,0,0,0,5.222e-5,0.0098121,6.2992,201.06,84.788,7.6944e-4,NaN,14.588,1005.8,340.14,0.05,0.01916
1.3113,67.176,77.045,15.094,77.31,15.095,6.303,1.6727e-4,6.303,0.0015205,6.3983,0.19347,28.61,-80.6,9.792,5.2877,0,0.0018315,-5.3671e-7,38595,10359,59.194,0.29594,96.285,92.909,0.53587,0.23039,1.868e7,1e3,42.792,0.53266,0.56942,0.3495,0.056255,0.1269,1.0625,0.56908,4.236e-4,0,0,0,0,1.9406e-4,0.0099084,6.2992,201.06,84.763,8.7235e-4,NaN,14.563,1005.4,340.12,0.05,0.019454
1.3613,71.047,77.8,15.095,78.064,15.1,6.6232,1.8605e-4,6.6232,0.0016095,6.4118,0.36325,28.61,-80.6,9.792,4.899,0,0.0027808,-6.3068e-7,38554,10319,59.161,0.29582,96.72,92.872,0.61082,0.23241,18836573,1e3,43.196,0.53297,0.56515,0.34947,0.056473,0.12702,0.96738,0.59089,-2.9758e-4,0,0,0,0,4.3968e-4,0.010005,6.2992,201.06,84.722,9.9589e-4,NaN,14.538,1004.9,340.11,0.05,0.019725
1.4113,74.956,78.555,15.096,78.818,15.106,6.9444,2.0587e-4,6.9444,0.0016985,6.4357,0.54887,28.61,-80.6,9.7919,4.4948,0,0.0037749,-4.3132e-7,38514,10278,59.128,0.2957,97.19,92.835,0.69128,0.23442,18993552,1e3,43.599,0.53327,0.56091,0.34944,0.056692,0.12714,0.87128,0.60166,3.6074e-5,0,0,0,0,7.9645e-4,0.010101,6.2992,201.06,84.663,0.0011069,NaN,14.513,1004.5,340.09,0.05,0.020011
1.4613,78.903,79.31,15.104,79.573,15.112,7.2668,2.2673e-4,7.2668,0.0017877,6.4621,0.48344,28.61,-80.6,9.7919,4.622,0,0.0047993,-8.1787e-7,38473,10237,59.094,0.29558,97.042,92.798,0.67371,0.23684,19182412,1e3,44.624,0.53364,0.56271,0.3494,0.056954,0.12729,0.90126,0.60608,-2.9248e-4,0,0,0,0,0.0012614,0.010198,6.2992,201.06,84.586,0.0012385,NaN,14.487,1004,340.08,0.05,0.020226
1.5113,82.887,80.066,15.117,80.328,15.12,7.5905,2.4866e-4,7.5905,0.001877,6.4818,0.29605,28.61,-80.6,9.7919,4.991,0,0.0058493,-6.7647e-7,38432,10196,59.061,0.29546,96.621,92.761,0.61269,0.23946,19387839,1e3,45.972,0.53405,0.56737,0.34935,0.057239,0.12745,0.98981,0.60413,-3.1072e-4,0,0,0,0,0.0018331,0.010295,6.2992,201.06,84.49,0.0013786,NaN,14.461,1003.5,340.06,0.05,0.02039
1.5613,86.909,80.823,15.128,81.083,15.129,7.9148,2.7167e-4,7.9148,0.0019666,6.4915,0.15439,28.61,-80.6,9.7919,5.2652,0,0.006914,-8.6722e-7,38391,10156,59.027,0.29534,96.317,92.724,0.57047,0.24204,1.959e7,1e3,47.253,0.53444,0.57106,0.34931,0.057519,0.12762,1.0572,0.60077,-4.4231e-4,0,0,0,0,0.002507,0.010391,6.2992,201.06,84.375,0.0015155,NaN,14.435,1003.1,340.05,0.05,0.020592
1.6113,90.969,81.58,15.129,81.839,15.132,8.2397,2.9578e-4,8.2397,0.0020568,6.5033,0.28516,28.61,-80.6,9.7919,5.052,0,0.0080139,-4.7433e-7,38351,10115,58.993,0.29522,96.555,92.687,0.61419,0.24425,19762235,1e3,47.914,0.53479,0.56887,0.34927,0.05776,0.12776,1.0047,0.61376,2.5654e-4,0,0,0,0,0.0033076,0.010488,6.2992,201.06,84.241,0.0016311,NaN,14.409,1002.6,340.03,0.05,0.02079
1.6613,95.067,82.337,15.136,82.594,15.139,8.5652,3.2101e-4,8.5652,0.0021474,6.5167,0.25574,28.61,-80.6,9.7919,5.1435,0,0.0091469,-6.0246e-7,38310,10074,58.96,0.2951,96.455,92.649,0.60419,0.24674,19955928,1e3,48.999,0.53517,0.57037,0.34923,0.058031,0.12791,1.0272,0.61647,-2.0291e-5,0,0,0,0,0.0042231,0.010585,6.2992,201.06,84.087,0.0017286,NaN,14.382,1002.1,340.01,0.05,0.021181
1.7113,99.203,83.094,15.138,83.351,15.142,8.8913,3.4738e-4,8.8913,0.0022385,6.5302,0.35664,28.61,-80.6,9.7919,5.0193,0,0.010311,-8.8972e-7,38269,10033,58.926,0.29498,96.596,92.612,0.63243,0.24906,20136624,1e3,49.807,0.53554,0.56928,0.34919,0.058284,0.12806,0.99688,0.6252,-3.0773e-4,0,0,0,0,0.005267,0.010681,6.2992,201.06,83.912,0.0018719,NaN,14.355,1001.6,340,0.05,0.021423
1.7613,103.38,83.851,15.128,84.107,15.144,9.2185,3.7491e-4,9.2185,0.0023302,6.5586,0.70914,28.61,-80.6,9.7919,4.4707,0,0.011517,-3.6886e-7,38228,9992.7,58.892,0.29486,97.23,92.574,0.73912,0.25105,20289483,1e3,50.051,0.53585,0.56335,0.34915,0.0585,0.12819,0.86594,0.6334,5.9622e-5,0,0,0,0,0.0064685,0.010778,6.2992,201.06,83.715,0.001968,NaN,14.328,1001.1,339.98,0.05,0.021679
1.8113,107.59,84.608,15.129,84.865,15.149,9.5473,4.0363e-4,9.5473,0.0024223,6.5948,0.78375,28.61,-80.6,9.7918,4.4348,0,0.012754,-7.4293e-7,38188,9951.9,58.858,0.29474,97.275,92.537,0.75214,0.25348,20478518,1e3,51.002,0.53623,0.56336,0.34911,0.058766,0.12835,0.8576,0.63708,-1.9586e-4,0,0,0,0,0.0077816,0.010875,6.2992,201.06,83.497,0.0020496,NaN,14.301,1000.6,339.97,0.05,0.022064
1.8613,111.84,85.365,15.115,85.623,15.156,9.8781,4.3358e-4,9.8781,0.0025149,6.6417,1.1036,28.61,-80.6,9.7918,3.9827,0,0.014009,-1.1234e-7,38147,9911.2,58.824,0.29462,97.826,92.499,0.84562,0.25558,2.064e7,1e3,51.416,0.53656,0.55892,0.34907,0.058995,0.12849,0.75401,0.62861,-2.4102e-4,0,0,0,0,0.0092365,0.010972,6.2992,201.06,83.256,0.0021166,NaN,14.273,1000.1,339.95,0.05,0.022416
1.9113,116.12,86.121,15.095,86.381,15.168,10.212,4.6477e-4,10.212,0.0026077,6.7065,1.4842,28.61,-80.6,9.7918,3.4341,0,0.015247,-2.9145e-7,38106,9870.5,58.79,0.2945,98.528,92.461,0.9631,0.25761,20796864,1e3,51.746,0.53688,0.55394,0.34904,0.059218,0.12863,0.63321,0.59902,1.3843e-4,0,0,0,0,0.010769,0.01107,6.2992,201.06,82.993,0.0021592,NaN,14.245,999.63,339.93,0.05,0.022777
1.9613,120.45,86.875,15.075,87.14,15.184,10.549,4.9726e-4,10.549,0.0027008,6.7894,1.8147,28.61,-80.6,9.7918,2.991,0,0.016433,1.3415e-7,38065,9829.7,58.756,0.29439,99.125,92.423,1.0638,0.25975,20961581,1e3,52.249,0.53722,0.55043,0.349,0.059452,0.12877,0.53959,0.56131,-2.0558e-4,0,0,0,0,0.012306,0.011167,6.2992,201.06,82.707,0.0022043,NaN,14.217,999.12,339.91,0.05,0.023131
2.0113,124.81,87.629,15.054,87.899,15.199,10.891,5.3106e-4,10.891,0.0027938,6.8869,2.0978,28.61,-80.6,9.7918,2.6544,0,0.017567,2.808e-7,38025,9789,58.722,0.29427,99.597,92.385,1.1448,0.26199,21134310,1e3,52.907,0.53758,0.54814,0.34896,0.059697,0.12892,0.47083,0.52521,4.7875e-4,0,0,0,0,0.013824,0.011264,6.2992,201.06,82.401,0.0021966,NaN,14.189,998.61,339.9,0.05,0.02347
2.0613,129.21,88.381,15.026,88.658,15.221,11.238,5.6621e-4,11.238,0.0028867,7.0003,2.4331,28.61,-80.6,9.7918,2.2324,0,0.018619,6.7329e-7,37984,9748.2,58.687,0.29415,100.21,92.347,1.2486,0.26418,21302129,1e3,53.509,0.53792,0.54554,0.34892,0.059936,0.12907,0.38748,0.46852,3.8046e-4,0,0,0,0,0.015275,0.011362,6.2992,201.06,82.075,0.0021964,NaN,14.16,998.1,339.88,0.05,0.023806
2.1113,133.65,89.132,14.994,89.417,15.245,11.591,6.0274e-4,11.591,0.0029793,7.1301,2.7566,28.61,-80.6,9.7918,1.8468,0,0.019561,4.8199e-7,37943,9707.5,58.653,0.29403,100.8,92.309,1.3479,0.2664,21472992,1e3,54.19,0.53828,0.54358,0.34887,0.06018,0.12923,0.31414,0.40707,4.58e-4,0,0,0,0,0.016582,0.011459,6.2992,201.06,81.732,0.0022263,NaN,14.131,997.58,339.86,0.05,0.02415
2.1613,138.13,89.882,14.956,90.176,15.274,11.951,6.4069e-4,11.951,0.0030715,7.2762,3.1015,28.61,-80.6,9.7918,1.4285,0,0.020372,1.452e-7,37902,9666.8,58.618,0.29391,101.47,92.271,1.4596,0.26861,21642083,1e3,54.887,0.53863,0.54186,0.34883,0.060422,0.12938,0.23758,0.32866,3.3563e-4,0,0,0,0,0.017693,0.011557,6.2992,201.06,81.372,0.0023188,NaN,14.102,997.05,339.84,0.05,0.024534
2.2113,142.64,90.629,14.9,90.934,15.318,12.319,6.8014e-4,12.319,0.0031633,7.4419,3.553,28.61,-80.6,9.7917,0.78565,0,0.020966,1.1938e-6,37862,9626,58.584,0.29379,102.55,92.233,1.6377,0.27063,21796356,1e3,55.492,0.53896,0.53996,0.34879,0.060644,0.12952,0.12611,0.18779,-2.1637e-4,0,0,0,0,0.018463,0.011654,6.2992,201.06,81,0.0024505,NaN,14.073,996.52,339.83,0.05,0.024857
2.2613,147.19,91.372,14.826,91.69,15.376,12.696,7.2118e-4,12.696,0.0032546,7.6338,4.0746,28.61,-80.6,9.7917,0.045544,0,-0.02112,4.8633e-5,37821,9585.3,58.549,0.29367,103.9,92.195,1.8582,0.2725,21938307,1e3,56.16,0.53926,0.53927,0.34876,0.060849,0.12965,0.0070054,0.031288,5.1761e-5,0,0,0,0,-0.018481,0.011752,6.2992,201.06,80.62,0.0025608,NaN,14.043,995.99,339.81,0.05,0.025167
2.3113,151.78,92.113,14.78,92.446,15.406,13.083,7.639e-4,13.083,0.0033455,7.845,4.3478,28.61,-80.6,9.7917,0.30013,0,-0.02095,8.1068e-6,37780,9544.5,58.515,0.29355,103.42,92.156,1.7888,0.27482,22116215,1e3,57.145,0.53964,0.53979,0.34871,0.061105,0.12982,0.04686,0.10132,-4.2384e-4,0,0,0,0,-0.01788,0.011849,6.2992,201.06,80.241,0.0026976,NaN,14.013,995.45,339.79,0.05,0.025595
2.3612,156.4,92.851,14.745,93.201,15.428,13.481,8.084e-4,13.481,0.0034359,8.0666,4.539,28.61,-80.6,9.7917,0.36344,0,-0.020713,5.3966e-6,37739,9503.8,58.48,0.29343,103.31,92.118,1.7768,0.2773,22306158,1e3,58.197,0.54004,0.54026,0.34867,0.061377,0.13,0.056958,0.1181,-1.7285e-4,0,0,0,0,-0.01717,0.011946,6.2992,201.06,79.866,0.0029057,NaN,13.983,994.91,339.77,0.05,0.025859
2.4112,161.06,93.587,14.686,93.955,15.467,13.89,8.5483e-4,13.89,0.0035262,8.3018,4.8518,28.61,-80.6,9.7917,0.69025,0,-0.020322,3.507e-6,37699,9463.1,58.445,0.29331,102.72,92.079,1.6899,0.27955,22477811,1e3,59.214,0.54041,0.54119,0.34862,0.061625,0.13016,0.11022,0.20268,3.2099e-4,0,0,0,0,-0.016264,0.012043,6.2992,201.06,79.497,0.0031239,NaN,13.953,994.36,339.75,0.05,0.026068
2.4612,165.76,94.321,14.64,94.708,15.495,14.311,9.0332e-4,14.311,0.0036165,8.5504,5.0764,28.61,-80.6,9.7917,0.82454,0,-0.019787,2.3761e-6,37658,9422.3,58.41,0.29319,102.49,92.04,1.659,0.28195,22661458,1e3,60.283,0.5408,0.54191,0.34857,0.061889,0.13033,0.13268,0.23498,6.1533e-5,0,0,0,0,-0.01516,0.012141,6.2992,201.06,79.135,0.0033328,NaN,13.923,993.81,339.74,0.05,0.026338
2.5112,170.49,95.052,14.594,95.46,15.523,14.745,9.5403e-4,14.745,0.0037071,8.8088,5.2891,28.61,-80.6,9.7917,0.93819,0,-0.019196,2.0127e-6,37617,9381.6,58.375,0.29307,102.3,92.002,1.6343,0.28436,22845774,1e3,61.366,0.54119,0.54262,0.34853,0.062155,0.13051,0.15195,0.2627,-6.6482e-5,0,0,0,0,-0.014028,0.012238,6.2992,201.06,78.784,0.0035366,NaN,13.892,993.25,339.72,0.05,0.026588
2.5612,175.26,95.78,14.51,96.21,15.581,15.192,0.0010071,15.192,0.0037982,9.0829,5.6785,28.61,-80.6,9.7916,1.3956,0,-0.018417,1.5439e-6,37576,9340.8,58.34,0.29295,101.53,91.963,1.5194,0.28645,23003685,1e3,62.466,0.54154,0.54464,0.34848,0.062386,0.13067,0.23182,0.36464,-1.8372e-4,0,0,0,0,-0.012726,0.012335,6.2992,201.06,78.446,0.0037286,NaN,13.861,992.69,339.7,0.05,0.026809
2.6112,180.07,96.504,14.422,96.959,15.643,15.654,0.0010627,15.654,0.0038898,9.3774,6.0579,28.61,-80.6,9.7916,1.8168,0,-0.017369,1.6536e-6,37536,9300.1,58.305,0.29284,100.87,91.924,1.4194,0.28854,23161706,1e3,63.626,0.54188,0.54706,0.34844,0.062617,0.13082,0.30872,0.44916,4.3748e-4,0,0,0,0,-0.011157,0.012431,6.2992,201.06,78.123,0.0038897,NaN,13.83,992.13,339.68,0.05,0.027024
2.6612,184.91,97.224,14.377,97.706,15.67,16.13,0.001121,16.13,0.0039821,9.6847,6.2338,28.61,-80.6,9.7916,1.8736,0,-0.016204,1.2434e-6,37495,9259.4,58.27,0.29272,100.78,91.885,1.412,0.29093,23343799,1e3,64.734,0.54228,0.54777,0.34839,0.062881,0.131,0.31936,0.46049,2.3645e-4,0,0,0,0,-0.0095522,0.012528,6.2992,201.06,77.821,0.004026,NaN,13.798,991.56,339.66,0.05,0.027417
2.7112,189.79,97.943,14.334,98.452,15.696,16.622,0.0011822,16.622,0.0040749,10.001,6.3972,28.61,-80.6,9.7916,1.9228,0,-0.014982,1.439e-6,37454,9218.6,58.235,0.2926,100.71,91.846,1.4065,0.29332,23524785,1e3,65.842,0.54267,0.54845,0.34835,0.063145,0.13118,0.32861,0.47031,-2.4337e-4,0,0,0,0,-0.0080348,0.012625,6.2992,201.06,77.54,0.004158,NaN,13.766,990.99,339.64,0.05,0.027771
2.7612,194.71,98.659,14.307,99.198,15.709,17.13,0.0012463,17.13,0.0041684,10.323,6.4886,28.61,-80.6,9.7916,1.8644,0,-0.013757,1.2134e-6,37414,9177.9,58.2,0.29248,100.8,91.807,1.4273,0.29579,23712607,1e3,66.928,0.54309,0.54854,0.34829,0.063418,0.13137,0.31767,0.46018,3.3666e-4,0,0,0,0,-0.0066627,0.012721,6.2992,201.06,77.281,0.004299,NaN,13.734,990.41,339.62,0.05,0.028072
2.8112,199.66,99.374,14.267,99.943,15.733,17.655,0.0013135,17.655,0.0042627,10.652,6.6314,28.61,-80.6,9.7916,1.9095,0,-0.012493,9.6818e-7,37373,9137.1,58.164,0.29236,100.73,91.767,1.4228,0.29814,23890582,1e3,68.037,0.54348,0.54919,0.34824,0.063679,0.13156,0.32616,0.46959,1.1967e-4,0,0,0,0,-0.0054084,0.012818,6.2992,201.06,77.045,0.0044258,NaN,13.702,989.83,339.6,0.05,0.028295
2.8612,204.65,100.09,14.238,100.69,15.747,18.196,0.0013839,18.196,0.0043578,10.984,6.7269,28.61,-80.6,9.7915,1.8914,0,-0.011242,8.9634e-7,37332,9096.4,58.129,0.29224,100.76,91.728,1.4339,0.30054,24071971,1e3,69.133,0.54388,0.54949,0.34819,0.063945,0.13174,0.32278,0.4673,-3.498e-4,0,0,0,0,-0.0043103,0.012914,6.2992,201.06,76.832,0.0045337,NaN,13.67,989.25,339.58,0.05,0.028537
2.9112,209.67,100.8,14.14,101.43,15.823,18.753,0.0014577,18.753,0.0044537,11.331,7.1021,28.61,-80.6,9.7915,2.3359,0,-0.0098059,1.7352e-6,37291,9055.6,58.093,0.29212,100.09,91.689,1.3341,0.30242,24211910,1e3,70.356,0.5442,0.5526,0.34815,0.064154,0.13189,0.40804,0.54781,-4.2153e-4,0,0,0,0,-0.0032393,0.013011,6.2992,201.06,76.642,0.0046653,NaN,13.637,988.66,339.56,0.05,0.02878
2.9612,214.73,101.5,14.129,102.17,15.824,19.329,0.001535,19.329,0.0045502,11.688,7.1259,28.61,-80.6,9.7915,2.235,0,-0.0082768,2.0137e-6,37251,9014.9,58.058,0.292,100.24,91.649,1.3644,0.30484,24394234,1e3,71.407,0.54461,0.55233,0.3481,0.064422,0.13208,0.38841,0.53239,2.4134e-4,0,0,0,0,-0.0022717,0.013107,6.2992,201.06,76.479,0.0048305,NaN,13.604,988.07,339.54,0.05,0.029011
3.0112,219.82,102.21,14.139,102.92,15.809,19.922,0.001616,19.922,0.0046476,12.042,7.072,28.61,-80.6,9.7915,2.0336,0,-0.006814,1.8636e-6,37210,8974.2,58.022,0.29188,100.55,91.61,1.4191,0.30735,24583754,1e3,72.432,0.54503,0.55149,0.34805,0.064701,0.13228,0.34973,0.49804,1.3959e-4,0,0,0,0,-0.0015148,0.013204,6.2992,201.06,76.343,0.0049982,NaN,13.571,987.47,339.52,0.05,0.029259
3.0612,224.95,102.92,14.123,103.66,15.816,20.533,0.0017007,20.533,0.0047458,12.398,7.1197,28.61,-80.6,9.7915,2.0091,0,-0.0053538,9.3797e-7,37169,8933.4,57.986,0.29176,100.59,91.57,1.4317,0.30964,24755793,1e3,73.505,0.54542,0.55173,0.348,0.064956,0.13246,0.3451,0.49478,-4.1897e-4,0,0,0,0,-9.2145e-4,0.0133,6.2992,201.06,76.234,0.0051273,NaN,13.538,986.87,339.5,0.05,0.029494
3.1112,230.11,103.63,14.148,104.41,15.789,21.162,0.0017894,21.162,0.0048448,12.751,7.0093,28.61,-80.6,9.7915,1.7597,0,-0.0039753,7.2485e-7,37128,8892.7,57.95,0.29164,100.98,91.53,1.4995,0.31217,24946503,1e3,74.532,0.54585,0.55075,0.34794,0.065238,0.13267,0.29831,0.44799,9.0036e-6,0,0,0,0,-4.9988e-4,0.013397,6.2992,201.06,76.15,0.0052142,NaN,13.504,986.26,339.48,0.05,0.029719
3.1612,235.31,104.33,14.136,105.15,15.795,21.808,0.0018821,21.808,0.0049447,13.102,7.0474,28.61,-80.6,9.7915,1.7567,0,-0.0026277,1.1766e-6,37088,8851.9,57.914,0.29152,100.98,91.49,1.5069,0.31439,25112475,1e3,75.601,0.54623,0.55112,0.3479,0.065485,0.13285,0.29779,0.44935,-2.1424e-4,0,0,0,0,-2.1536e-4,0.013494,6.2992,201.06,76.091,0.005302,NaN,13.47,985.65,339.46,0.05,0.03001
3.2112,240.54,105.04,14.149,105.9,15.781,22.472,0.0019788,22.472,0.0050453,13.455,6.9897,28.61,-80.6,9.7914,1.6246,0,-0.0012831,6.7571e-7,37047,8811.2,57.878,0.29141,101.19,91.45,1.5467,0.31674,25288357,1e3,76.649,0.54663,0.55084,0.34784,0.065747,0.13304,0.27347,0.42308,4.5023e-4,0,0,0,0,-5.0595e-5,0.013591,6.2992,201.06,76.055,0.0053858,NaN,13.436,985.04,339.44,0.05,0.030267
3.2612,245.81,105.75,14.188,106.65,15.745,23.153,0.0020797,23.153,0.0051465,13.799,6.8262,28.61,-80.6,9.7914,1.3485,0,-9.8329e-5,2.1489e-7,37006,8770.5,57.842,0.29129,101.64,91.41,1.6241,0.31926,25476896,1e3,77.702,0.54706,0.55,0.34779,0.066028,0.13325,0.22365,0.36345,-2.8018e-4,0,0,0,0,-2.9252e-7,0.013688,6.2992,201.06,76.043,0.0054118,NaN,13.402,984.42,339.42,0.05,0.030568
3.3112,251.12,106.46,14.166,107.39,15.761,23.852,0.0021848,23.852,0.0052481,14.143,6.9089,28.61,-80.6,9.7914,1.4614,0,0.0011001,-4.9382e-7,36965,8729.7,57.806,0.29117,101.46,91.37,1.6016,0.32127,25624929,1e3,78.754,0.54741,0.55084,0.34774,0.066252,0.13342,0.24388,0.39079,-2.4437e-4,0,0,0,0,3.6162e-5,0.013785,6.2992,201.06,76.052,0.0054153,NaN,13.368,983.8,339.4,0.05,0.030858
3.3612,256.46,107.17,14.192,108.14,15.739,24.568,0.002294,24.568,0.00535,14.486,6.8048,28.61,-80.6,9.7914,1.3076,0,0.002293,-4.1078e-8,36925,8689,57.77,0.29105,101.71,91.33,1.6482,0.32358,25797182,1e3,79.804,0.54781,0.55058,0.34769,0.066511,0.13361,0.21641,0.35606,4.6075e-4,0,0,0,0,1.5489e-4,0.013883,6.2992,201.06,76.083,0.0054059,NaN,13.333,983.17,339.38,0.05,0.031454
3.4112,261.83,107.88,14.217,108.89,15.717,25.3,0.0024074,25.3,0.0054518,14.823,6.7012,28.61,-80.6,9.7914,1.1696,0,0.0033675,-3.8124e-7,36884,8648.2,57.734,0.29093,101.94,91.29,1.6913,0.32586,25966177,1e3,80.858,0.54821,0.55043,0.34764,0.066765,0.1338,0.19211,0.3243,-1.6895e-4,0,0,0,0,3.2945e-4,0.01398,6.2992,201.06,76.134,0.0053815,NaN,13.298,982.54,339.36,0.05,0.031827
3.4612,267.25,108.59,14.216,109.64,15.719,26.05,0.0025249,26.05,0.0055535,15.16,6.7062,28.61,-80.6,9.7914,1.2062,0,0.0044753,2.2569e-8,36843,8607.5,57.697,0.29081,101.88,91.249,1.6883,0.32789,26115206,1e3,81.889,0.54856,0.55093,0.34759,0.066993,0.13398,0.19855,0.33464,-3.7189e-4,0,0,0,0,5.7473e-4,0.014078,6.2992,201.06,76.204,0.0053729,NaN,13.263,981.91,339.34,0.05,0.03235
3.5112,272.69,109.3,14.272,110.39,15.672,26.816,0.0026466,26.816,0.0056548,15.489,6.4741,28.61,-80.6,9.7913,0.9065,0,0.0054388,7.9385e-7,36802,8566.8,57.661,0.29069,102.39,91.209,1.7757,0.33034,26297084,1e3,82.972,0.54899,0.55034,0.34753,0.067267,0.13419,0.14677,0.26015,-1.0628e-4,0,0,0,0,8.3643e-4,0.014175,6.2992,201.06,76.294,0.0054238,NaN,13.227,981.27,339.31,0.05,0.03265
3.5612,278.18,110.02,14.297,111.15,15.652,27.599,0.0027724,27.599,0.0057556,15.811,6.3701,28.61,-80.6,9.7913,0.80796,0,0.0062877,1.146e-6,36762,8526,57.624,0.29057,102.57,91.168,1.8095,0.33251,26456799,1e3,84.028,0.54937,0.55045,0.34748,0.06751,0.13437,0.1301,0.23427,7.5552e-5,0,0,0,0,0.0011035,0.014273,6.2992,201.06,76.4,0.0055336,NaN,13.192,980.62,339.29,0.05,0.03292
3.6112,283.7,110.73,14.35,111.9,15.61,28.397,0.0029024,28.397,0.005856,16.123,6.1434,28.61,-80.6,9.7913,0.53814,0,0.0069443,9.6492e-7,36721,8485.3,57.588,0.29045,103.05,91.127,1.8921,0.33489,26633529,1e3,85.155,0.54979,0.55027,0.34743,0.067778,0.13458,0.085345,0.16009,-2.1653e-4,0,0,0,0,0.0013271,0.014371,6.2992,201.06,76.519,0.0056755,NaN,13.156,979.98,339.27,0.05,0.033202
3.6612,289.25,111.45,14.382,112.66,15.584,29.211,0.0030366,29.211,0.0059561,16.427,6.0027,28.61,-80.6,9.7913,0.40421,0,0.0074398,1.4589e-6,36680,8444.5,57.551,0.29033,103.29,91.087,1.9374,0.3371,26795081,1e3,86.248,0.55017,0.55045,0.34738,0.068025,0.13477,0.063621,0.12165,4.4611e-4,0,0,0,0,0.0015036,0.014469,6.2992,201.06,76.649,0.0058371,NaN,13.12,979.33,339.25,0.05,0.033516
3.7112,294.84,112.17,14.433,113.41,15.542,30.04,0.0031751,30.04,0.006056,16.722,5.766,28.61,-80.6,9.7913,0.13301,0,0.0077401,1.1235e-6,36639,8403.8,57.514,0.29021,103.8,91.046,2.024,0.33948,26971027,1e3,87.442,0.55059,0.55062,0.34732,0.068293,0.13498,0.020611,0.039746,3.8714e-4,0,0,0,0,0.0016048,0.014567,6.2992,201.06,76.786,0.0060367,NaN,13.084,978.67,339.23,0.05,0.033813
3.7612,300.47,112.9,14.495,114.17,15.491,30.883,0.003318,30.883,0.0061558,17.002,5.4647,28.61,-80.6,9.7913,0.22969,0,-0.0076555,-1.8635e-6,36599,8363.1,57.477,0.29009,103.62,91.005,2.0022,0.34201,27157795,1e3,88.77,0.55104,0.55113,0.34726,0.068577,0.13521,0.035796,0.073264,9.0839e-5,0,0,0,0,-0.001547,0.014666,6.2992,201.06,76.925,0.0062284,NaN,13.047,978.01,339.21,0.05,0.033991
3.8112,306.13,113.62,14.523,114.93,15.467,31.74,0.0034654,31.74,0.0062556,17.272,5.3209,28.61,-80.6,9.7912,0.35042,0,-0.0073166,-1.6656e-6,36558,8322.3,57.44,0.28997,103.4,90.964,1.9737,0.34421,27318563,1e3,89.938,0.55143,0.55164,0.34721,0.068824,0.1354,0.054997,0.10997,-3.236e-4,0,0,0,0,-0.0013952,0.014764,6.2992,201.06,77.06,0.0063789,NaN,13.01,977.35,339.18,0.05,0.03425
3.8612,311.83,114.35,14.543,115.69,15.45,32.61,0.0036172,32.61,0.0063555,17.536,5.2147,28.61,-80.6,9.7912,0.41812,0,-0.0068938,-1.0806e-6,36517,8281.6,57.403,0.28986,103.27,90.923,1.9609,0.34635,27474121,1e3,91.074,0.55181,0.55211,0.34715,0.069065,0.13559,0.065884,0.13036,-1.4931e-4,0,0,0,0,-0.0012236,0.014862,6.2992,201.06,77.188,0.0064535,NaN,12.973,976.68,339.16,0.05,0.034471
3.9112,317.57,115.08,14.566,116.45,15.429,33.493,0.0037736,33.493,0.0064553,17.792,5.0866,28.61,-80.6,9.7912,0.51819,0,-0.0063202,-1.2324e-6,36476,8240.8,57.366,0.28974,103.1,90.882,1.9391,0.34855,27634393,1e3,92.264,0.55221,0.55266,0.3471,0.069313,0.13579,0.082129,0.16062,-1.4127e-4,0,0,0,0,-0.0010156,0.014961,6.2992,201.06,77.307,0.0064933,NaN,12.936,976,339.14,0.05,0.034952
3.9612,323.34,115.81,14.555,117.2,15.437,34.389,0.0039344,34.389,0.006555,18.049,5.1429,28.61,-80.6,9.7912,0.3725,0,-0.0058412,-2.6133e-6,36436,8200.1,57.329,0.28962,103.36,90.84,1.9879,0.35042,27767795,1e3,93.21,0.55254,0.55278,0.34705,0.069524,0.13596,0.05855,0.11735,2.0169e-4,0,0,0,0,-8.584e-4,0.015059,6.2992,201.06,77.416,0.0065412,NaN,12.898,975.33,339.12,0.05,0.035118
4.0112,329.15,116.54,14.573,117.96,15.419,35.298,0.0040996,35.298,0.0066545,18.302,5.0356,28.61,-80.6,9.7912,0.45367,0,-0.0053038,-2.2487e-6,36395,8159.4,57.292,0.2895,103.22,90.799,1.9714,0.35262,27927514,1e3,94.406,0.55294,0.55328,0.347,0.069772,0.13616,0.071649,0.14184,1.4175e-4,0,0,0,0,-6.9898e-4,0.015157,6.2992,201.06,77.517,0.0066232,NaN,12.861,974.65,339.09,0.05,0.035291
4.0612,334.99,117.26,14.556,118.72,15.43,36.219,0.0042693,36.219,0.0067535,18.558,5.1218,28.61,-80.6,9.7911,0.28057,0,-0.0049316,-4.2411e-6,36354,8118.6,57.255,0.28938,103.54,90.757,2.0286,0.35447,28059465,1e3,95.355,0.55327,0.5534,0.34695,0.069982,0.13633,0.043874,0.08948,2.634e-4,0,0,0,0,-5.9809e-4,0.015256,6.2992,201.06,77.608,0.0067162,NaN,12.823,973.96,339.07,0.05,0.035546
4.1112,340.87,117.99,14.614,119.48,15.376,37.154,0.0044434,37.154,0.0068522,18.805,4.7819,28.61,-80.6,9.7911,0.67023,0,-0.0043405,-1.9463e-6,36314,8077.9,57.217,0.28926,102.83,90.716,1.9238,0.35714,28255138,1e3,96.917,0.55375,0.5545,0.34689,0.070283,0.13658,0.10718,0.20668,-3.8918e-4,0,0,0,0,-4.5649e-4,0.015354,6.2992,201.06,77.693,0.0068122,NaN,12.784,973.27,339.05,0.05,0.035855
4.1612,346.79,118.73,14.642,120.24,15.347,38.1,0.0046219,38.1,0.0069506,19.039,4.5978,28.61,-80.6,9.7911,0.85145,0,-0.0034013,-1.315e-6,36273,8037.1,57.18,0.28914,102.52,90.674,1.8805,0.35954,2.843e7,1e3,98.312,0.55419,0.55539,0.34683,0.070554,0.1368,0.13757,0.2592,1.7064e-4,0,0,0,0,-2.7662e-4,0.015452,6.2992,201.06,77.763,0.0068759,NaN,12.746,972.58,339.02,0.05,0.036127
4.2112,352.74,119.46,14.645,121,15.338,39.057,0.0048049,39.057,0.0070486,19.269,4.5599,28.61,-80.6,9.7911,0.85896,0,-0.0023858,-9.5523e-7,36232,7996.4,57.142,0.28902,102.51,90.632,1.8854,0.36172,28586423,1e3,99.51,0.55458,0.55581,0.34677,0.070801,0.13701,0.13886,0.26227,-2.801e-4,0,0,0,0,-1.3448e-4,0.015551,6.2992,201.06,77.815,0.0069463,NaN,12.707,971.88,339,0.05,0.036286
4.2612,358.74,120.19,14.669,121.76,15.311,40.027,0.0049923,40.027,0.0071462,19.492,4.3873,28.61,-80.6,9.7911,1.0338,0,-0.0012245,-1.3872e-6,36191,7955.6,57.105,0.2889,102.21,90.59,1.8449,0.36417,28764745,1e3,100.97,0.55503,0.5568,0.34671,0.071079,0.13724,0.16877,0.31116,3.0849e-4,0,0,0,0,-3.4955e-5,0.015649,6.2992,201.06,77.848,0.0070195,NaN,12.668,971.18,338.98,0.05,0.03648
4.3112,364.76,120.93,14.673,122.52,15.297,41.007,0.0051841,41.007,0.0072434,19.709,4.3253,28.61,-80.6,9.7911,1.0859,0,1.0018e-4,-1.3741e-6,36151,7914.9,57.067,0.28878,102.13,90.549,1.838,0.36649,28931460,1e3,102.29,0.55545,0.5574,0.34665,0.071341,0.13746,0.17781,0.32702,-1.0427e-4,0,0,0,0,2.3105e-7,0.015747,6.2992,201.06,77.858,0.0071279,NaN,12.629,970.47,338.95,0.05,0.036752
4.3612,370.83,121.66,14.644,123.28,15.308,41.998,0.0053804,41.998,0.0073403,19.929,4.46,28.61,-80.6,9.791,0.92457,0,0.0013501,-7.9197e-7,36110,7874.2,57.029,0.28866,102.4,90.506,1.8886,0.36851,29075212,1e3,103.32,0.55582,0.55725,0.3466,0.071571,0.13765,0.15005,0.283,-8.9369e-5,0,0,0,0,4.1511e-5,0.015845,6.2992,201.06,77.844,0.0072289,NaN,12.59,969.76,338.93,0.05,0.036962
4.4112,376.93,122.39,14.618,124.04,15.315,43,0.0055812,43,0.0074368,20.154,4.5662,28.61,-80.6,9.791,0.80704,0,0.0024765,-1.6449e-6,36069,7833.4,56.991,0.28854,102.61,90.464,1.928,0.37063,29226069,1e3,104.45,0.55621,0.5573,0.34654,0.071811,0.13786,0.13013,0.25043,-2.4474e-4,0,0,0,0,1.3809e-4,0.015943,6.2992,201.06,77.81,0.0073701,NaN,12.55,969.04,338.9,0.05,0.037197
4.4612,383.07,123.12,14.58,124.8,15.33,44.013,0.0057866,44.013,0.0075329,20.388,4.7355,28.61,-80.6,9.791,0.6266,0,0.0034083,-1.7501e-6,36028,7792.7,56.953,0.28842,102.93,90.422,1.9854,0.37268,29371012,1e3,105.52,0.55659,0.55725,0.34649,0.072044,0.13806,0.10002,0.19819,-4.7912e-4,0,0,0,0,2.5874e-4,0.016042,6.2992,201.06,77.757,0.0075871,NaN,12.51,968.32,338.88,0.05,0.037349
4.5112,389.24,123.85,14.561,125.56,15.33,45.038,0.0059967,45.038,0.0076287,20.626,4.7943,28.61,-80.6,9.791,0.58265,0,0.0042213,-1.9601e-6,35988,7751.9,56.915,0.28831,103.01,90.38,2.005,0.37495,29533171,1e3,106.79,0.55701,0.55758,0.34643,0.072302,0.13828,0.092778,0.18533,4.3633e-4,0,0,0,0,3.9215e-4,0.01614,6.2992,201.06,77.688,0.0078348,NaN,12.47,967.6,338.86,0.05,0.037503
4.5612,395.45,124.58,14.541,126.31,15.328,46.076,0.0062117,46.076,0.0077243,20.867,4.8465,28.61,-80.6,9.791,0.55378,0,0.0050191,-2.7096e-6,35947,7711.2,56.877,0.28819,103.06,90.337,2.0203,0.37727,29698416,1e3,108.1,0.55744,0.55796,0.34637,0.072565,0.1385,0.088045,0.17758,-1.8192e-4,0,0,0,0,5.4769e-4,0.016238,6.2992,201.06,77.605,0.0081313,NaN,12.43,966.87,338.83,0.05,0.037655
4.6112,401.7,125.3,14.504,127.07,15.339,47.125,0.0064318,47.125,0.0078199,21.113,4.9924,28.61,-80.6,9.7909,0.42498,0,0.0056991,-2.8677e-6,35906,7670.5,56.839,0.28807,103.3,90.295,2.0644,0.37944,29852759,1e3,109.31,0.55784,0.55815,0.34631,0.072813,0.13872,0.067078,0.13737,-4.5827e-4,0,0,0,0,6.9816e-4,0.016336,6.2992,201.06,77.508,0.0084711,NaN,12.389,966.14,338.81,0.05,0.037813
4.6612,407.98,126.03,14.468,127.83,15.35,48.187,0.0066572,48.187,0.0079156,21.365,5.1286,28.61,-80.6,9.7909,0.31357,0,0.0062487,-3.7179e-6,35865,7629.7,56.8,0.28795,103.51,90.252,2.104,0.38166,3.001e7,1e3,110.56,0.55825,0.55842,0.34625,0.073066,0.13894,0.049181,0.10249,3.0422e-4,0,0,0,0,8.2972e-4,0.016434,6.2992,201.06,77.4,0.0088138,NaN,12.348,965.4,338.78,0.05,0.038056
4.7112,414.3,126.75,14.419,128.58,15.37,49.262,0.0068883,49.262,0.0080116,21.628,5.3227,28.61,-80.599,9.7909,0.13999,0,0.0065445,-3.5125e-6,35825,7589,56.762,0.28783,103.83,90.209,2.1624,0.38379,30159445,1e3,111.76,0.55865,0.55868,0.34619,0.073308,0.13915,0.021737,0.046131,1.9645e-4,0,0,0,0,9.002e-4,0.016532,6.2992,201.06,77.285,0.0091883,NaN,12.307,964.66,338.76,0.05,0.038269
4.7612,420.66,127.47,14.416,129.34,15.349,50.35,0.0071252,50.35,0.0081081,21.893,5.2696,28.61,-80.599,9.7909,0.25363,0,0.0068233,-6.12e-6,35784,7548.2,56.723,0.28771,103.62,90.167,2.136,0.38636,30343985,1e3,113.29,0.55913,0.55924,0.34612,0.073602,0.13941,0.039649,0.083968,3.5585e-4,0,0,0,0,9.6568e-4,0.01663,6.2992,201.06,77.165,0.0095556,NaN,12.266,963.91,338.73,0.05,0.038422
4.8112,427.05,128.2,14.424,130.1,15.319,51.451,0.0073683,51.451,0.0082053,22.153,5.1589,28.61,-80.599,9.7909,0.42897,0,0.0073595,-5.8338e-6,35743,7507.5,56.685,0.28759,103.3,90.124,2.0922,0.38906,30537904,1e3,114.94,0.55964,0.55995,0.34605,0.07391,0.13968,0.067749,0.14075,-2.8175e-4,0,0,0,0,0.001108,0.016728,6.2992,201.06,77.037,0.0098746,NaN,12.224,963.16,338.71,0.05,0.038571
4.8612,433.48,128.92,14.401,130.85,15.314,52.565,0.0076178,52.565,0.0083033,22.412,5.2094,28.61,-80.599,9.7908,0.42908,0,0.0080322,-4.797e-6,35702,7466.8,56.646,0.28747,103.31,90.081,2.0994,0.39151,30711502,1e3,116.39,0.5601,0.56041,0.34598,0.07419,0.13993,0.067775,0.14103,1.3883e-4,0,0,0,0,0.0013036,0.016826,6.2992,201.06,76.899,0.010073,NaN,12.182,962.41,338.68,0.05,0.038776
4.9112,439.94,129.64,14.352,131.6,15.329,53.692,0.0078739,53.692,0.0084023,22.677,5.3869,28.61,-80.599,9.7908,0.29798,0,0.0086057,-6.5765e-6,35662,7426,56.608,0.28735,103.55,90.038,2.1448,0.39375,30869144,1e3,117.69,0.56052,0.56068,0.34592,0.074447,0.14016,0.046718,0.098809,4.015e-4,0,0,0,0,0.0014796,0.016924,6.2992,201.06,76.749,0.010206,NaN,12.14,961.65,338.66,0.05,0.038942
4.9612,446.44,130.35,14.291,132.36,15.354,54.833,0.0081367,54.833,0.0085021,22.952,5.6121,28.61,-80.599,9.7908,0.11918,0,0.0089279,-1.4194e-5,35621,7385.3,56.569,0.28723,103.88,89.994,2.2051,0.39592,31020706,1e3,118.96,0.56093,0.56096,0.34586,0.074695,0.14038,0.018494,0.039512,-1.1373e-4,0,0,0,0,0.0015753,0.017022,6.2992,201.06,76.591,0.010387,NaN,12.098,960.89,338.63,0.05,0.039095
5.0112,452.98,131.07,14.237,133.11,15.373,55.988,0.0084065,55.988,0.0086028,23.238,5.8002,28.61,-80.599,9.7908,0.016998,0,-0.0090033,-7.7934e-5,35580,7344.5,56.53,0.28711,104.08,89.951,2.2431,0.39817,31177329,1e3,120.3,0.56136,0.56136,0.3458,0.074952,0.14061,0.0026222,0.0074839,-8.5597e-5,0,0,0,0,-0.0015843,0.017119,6.2992,201.06,76.429,0.010553,NaN,12.056,960.12,338.6,0.05,0.0393
5.0612,459.55,131.78,14.164,133.86,15.408,57.157,0.0086833,57.157,0.0087044,23.533,6.065,28.61,-80.599,9.7908,0.23212,0,-0.0088349,-2.7563e-6,35539,7303.8,56.491,0.28699,103.68,89.908,2.1861,0.40026,31322542,1e3,121.58,0.56176,0.56185,0.34574,0.075192,0.14083,0.036264,0.081018,3.9799e-5,0,0,0,0,-0.0015098,0.017217,6.2992,201.06,76.268,0.010692,NaN,12.013,959.35,338.58,0.05,0.039551
5.1112,466.15,132.48,14.064,134.61,15.47,58.342,0.0089674,58.342,0.0088066,23.849,6.444,28.61,-80.599,9.7907,0.55875,0,-0.0080836,9.1884e-7,35499,7263.1,56.452,0.28687,103.08,89.864,2.0987,0.40215,31450583,1e3,122.8,0.56212,0.56265,0.34569,0.075408,0.14102,0.088952,0.18811,-1.9113e-4,0,0,0,0,-0.0012524,0.017315,6.2992,201.06,76.115,0.010832,NaN,11.97,958.58,338.55,0.05,0.03972
5.1612,472.8,133.19,14.07,135.36,15.434,59.542,0.0092589,59.542,0.0089096,24.167,6.3425,28.61,-80.599,9.7907,0.39388,0,-0.0073275,-1.1928e-6,35458,7222.3,56.413,0.28676,103.39,89.821,2.1535,0.40483,31640722,1e3,124.4,0.56263,0.5629,0.34561,0.075716,0.14131,0.062124,0.13455,-2.4586e-4,0,0,0,0,-0.0010156,0.017413,6.2992,201.06,75.976,0.010962,NaN,11.927,957.8,338.53,0.05,0.039878
5.2112,479.47,133.89,14.023,136.11,15.449,60.758,0.0095579,60.758,0.0090132,24.488,6.4837,28.61,-80.599,9.7907,0.48225,0,-0.0065598,3.7668e-8,35417,7181.6,56.373,0.28664,103.23,89.777,2.1354,0.40706,31795285,1e3,125.79,0.56306,0.56346,0.34555,0.075972,0.14154,0.076456,0.16445,-3.5468e-4,0,0,0,0,-8.0518e-4,0.01751,6.2992,201.06,75.851,0.011043,NaN,11.883,957.02,338.5,0.05,0.04008
5.2612,486.19,134.59,14.008,136.86,15.435,61.991,0.0098646,61.991,0.0091174,24.813,6.4807,28.61,-80.599,9.7907,0.43121,0,-0.0057505,3.3716e-7,35376,7140.8,56.334,0.28652,103.32,89.733,2.1575,0.40951,31966318,1e3,127.29,0.56353,0.56385,0.34548,0.076254,0.1418,0.068172,0.14811,2.649e-4,0,0,0,0,-6.1148e-4,0.017608,6.2992,201.06,75.741,0.011153,NaN,11.84,956.23,338.47,0.05,0.040255
5.3112,492.93,135.29,14.021,137.61,15.396,63.24,0.010179,63.24,0.0092223,25.134,6.3597,28.61,-80.599,9.7907,0.26935,0,-0.005123,-5.1733e-7,35336,7100.1,56.294,0.2864,103.62,89.689,2.2122,0.41214,32151255,1e3,128.9,0.56404,0.56416,0.3454,0.076556,0.14208,0.042192,0.093923,2.2853e-4,0,0,0,0,-4.7922e-4,0.017705,6.2992,201.06,75.643,0.011285,NaN,11.796,955.44,338.45,0.05,0.040431
5.3612,499.71,135.99,14.025,138.35,15.365,64.504,0.010501,64.504,0.0093277,25.449,6.276,28.61,-80.599,9.7906,0.1497,0,-0.0047887,-4.1709e-6,35295,7059.4,56.255,0.28628,103.85,89.645,2.2551,0.41469,3.233e7,1e3,130.48,0.56453,0.56457,0.34533,0.07685,0.14236,0.023291,0.053019,-3.8027e-4,0,0,0,0,-4.1365e-4,0.017803,6.2992,201.06,75.554,0.011375,NaN,11.752,954.64,338.42,0.05,0.040583
5.4112,506.53,136.69,13.962,139.1,15.395,65.785,0.010831,65.785,0.0094338,25.768,6.4844,28.61,-80.599,9.7906,0.32166,0,-0.0043647,-1.9022e-6,35254,7018.6,56.215,0.28616,103.53,89.601,2.2117,0.41669,32466560,1e3,131.77,0.56492,0.5651,0.34527,0.077081,0.14257,0.05055,0.11257,4.5841e-4,0,0,0,0,-3.4039e-4,0.0179,6.2992,201.06,75.471,0.011366,NaN,11.708,953.88,338.39,0.05,0.040733
5.4612,513.38,137.39,13.894,139.85,15.432,67.081,0.01117,67.081,0.0095402,26.099,6.7163,28.61,-80.599,9.7906,0.51382,0,-0.0035704,-1.8913e-7,35214,6977.9,56.176,0.28604,103.19,89.557,2.1636,0.41863,32597738,1e3,133.04,0.5653,0.56575,0.34521,0.077304,0.14278,0.08165,0.1769,2.7266e-4,0,0,0,0,-2.2571e-4,0.017997,6.2992,201.06,75.399,0.01131,NaN,11.663,953.11,338.37,0.05,0.040883
5.5112,520.27,138.08,13.868,140.59,15.431,68.394,0.011516,68.394,0.0096468,26.436,6.7669,28.61,-80.599,9.7906,0.53714,0,-0.002586,-1.3198e-6,35173,6937.1,56.136,0.28592,103.15,89.512,2.1644,0.42084,3.275e7,1e3,134.45,0.56573,0.56623,0.34515,0.077559,0.14302,0.085477,0.18488,2.9347e-4,0,0,0,0,-1.1719e-4,0.018095,6.2992,201.06,75.344,0.011226,NaN,11.618,952.34,338.34,0.05,0.041184
5.5612,527.19,138.78,13.867,141.34,15.408,69.725,0.011869,69.725,0.0097534,26.774,6.7177,28.61,-80.599,9.7906,0.47432,0,-0.0016306,-2.4177e-6,35132,6896.4,56.096,0.2858,103.26,89.468,2.1899,0.42317,32911602,1e3,135.92,0.56618,0.56657,0.34508,0.077829,0.14328,0.075218,0.1645,4.1812e-5,0,0,0,0,-4.6085e-5,0.018192,6.2992,201.06,75.306,0.01104,NaN,11.573,951.57,338.31,0.05,0.041365
5.6112,534.15,139.47,13.864,142.08,15.388,71.072,0.01223,71.072,0.0098597,27.108,6.6775,28.61,-80.599,9.7905,0.42681,0,-8.0489e-4,-1.8818e-6,35091,6855.6,56.056,0.28568,103.35,89.423,2.2112,0.42545,33068728,1e3,137.37,0.56663,0.56695,0.34501,0.078092,0.14353,0.067508,0.14883,3.2763e-4,0,0,0,0,-1.1111e-5,0.018289,6.2992,201.06,75.284,0.010855,NaN,11.528,950.79,338.28,0.05,0.041737
5.6612,541.14,140.16,13.828,142.83,15.4,72.436,0.012599,72.436,0.0099656,27.446,6.7777,28.61,-80.599,9.7905,0.51376,0,1.3882e-4,-1.951e-6,35051,6814.9,56.016,0.28556,103.2,89.379,2.1937,0.42745,33203245,1e3,138.67,0.56702,0.56748,0.34495,0.078323,0.14375,0.081672,0.17941,-6.9664e-5,0,0,0,0,3.2749e-7,0.018386,6.2992,201.06,75.278,0.010683,NaN,11.483,950.01,338.26,0.05,0.041942
5.7112,548.16,140.86,13.85,143.57,15.36,73.816,0.012974,73.816,0.010071,27.781,6.643,28.61,-80.599,9.7905,0.39387,0,0.0010373,-2.3826e-6,35010,6774.2,55.976,0.28544,103.42,89.334,2.2358,0.4298,33365400,1e3,140.16,0.56749,0.56776,0.34488,0.078595,0.14401,0.062193,0.13868,4.8027e-4,0,0,0,0,1.8087e-5,0.018484,6.2992,201.06,75.289,0.010581,NaN,11.437,949.23,338.23,0.05,0.042096
5.7612,555.22,141.55,13.876,144.31,15.317,75.214,0.013357,75.214,0.010175,28.109,6.4851,28.61,-80.599,9.7905,0.25932,0,0.0016789,-3.4177e-6,34969,6733.4,55.936,0.28533,103.67,89.289,2.2827,0.43217,33527990,1e3,141.66,0.56795,0.56807,0.34481,0.078869,0.14428,0.040635,0.092803,3.1065e-4,0,0,0,0,4.6874e-5,0.018581,6.2992,201.06,75.314,0.010502,NaN,11.391,948.44,338.2,0.05,0.042332
5.8112,562.32,142.25,13.893,145.06,15.283,76.627,0.013746,76.627,0.010278,28.432,6.3687,28.61,-80.599,9.7904,0.16717,0,0.0021417,-6.3655e-6,34928,6692.7,55.895,0.28521,103.84,89.244,2.3175,0.43444,33682827,1e3,143.13,0.5684,0.56845,0.34474,0.079132,0.14454,0.026059,0.060002,2.9964e-4,0,0,0,0,7.5497e-5,0.018678,6.2992,201.06,75.348,0.010433,NaN,11.345,947.65,338.17,0.05,0.042536
5.8612,569.45,142.94,13.936,145.8,15.225,78.057,0.014142,78.057,0.010381,28.744,6.1303,28.61,-80.599,9.7904,0.032328,0,-0.0022665,-3.2153e-5,34888,6651.9,55.855,0.28509,104.1,89.199,2.3657,0.43691,33853554,1e3,144.76,0.5689,0.5689,0.34466,0.07942,0.14482,0.0050005,0.011657,-2.8041e-5,0,0,0,0,-8.3613e-5,0.018775,6.2992,201.06,75.389,0.010399,NaN,11.299,946.85,338.15,0.05,0.04273
5.9112,576.61,143.64,13.968,146.55,15.178,79.501,0.014544,79.501,0.010482,29.046,5.9393,28.61,-80.599,9.7904,0.18453,0,-0.0020491,-5.5611e-6,34847,6611.2,55.814,0.28497,103.82,89.154,2.3277,0.43931,34017659,1e3,146.37,0.56937,0.56943,0.34459,0.079698,0.14509,0.0288,0.067132,3.7953e-4,0,0,0,0,-6.761e-5,0.018872,6.2992,201.06,75.428,0.010401,NaN,11.252,946.05,338.12,0.05,0.043032
5.9612,583.81,144.34,14.009,147.29,15.123,80.961,0.014953,80.961,0.010582,29.337,5.698,28.61,-80.599,9.7904,0.3757,0,-0.0014397,-2.6182e-6,34806,6570.5,55.774,0.28485,103.47,89.109,2.2793,0.44181,3.419e7,1e3,148.09,0.56987,0.57012,0.34451,0.079989,0.14538,0.059295,0.13497,-4.69e-4,0,0,0,0,-3.3003e-5,0.018969,6.2992,201.06,75.46,0.010462,NaN,11.205,945.24,338.09,0.05,0.043228
6.0112,591.05,145.04,14.017,148.03,15.095,82.435,0.015368,82.435,0.010681,29.618,5.6007,28.61,-80.599,9.7904,0.44433,0,-5.1689e-4,-7.2587e-7,34765,6529.7,55.733,0.28473,103.35,89.064,2.2672,0.4441,34344646,1e3,149.65,0.57033,0.57068,0.34444,0.080255,0.14564,0.07041,0.15952,3.8916e-4,0,0,0,0,-4.211e-6,0.019065,6.2992,201.06,75.478,0.010498,NaN,11.158,944.44,338.06,0.05,0.043496
6.0612,598.32,145.74,13.99,148.78,15.094,83.923,0.015789,83.923,0.01078,29.901,5.6653,28.61,-80.599,9.7903,0.38336,0,3.2635e-4,-4.1597e-7,34725,6489,55.692,0.28461,103.46,89.018,2.2925,0.44615,34481038,1e3,150.99,0.57074,0.571,0.34437,0.080494,0.14588,0.060544,0.13927,-2.9375e-4,0,0,0,0,1.6635e-6,0.019162,6.2992,201.06,75.479,0.010547,NaN,11.111,943.62,338.03,0.05,0.043716
6.1112,605.62,146.44,14.013,149.52,15.05,85.425,0.016217,85.425,0.010877,30.179,5.4887,28.61,-80.599,9.7903,0.52501,0,0.0013684,-8.4961e-7,34684,6448.2,55.651,0.28449,103.21,88.972,2.2595,0.44867,34652557,1e3,152.76,0.57125,0.57173,0.34429,0.080786,0.14617,0.083597,0.1888,2.1644e-4,0,0,0,0,2.8925e-5,0.019259,6.2992,201.06,75.465,0.010637,NaN,11.063,942.81,338,0.05,0.043873
6.1612,612.96,147.14,13.985,150.26,15.045,86.941,0.016651,86.941,0.010973,30.456,5.5487,28.61,-80.599,9.7903,0.48014,0,0.0024676,-2.2439e-6,34643,6407.5,55.61,0.28437,103.29,88.927,2.2801,0.45083,34796788,1e3,154.19,0.57169,0.57209,0.34423,0.081038,0.14642,0.076265,0.17393,-4.4864e-5,0,0,0,0,9.3177e-5,0.019355,6.2992,201.06,75.43,0.010871,NaN,11.016,941.99,337.97,0.05,0.044127
6.2112,620.34,147.84,13.967,151,15.03,88.47,0.017091,88.47,0.011069,30.733,5.5495,28.61,-80.599,9.7903,0.48918,0,0.0035755,-2.8322e-6,34602,6366.8,55.569,0.28425,103.28,88.881,2.2853,0.45315,34952583,1e3,155.78,0.57216,0.57257,0.34415,0.081308,0.14669,0.07775,0.17759,-2.7553e-4,0,0,0,0,1.9367e-4,0.019452,6.2992,201.06,75.376,0.011232,NaN,10.968,941.16,337.95,0.05,0.044464
6.2612,627.75,148.54,13.925,151.74,15.032,90.014,0.017539,90.014,0.011164,31.013,5.664,28.61,-80.599,9.7902,0.41459,0,0.0046084,-1.797e-6,34562,6326,55.528,0.28413,103.41,88.835,2.3145,0.45532,35097209,1e3,157.23,0.5726,0.5729,0.34408,0.081562,0.14695,0.065622,0.15141,-2.5223e-5,0,0,0,0,3.1871e-4,0.019548,6.2992,201.06,75.302,0.011636,NaN,10.92,940.34,337.92,0.05,0.044744
6.3112,635.19,149.23,13.874,152.48,15.04,91.572,0.017994,91.572,0.011258,31.299,5.8069,28.61,-80.599,9.7902,0.32362,0,0.0054755,1.4653e-7,34521,6285.3,55.487,0.28401,103.58,88.789,2.3487,0.45749,35241122,1e3,158.68,0.57304,0.57322,0.34401,0.081816,0.14721,0.050961,0.11903,-3.7871e-4,0,0,0,0,4.4575e-4,0.019644,6.2992,201.06,75.211,0.012002,NaN,10.871,939.5,337.89,0.05,0.044917
6.3612,642.67,149.93,13.812,153.22,15.056,93.144,0.018456,93.144,0.011353,31.595,5.9937,28.61,-80.599,9.7902,0.20261,0,0.0060871,4.9421e-6,34480,6244.5,55.446,0.28389,103.81,88.743,2.3921,0.45962,35381275,1e3,160.11,0.57347,0.57355,0.34395,0.082065,0.14746,0.031687,0.075232,-4.3414e-4,0,0,0,0,5.4589e-4,0.019741,6.2992,201.06,75.106,0.012241,NaN,10.823,938.67,337.86,0.05,0.04512
6.4112,650.18,150.62,13.774,153.96,15.051,94.732,0.018926,94.732,0.011447,31.898,6.0666,28.61,-80.599,9.7902,0.17566,0,0.0065014,3.7783e-6,34439,6203.8,55.404,0.28378,103.86,88.697,2.408,0.46197,35537743,1e3,161.73,0.57395,0.57401,0.34387,0.082339,0.14774,0.027432,0.065755,-5.7032e-5,0,0,0,0,6.1653e-4,0.019837,6.2992,201.06,74.993,0.012469,NaN,10.774,937.83,337.83,0.05,0.045282
6.4612,657.73,151.31,13.757,154.69,15.026,96.334,0.019405,96.334,0.011541,32.198,6.0437,28.61,-80.599,9.7902,0.22664,0,0.0070654,1.364e-6,34399,6163.1,55.363,0.28366,103.77,88.65,2.4008,0.4645,35708700,1e3,163.52,0.57447,0.57456,0.34379,0.082636,0.14805,0.035504,0.084623,3.5984e-4,0,0,0,0,7.2033e-4,0.019933,6.2992,201.06,74.871,0.012733,NaN,10.725,936.99,337.8,0.05,0.045529
6.5112,665.31,151.99,13.666,155.43,15.065,97.952,0.019892,97.952,0.011635,32.509,6.3392,28.61,-80.599,9.7901,0.030881,0,0.0073317,3.1917e-5,34358,6122.3,55.321,0.28354,104.14,88.604,2.4671,0.4665,35838036,1e3,164.87,0.57488,0.57488,0.34372,0.08287,0.14829,0.0047833,0.010968,-3.5008e-4,0,0,0,0,7.6915e-4,0.020029,6.2992,201.06,74.741,0.012985,NaN,10.675,936.14,337.77,0.05,0.045771
