# Time (s),Altitude (m),Vertical velocity (m/s),Vertical acceleration (m/s²),Total velocity (m/s),Total acceleration (m/s²),Position East of launch (m),Position North of launch (m),Lateral distance (m),Lateral direction (°),Lateral velocity (m/s),Lateral acceleration (m/s²),Latitude (°),Longitude (°),Gravitational acceleration (m/s²),Angle of attack (°),Roll rate (r/s),Pitch rate (r/s),Yaw rate (r/s),Mass (g),Propellant mass (g),Longitudinal moment of inertia (kg·m²),Rotational moment of inertia (kg·m²),CP location (in),CG location (in),Stability margin calibers (​),Mach number (​),Reynolds number (​),Thrust (N),Drag force (N),Drag coefficient (​),Axial drag coefficient (​),Friction drag coefficient (​),Pressure drag coefficient (​),Base drag coefficient (​),Normal force coefficient (​),Pitch moment coefficient (​),Yaw moment coefficient (​),Side force coefficient (​),Roll moment coefficient (​),Roll forcing coefficient (​),Roll damping coefficient (​),Pitch damping coefficient (​),Coriolis acceleration (m/s²),Reference length (in),Reference area (cm²),Vertical orientation (zenith) (°),Lateral orientation (azimuth) (°),Wind velocity (m/s),Air temperature (°C),Air pressure (mbar),Speed of sound (m/s),Simulation time step (s),Computation time (s)
0,0,0,-5.6763,0,5.7075,0,0,0,0,0,0.5966,28.61,-80.6,9.7922,90,0,0,0,40581,12346,60.972,0.31372,NaN,94.756,NaN,0.0056646,461973,163.58,0,0.66897,0,0.50677,0.042202,0.12,NaN,NaN,NaN,NaN,NaN,NaN,NaN,NaN,0,6.2992,201.06,84,0,NaN,15,1013.2,340.39,0.01,0.034301
0.01,0,0,61.573,0,61.913,0,0,0,0,0,6.4716,28.61,-80.6,9.7922,90,0,0,0,40581,12346,60.972,0.31372,NaN,94.756,NaN,0.0056464,460487,2907.7,0,0.66932,0,0.50712,0.042202,0.12,NaN,NaN,NaN,NaN,NaN,NaN,NaN,NaN,0,6.2992,201.06,84,0,NaN,15,1013.2,340.39,0.01,0.035142
0.02,0.0030793,0.6159,90.45,0.61929,90.949,3.2365e-4,0,3.2365e-4,0,0.064734,9.5067,28.61,-80.6,9.7922,72.086,0,0,0,40570,12334,60.962,0.31362,NaN,94.746,NaN,0.0059149,482387,4084.9,0.0020794,0.6643,0.041653,0.50209,0.042202,0.12,NaN,NaN,NaN,NaN,NaN,NaN,NaN,NaN,7.942e-5,6.2992,201.06,84,0,NaN,15,1013.2,340.39,0.01,0.035715
0.03,0.013763,1.5208,89.063,1.5292,89.553,0.0014465,0,0.0014465,0,0.15985,9.3609,28.61,-80.6,9.7922,51.312,0,0,0,40549,12313,60.944,0.31341,NaN,94.727,NaN,0.0071871,586138,4026.2,0.022138,0.64402,0.30036,0.48181,0.042202,0.12001,NaN,NaN,NaN,NaN,NaN,NaN,NaN,NaN,1.9611e-4,6.2992,201.06,84,0,NaN,15,1013.2,340.39,0.01,0.036324
0.04,0.033426,2.4119,88.815,2.4252,89.304,0.0035132,0,0.0035132,0,0.2535,9.3348,28.61,-80.6,9.7922,38.125,0,0,0,40525,12290,60.923,0.31317,NaN,94.706,NaN,0.0090571,738644,4013.8,0.063396,0.6215,0.54162,0.45929,0.042203,0.12001,NaN,NaN,NaN,NaN,NaN,NaN,NaN,NaN,3.1102e-4,6.2992,201.06,84,0,NaN,15,1013.2,340.39,0.01,0.036888
0.05,0.061988,3.3005,89.02,3.3187,89.51,0.0065152,0,0.0065152,0,0.3469,9.3564,28.61,-80.6,9.7922,29.754,0,0,0,40502,12266,60.903,0.31293,NaN,94.685,NaN,0.01123,915888,4019.9,0.12065,0.60195,0.67041,0.43973,0.042204,0.12002,NaN,NaN,NaN,NaN,NaN,NaN,NaN,NaN,4.256e-4,6.2992,201.06,84,0,NaN,15,1013.2,340.39,0.01,0.039228
0.06,0.099446,4.1912,89.946,4.2143,90.442,0.010452,0,0.010452,0,0.44051,9.4537,28.61,-80.6,9.7922,24.13,0,0,0,40479,12243,60.882,0.31269,NaN,94.664,NaN,0.013566,1106385,4055.4,0.18997,0.58579,0.72341,0.42356,0.042205,0.12002,NaN,NaN,NaN,NaN,NaN,NaN,NaN,NaN,5.4045e-4,6.2992,201.06,84,0,NaN,14.999,1013.2,340.39,0.01,0.040026
0.07,0.14586,5.0911,91.049,5.1192,91.551,0.01533,0,0.01533,0,0.5351,9.5696,28.61,-80.6,9.7922,20.151,0,0,0,40455,12220,60.861,0.31245,NaN,94.643,NaN,0.01602,1306476,4098,0.26956,0.5723,0.73615,0.41006,0.042207,0.12003,NaN,NaN,NaN,NaN,NaN,NaN,NaN,NaN,6.565e-4,6.2992,201.06,84,0,NaN,14.999,1013.2,340.39,0.01,0.041303
0.08,0.20132,6.0021,92.153,6.0352,92.661,0.02116,0,0.02116,0,0.63085,9.6857,28.61,-80.6,9.7922,17.209,0,0,0,40432,12196,60.84,0.31221,NaN,94.622,NaN,0.018561,1513723,4140.5,0.35842,0.56089,0.72912,0.39864,0.042209,0.12004,NaN,NaN,NaN,NaN,NaN,NaN,NaN,NaN,7.7397e-4,6.2992,201.06,84,0,NaN,14.999,1013.2,340.39,0.01,0.041917
0.09,0.26595,6.9241,93.091,6.9623,93.604,0.027953,0,0.027953,0,0.72776,9.7843,28.61,-80.6,9.7922,14.957,0,0,0,40408,12173,60.82,0.31197,NaN,94.6,NaN,0.021171,1726564,4176.3,0.45396,0.55109,0.70983,0.38882,0.042211,0.12006,NaN,NaN,NaN,NaN,NaN,NaN,NaN,NaN,8.9286e-4,6.2992,201.06,84,0,NaN,14.998,1013.2,340.39,0.01,0.042401
0.1,0.33985,7.8555,93.042,7.8988,93.555,0.03572,0,0.03572,0,0.82565,9.7791,28.61,-80.6,9.7922,13.186,0,0,0,40385,12149,60.799,0.31173,NaN,94.579,NaN,0.023834,1943684,4172,0.55474,0.54258,0.68445,0.3803,0.042213,0.12007,NaN,NaN,NaN,NaN,NaN,NaN,NaN,NaN,0.001013,6.2992,201.06,84,0,NaN,14.998,1013.2,340.39,0.01,0.042657
0.11,0.42306,8.7864,93.331,8.8348,93.845,0.044466,0,0.044466,0,0.92349,9.8095,28.61,-80.6,9.7922,12.01,0,0,0,40361,12125,60.778,0.31148,NaN,94.557,NaN,0.026536,2164061,4181.4,0.66539,0.53511,0.66227,0.3728,0.042216,0.12009,NaN,NaN,NaN,NaN,NaN,NaN,NaN,NaN,0.001133,6.2992,201.06,84,0,NaN,14.997,1013.2,340.39,0.01,0.042904
0.12,0.51559,9.7202,93.864,9.7738,94.381,0.054191,0,0.054191,0,1.0216,9.8655,28.61,-80.6,9.7922,11.049,0,0,0,40337,12101,60.757,0.31124,NaN,94.535,NaN,0.029256,2385857,4200.7,0.78449,0.52851,0.64239,0.36618,0.042219,0.12011,NaN,NaN,NaN,NaN,NaN,NaN,NaN,NaN,0.0012534,6.2992,201.06,84,0,NaN,14.997,1013.2,340.39,0.01,0.043321
0.13,0.61749,10.659,94.398,10.718,94.918,0.064901,0,0.064901,0,1.1203,9.9217,28.61,-80.6,9.7922,10.247,0,0,0,40313,12077,60.735,0.31099,NaN,94.514,NaN,0.031998,2609471,4220,0.9128,0.52261,0.62483,0.36026,0.042223,0.12013,NaN,NaN,NaN,NaN,NaN,NaN,NaN,NaN,0.0013745,6.2992,201.06,84,0,NaN,14.996,1013.2,340.39,0.01,0.043689
0.14,0.72881,11.604,94.933,11.668,95.456,0.076601,0,0.076601,0,1.2196,9.9778,28.61,-80.6,9.7922,9.567,0,0,0,40289,12054,60.714,0.31075,NaN,94.492,NaN,0.034762,2834780,4239.3,1.0507,0.51729,0.60942,0.35491,0.042226,0.12016,NaN,NaN,NaN,NaN,NaN,NaN,NaN,NaN,0.0014963,6.2992,201.06,84,0,NaN,14.995,1013.2,340.39,0.01,0.044056
0.15,0.84959,12.554,95.467,12.623,95.993,0.089296,0,0.089296,0,1.3194,10.034,28.61,-80.6,9.7922,8.9835,0,0,0,40265,12030,60.693,0.3105,NaN,94.47,NaN,0.037544,3061695,4258.5,1.2014,0.51373,0.59736,0.35132,0.04223,0.12018,NaN,NaN,NaN,NaN,NaN,NaN,NaN,NaN,0.0016188,6.2992,201.06,84,0,NaN,14.994,1013.2,340.39,0.01,0.044448
0.16,0.97991,13.509,96.003,13.583,96.531,0.10299,0,0.10299,0,1.4198,10.09,28.61,-80.6,9.7922,8.2946,0,0,0,40241,12006,60.672,0.31025,NaN,94.448,NaN,0.040327,3288604,4277.8,1.3644,0.51376,0.58803,0.35131,0.042235,0.12021,NaN,NaN,NaN,NaN,NaN,NaN,NaN,NaN,0.001742,6.2992,201.06,84,0,NaN,14.994,1013.1,340.39,0.01,0.045397
0.17,1.1198,14.469,96.538,14.549,97.07,0.1177,0,0.1177,0,1.5208,10.147,28.61,-80.6,9.7922,7.6918,0,0,0,40218,11982,60.65,0.31001,NaN,94.426,NaN,0.043131,3517199,4297.1,1.5391,0.51378,0.57989,0.3513,0.042239,0.12024,NaN,NaN,NaN,NaN,NaN,NaN,NaN,NaN,0.0018658,6.2992,201.06,84,0,NaN,14.993,1013.1,340.38,0.01,0.045836
0.18,1.2693,15.435,96.92,15.52,97.454,0.13341,0,0.13341,0,1.6223,10.187,28.61,-80.6,9.7922,7.1602,0,0,0,40194,11958,60.629,0.30976,NaN,94.405,NaN,0.045955,3747408,4310.2,1.7258,0.51381,0.57281,0.35129,0.042244,0.12027,NaN,NaN,NaN,NaN,NaN,NaN,NaN,NaN,0.0019904,6.2992,201.06,84,0,NaN,14.992,1013.1,340.38,0.01,0.046321
0.19,1.4285,16.405,96.684,16.495,97.216,0.15014,0,0.15014,0,1.7242,10.162,28.61,-80.6,9.7922,6.6887,0,0,0,40170,11934,60.607,0.30952,NaN,94.383,NaN,0.048793,3978808,4298.3,1.9246,0.51384,0.56666,0.35128,0.042249,0.12031,NaN,NaN,NaN,NaN,NaN,NaN,NaN,NaN,0.0021154,6.2992,201.06,84,0,NaN,14.991,1013.1,340.38,0.01,0.046725
0.2,1.5974,17.372,96.825,17.468,97.358,0.16789,0,0.16789,0,1.8259,10.177,28.61,-80.6,9.7922,6.2698,0,0,0,40146,11910,60.586,0.30927,NaN,94.361,NaN,0.051628,4209874,4301.6,2.1344,0.51388,0.56132,0.35127,0.042256,0.12035,NaN,NaN,NaN,NaN,NaN,NaN,NaN,NaN,0.0022401,6.2992,201.06,84,0,NaN,14.99,1013.1,340.38,0.01,0.047258
0.21,1.776,18.341,97.182,18.442,97.717,0.18666,0,0.18666,0,1.9277,10.214,28.61,-80.6,9.7922,5.8855,0,0,0,40122,11886,60.565,0.30902,NaN,94.339,NaN,0.054468,4441400,4313.7,2.3555,0.51391,0.55656,0.35126,0.042265,0.12039,NaN,NaN,NaN,NaN,NaN,NaN,NaN,NaN,0.0023651,6.2992,201.06,84,0,NaN,14.988,1013,340.38,0.01,0.050843
0.22,1.9642,19.313,97.54,19.42,98.077,0.20645,0,0.20645,0,2.0299,10.252,28.61,-80.6,9.7922,5.5383,0,0,0,40098,11862,60.543,0.30878,NaN,94.316,NaN,0.057321,4673954,4325.8,2.5891,0.51395,0.55238,0.35125,0.042274,0.12043,NaN,NaN,NaN,NaN,NaN,NaN,NaN,NaN,0.0024904,6.2992,201.06,84,0,NaN,14.987,1013,340.38,0.01,0.051346
0.23,2.1623,20.289,97.897,20.401,98.436,0.22726,0,0.22726,0,2.1325,10.289,28.61,-80.6,9.7922,5.2231,0,0,0,40074,11838,60.522,0.30853,NaN,94.294,NaN,0.060186,4907511,4337.9,2.8354,0.51399,0.54872,0.35124,0.042283,0.12047,NaN,NaN,NaN,NaN,NaN,NaN,NaN,NaN,0.0026163,6.2992,201.06,84,0,NaN,14.986,1013,340.38,0.01,0.052785
0.24,2.37,21.269,98.255,21.386,98.796,0.2491,0,0.2491,0,2.2354,10.327,28.61,-80.6,9.7922,4.9357,0,0,0,40050,11814,60.5,0.30828,NaN,94.272,NaN,0.063063,5142050,4349.9,3.0946,0.51404,0.54549,0.35123,0.042292,0.12052,NaN,NaN,NaN,NaN,NaN,NaN,NaN,NaN,0.0027426,6.2992,201.06,84,0,NaN,14.985,1013,340.38,0.01,0.053934
0.25,2.5877,22.252,98.613,22.374,99.156,0.27197,0,0.27197,0,2.3388,10.365,28.61,-80.6,9.7922,4.6727,0,0,0,40026,11791,60.478,0.30804,NaN,94.25,NaN,0.065953,5377555,4362,3.3669,0.51408,0.54263,0.35122,0.042302,0.12057,NaN,NaN,NaN,NaN,NaN,NaN,NaN,NaN,0.0028694,6.2992,201.06,84,0,NaN,14.983,1012.9,340.38,0.01,0.058798
0.26,2.8151,23.238,98.97,23.366,99.516,0.29588,0,0.29588,0,2.4425,10.402,28.61,-80.6,9.7922,4.5174,0,0,0,40002,11767,60.457,0.30779,NaN,94.228,NaN,0.068862,5614673,4374.1,3.6595,0.51413,0.54101,0.3512,0.042312,0.12062,NaN,NaN,NaN,NaN,NaN,NaN,NaN,NaN,0.0029966,6.2992,201.06,84,0,NaN,14.982,1012.9,340.38,0.01,0.059801
0.27,3.0524,24.229,99.328,24.362,99.875,0.32082,0,0.32082,0,2.5465,10.44,28.61,-80.6,9.7922,4.374,0,0,0,39978,11743,60.435,0.30754,NaN,94.206,NaN,0.071783,5852675,4386.2,3.9657,0.51418,0.53956,0.35119,0.042323,0.12067,NaN,NaN,NaN,NaN,NaN,NaN,NaN,NaN,0.0031243,6.2992,201.06,84,0,NaN,14.98,1012.9,340.38,0.01,0.060101
0.28,3.2997,25.222,99.686,25.361,100.24,0.34681,0,0.34681,0,2.651,10.477,28.61,-80.6,9.7922,4.2412,0,0,0,39954,11719,60.414,0.3073,NaN,94.184,NaN,0.074715,6091558,4398.3,4.2856,0.51423,0.53825,0.35117,0.042333,0.12073,NaN,NaN,NaN,NaN,NaN,NaN,NaN,NaN,0.0032524,6.2992,201.06,84,0,NaN,14.979,1012.9,340.38,0.01,0.060889
0.29,3.5569,26.22,100.04,26.364,100.6,0.37385,0,0.37385,0,2.7558,10.515,28.61,-80.6,9.7922,4.1179,0,0,0,39930,11695,60.392,0.30705,NaN,94.161,NaN,0.077657,6331317,4410.3,4.6194,0.51428,0.53706,0.35116,0.042345,0.12078,NaN,NaN,NaN,NaN,NaN,NaN,NaN,NaN,0.003381,6.2992,201.06,84,0,NaN,14.977,1012.8,340.37,0.01,0.062605
0.3,3.8241,27.221,100.4,27.371,100.95,0.40193,0,0.40193,0,2.861,10.552,28.61,-80.6,9.7922,4.0031,0,0,0,39907,11671,60.37,0.3068,NaN,94.139,NaN,0.08061,6571949,4422.2,4.9673,0.51434,0.53598,0.35114,0.042356,0.12084,NaN,NaN,NaN,NaN,NaN,NaN,NaN,NaN,0.0035101,6.2992,201.06,84,0,NaN,14.975,1012.8,340.37,0.01,0.063087
0.31,4.1013,28.225,100.74,28.381,101.3,0.43107,0,0.43107,0,2.9666,10.588,28.61,-80.6,9.7922,3.8943,0,0,0,39883,11647,60.348,0.30656,NaN,94.117,NaN,0.083574,6813423,4433.7,5.3292,0.5144,0.53498,0.35112,0.042368,0.12091,NaN,NaN,NaN,NaN,NaN,NaN,NaN,NaN,0.0036396,6.2992,201.06,84,0,NaN,14.973,1012.8,340.37,0.01,0.063482
0.32,4.3886,29.233,101.09,29.394,101.64,0.46126,0,0.46126,0,3.0725,10.625,28.61,-80.6,9.7922,3.7925,0,0,0,39859,11623,60.327,0.30631,NaN,94.094,NaN,0.086549,7055736,4445.3,5.7054,0.51446,0.53408,0.3511,0.042381,0.12097,NaN,NaN,NaN,NaN,NaN,NaN,NaN,NaN,0.0037696,6.2992,201.06,84,0,NaN,14.971,1012.7,340.37,0.01,0.063759
0.33,4.686,30.245,101.43,30.411,101.99,0.49252,0,0.49252,0,3.1788,10.661,28.61,-80.6,9.7922,3.6971,0,0,0,39835,11599,60.305,0.30606,NaN,94.072,NaN,0.089533,7298884,4456.9,6.0961,0.51452,0.53325,0.35109,0.042393,0.12104,NaN,NaN,NaN,NaN,NaN,NaN,NaN,NaN,0.0039,6.2992,201.06,84,0,NaN,14.97,1012.7,340.37,0.01,0.065304
0.34,4.9935,31.259,101.59,31.432,102.26,0.52484,0,0.52484,0,3.2855,11.704,28.61,-80.6,9.7922,3.6074,0,0,0,39811,11575,60.283,0.30581,98.217,94.05,0.66159,0.092529,7542866,4462.1,6.5013,0.51459,0.53249,0.35107,0.042406,0.12111,0.66909,0.44301,-1.859e-4,0,0,0,0,0,0.0040309,6.2992,201.06,84,0,NaN,14.968,1012.7,340.37,0.015,0.068496
0.355,5.4739,32.783,101.1,32.965,101.77,0.57544,-2.3479e-5,0.57544,-0.0023378,3.461,11.652,28.61,-80.6,9.7922,3.4611,0,3.6097e-5,-1.3455e-7,39781,11545,60.256,0.30551,98.408,94.022,0.6964,0.097029,7909419,4442.7,7.1325,0.51469,0.53128,0.35104,0.042426,0.12122,0.63742,0.44424,2.5017e-4,0,0,0,0,4.2441e-7,0.0042279,6.2992,201.06,84,9.1744e-4,NaN,14.964,1012.6,340.37,0.0225,0.069243
0.3775,6.2371,35.06,101.35,35.257,102.02,0.65626,-1.4971e-4,0.65626,-0.01307,3.7233,11.675,28.61,-80.6,9.7922,3.2202,0,9.6911e-5,-9.0288e-7,39736,11500,60.215,0.30505,98.73,93.98,0.75404,0.10375,8456713,4451.1,8.1306,0.51522,0.52975,0.35099,0.042829,0.1214,0.58609,0.44178,1.3314e-4,0,0,0,0,2.6756e-6,0.0045222,6.2992,201.06,84,0.0060203,NaN,14.959,1012.5,340.36,0.03375,0.069868
0.41125,7.4782,38.487,101.78,38.706,102.45,0.78858,-5.5394e-4,0.78858,-0.040248,4.1179,11.715,28.61,-80.6,9.7922,2.9258,0,2.0305e-4,-3.4722e-6,39669,11434,60.154,0.30436,99.134,93.917,0.82815,0.11387,9280639,4461.6,9.7727,0.51648,0.52867,0.35091,0.04388,0.12169,0.52479,0.4348,-9.3824e-5,0,0,0,0,9.7506e-6,0.0049652,6.2992,201.06,84,0.023278,NaN,14.951,1012.4,340.36,0.05,0.075167
0.46125,9.53,43.587,102.25,43.84,102.93,1.0091,-0.0016593,1.0091,-0.094212,4.7046,11.757,28.61,-80.6,9.7921,2.5873,0,3.9453e-4,-1.1029e-5,39571,11335,60.063,0.30335,99.615,93.824,0.91939,0.12894,10507021,4470.6,12.514,0.5184,0.52811,0.35078,0.045453,0.12216,0.45625,0.41911,3.1229e-4,0,0,0,0,2.8712e-5,0.0056247,6.2992,201.06,84,0.074145,NaN,14.938,1012.1,340.35,0.05,0.076403
0.51125,11.837,48.712,102.08,48.999,102.75,1.2591,-0.0034034,1.2591,-0.15488,5.2934,11.73,28.61,-80.6,9.7921,2.2411,0,6.2522e-4,-2.52e-5,39453,11218,59.955,0.30214,100.13,93.713,1.0182,0.14408,11738292,4453.6,15.612,0.52038,0.5278,0.35064,0.047041,0.1227,0.38827,0.39479,-7.0528e-5,0,0,0,0,5.7752e-5,0.0062873,6.2992,201.06,83.999,0.16137,NaN,14.923,1011.9,340.34,0.05,0.077139
0.56125,14.401,53.828,100.09,54.148,100.75,1.5384,-0.0057866,1.5384,-0.21551,5.8808,11.511,28.61,-80.6,9.7921,1.9572,0,8.9182e-4,-4.7854e-5,39337,11102,59.847,0.30095,100.56,93.602,1.1049,0.1592,12967042,4365.3,19.068,0.52241,0.52816,0.35048,0.048635,0.12329,0.33414,0.36897,1.8879e-4,0,0,0,0,9.6254e-5,0.0069487,6.2992,201.06,83.999,0.29136,NaN,14.906,1011.6,340.33,0.05,0.077535
0.61125,17.218,58.843,98.399,59.196,99.048,1.8469,-0.0087799,1.8469,-0.27238,6.4572,11.323,28.61,-80.6,9.7921,1.7395,0,0.0011918,-7.8897e-5,39224,10988,59.741,0.29979,100.91,93.493,1.1769,0.17403,14171349,4289.7,22.816,0.52445,0.52905,0.3503,0.050207,0.12394,0.29361,0.34491,6.6839e-5,0,0,0,0,1.4386e-4,0.0075972,6.2992,201.06,83.997,0.46994,NaN,14.888,1011.2,340.32,0.05,0.077888
0.66125,20.283,63.773,86.467,64.159,87.05,2.1839,-0.012335,2.1839,-0.32362,7.0242,10.059,28.61,-80.6,9.7921,1.6145,0,0.0015279,-1.121e-4,39114,10878,59.637,0.29867,101.11,93.387,1.2264,0.18861,15354962,3812.5,26.865,0.5265,0.53051,0.35012,0.051761,0.12462,0.27075,0.33209,-1.0611e-4,0,0,0,0,2.013e-4,0.0082345,6.2992,201.06,83.995,0.70268,NaN,14.868,1010.9,340.31,0.05,0.078272
0.71125,23.58,68.105,26.297,68.519,26.56,2.5476,-0.016427,2.5477,-0.36944,7.5277,3.7284,28.61,-80.6,9.7921,1.5414,0,0.0019097,-1.481e-4,39012,10777,59.542,0.29766,101.24,93.289,1.2616,0.20143,16394061,1446.1,30.717,0.52835,0.53202,0.34994,0.053133,0.12527,0.25753,0.3243,-3.0478e-5,0,0,0,0,2.7574e-4,0.0087946,6.2992,201.06,83.991,0.99626,NaN,14.847,1010.5,340.3,0.05,0.07863
0.76125,27.018,69.421,9.5386,69.849,9.7393,2.9286,-0.021143,2.9287,-0.41364,7.7137,1.9667,28.61,-80.6,9.7921,1.4067,0,0.0022974,-2.3083e-4,38946,10710,59.48,0.29705,101.46,93.225,1.3067,0.20534,16706891,788.58,31.906,0.52892,0.532,0.34989,0.053552,0.12548,0.23335,0.30405,-7.1874e-5,0,0,0,0,3.8406e-4,0.0089663,6.2992,201.06,83.985,1.3555,NaN,14.824,1010.1,340.28,0.05,0.080093
0.81125,30.501,69.899,10.761,70.334,10.961,3.3167,-0.02657,3.3168,-0.45898,7.8109,2.0844,28.61,-80.6,9.7921,1.3785,0,0.0026827,-2.9774e-4,38915,10680,59.454,0.29687,101.5,93.196,1.3186,0.20677,16818555,836.25,32.346,0.52913,0.53209,0.34987,0.053707,0.12556,0.22833,0.30069,3.8509e-5,0,0,0,0,5.1648e-4,0.0090297,6.2992,201.06,83.978,1.7792,NaN,14.802,1009.7,340.27,0.05,0.081088
0.86125,34.009,70.437,12.039,70.88,12.24,3.7098,-0.03269,3.71,-0.50486,7.9143,2.208,28.61,-80.6,9.7921,1.2952,0,0.0030555,-4.0848e-4,38895,10659,59.438,0.29681,101.64,93.178,1.3434,0.20838,16944374,886.25,32.832,0.52937,0.53199,0.34984,0.05388,0.12565,0.21355,0.28636,-1.0367e-4,0,0,0,0,6.5974e-4,0.0091008,6.2992,201.06,83.967,2.2657,NaN,14.779,1009.3,340.25,0.05,0.081564
0.91125,37.546,71.039,13.316,71.491,13.519,4.1082,-0.039392,4.1084,-0.54936,8.0242,2.3342,28.61,-80.6,9.7921,1.2036,0,0.003403,-5.5006e-4,38875,10639,59.421,0.29675,101.79,93.16,1.3705,0.21018,17085410,936.25,33.382,0.52963,0.53191,0.34982,0.054073,0.12574,0.19746,0.26956,1.7647e-4,0,0,0,0,8.0444e-4,0.0091801,6.2992,201.06,83.955,2.8112,NaN,14.756,1008.8,340.24,0.05,0.082015
0.96125,41.115,71.705,14.559,72.166,14.766,4.5123,-0.046559,4.5125,-0.59118,8.1406,2.4614,28.61,-80.6,9.7921,1.224,0,0.0037653,-5.9056e-4,38854,10619,59.405,0.29669,101.76,93.142,1.3682,0.21218,17242610,984.98,34.03,0.52993,0.53228,0.34979,0.054288,0.12585,0.20104,0.27383,3.9626e-4,0,0,0,0,9.6648e-4,0.0092674,6.2992,201.06,83.939,3.4119,NaN,14.733,1008.4,340.23,0.05,0.082499
1.0113,44.718,72.433,14.94,72.903,15.147,4.9223,-0.054128,4.9226,-0.63002,8.2635,2.4995,28.61,-80.6,9.792,1.237,0,0.0041436,-6.3306e-4,38832,10596,59.387,0.29663,101.74,93.122,1.3682,0.21437,17414660,1e3,34.745,0.53025,0.53266,0.34975,0.054524,0.12597,0.20334,0.27698,-7.8342e-5,0,0,0,0,0.0011468,0.0093626,6.2992,201.06,83.92,4.0678,NaN,14.709,1008,340.21,0.05,0.083711
1.0613,48.359,73.18,14.942,73.66,15.15,5.3385,-0.062018,5.3389,-0.66558,8.3885,2.4991,28.61,-80.6,9.792,1.1246,0,0.0044831,-8.559e-4,38799,10563,59.36,0.29653,101.93,93.092,1.4029,0.2166,1.759e7,1e3,35.451,0.53058,0.53258,0.34972,0.054764,0.1261,0.18371,0.25602,-4.133e-4,0,0,0,0,0.001315,0.0094602,6.2992,201.06,83.896,4.778,NaN,14.686,1007.6,340.2,0.05,0.085074
1.1113,52.036,73.928,14.949,74.417,15.157,5.761,-0.070073,5.7614,-0.69687,8.5136,2.5029,28.61,-80.6,9.792,0.98296,0,0.0047559,-0.0012105,38758,10522,59.327,0.29641,102.17,93.056,1.447,0.21882,17765349,1e3,36.159,0.53091,0.53245,0.34969,0.055004,0.12622,0.15933,0.2293,-3.6545e-4,0,0,0,0,0.0014501,0.0095576,6.2992,201.06,83.869,5.5364,NaN,14.662,1007.1,340.18,0.05,0.08567
1.1613,55.751,74.676,14.956,75.174,15.165,6.1897,-0.078098,6.1902,-0.72288,8.6388,2.5118,28.61,-80.6,9.792,0.82809,0,0.0049012,-0.0017614,38717,10482,59.294,0.29629,102.44,93.019,1.4953,0.22105,1.794e7,1e3,36.876,0.53125,0.53235,0.34965,0.055245,0.12635,0.13307,0.19779,-4.2901e-6,0,0,0,0,0.0015093,0.0096548,6.2992,201.06,83.837,6.334,NaN,14.638,1006.7,340.17,0.05,0.086175
1.2113,59.504,75.425,14.961,75.932,15.173,6.6248,-0.085875,6.6253,-0.74267,8.7644,2.5251,28.61,-80.6,9.792,0.71071,0,0.0049155,-0.0023845,38676,10441,59.261,0.29617,102.65,92.983,1.534,0.22329,18115634,1e3,37.612,0.53158,0.5324,0.34962,0.055486,0.12648,0.11346,0.17228,-5.1619e-5,0,0,0,0,0.001488,0.0097517,6.2992,201.06,83.801,7.1599,NaN,14.613,1006.3,340.15,0.05,0.086785
1.2613,63.294,76.173,14.966,76.69,15.181,7.0661,-0.0932,7.0667,-0.75568,8.8905,2.5419,28.61,-80.6,9.792,0.63643,0,0.0048716,-0.0029314,38636,10400,59.228,0.29605,102.78,92.946,1.5609,0.22552,18291184,1e3,38.366,0.53192,0.53258,0.34958,0.055728,0.12661,0.10118,0.15673,7.3651e-4,0,0,0,0,0.0014328,0.0098484,6.2992,201.06,83.76,8.0043,NaN,14.589,1005.8,340.14,0.05,0.087241
1.3113,67.121,76.922,14.97,77.449,15.188,7.5137,-0.099896,7.5144,-0.76171,9.0171,2.5627,28.61,-80.6,9.792,0.57361,0,0.004706,-0.003527,38595,10359,59.194,0.29594,102.89,92.909,1.5848,0.22776,18466726,1e3,39.13,0.53226,0.53279,0.34955,0.055971,0.12674,0.090868,0.14286,9.178e-4,0,0,0,0,0.001311,0.0099448,6.2992,201.06,83.713,8.8592,NaN,14.564,1005.4,340.12,0.05,0.088285
1.3613,70.986,77.671,14.974,78.208,15.196,7.9677,-0.10578,7.9684,-0.76065,9.1444,2.5874,28.61,-80.6,9.792,0.52471,0,0.0044476,-0.0040999,38554,10319,59.161,0.29582,102.98,92.872,1.6048,0.23001,18642298,1e3,39.906,0.5326,0.53305,0.34951,0.056213,0.12688,0.082894,0.13192,0.0010015,0,0,0,0,0.0011483,0.010041,6.2992,201.06,83.662,9.7171,NaN,14.539,1004.9,340.11,0.05,0.088919
1.4113,74.888,78.42,14.977,78.967,15.203,8.4281,-0.1107,8.4288,-0.75251,9.2725,2.6142,28.61,-80.6,9.7919,0.4963,0,0.0043524,-0.0044189,38514,10278,59.128,0.2957,103.03,92.835,1.619,0.23226,18818091,1e3,40.694,0.53294,0.53334,0.34947,0.056457,0.12701,0.078283,0.12545,9.2662e-4,0,0,0,0,0.0010786,0.010137,6.2992,201.06,83.605,10.572,NaN,14.513,1004.5,340.09,0.05,0.089488
1.4613,78.828,79.17,14.979,79.726,15.211,8.8949,-0.11449,8.8957,-0.73743,9.4016,2.6445,28.61,-80.6,9.7919,0.46941,0,0.0042494,-0.0047034,38473,10237,59.094,0.29558,103.08,92.798,1.6329,0.23451,18993867,1e3,41.491,0.53329,0.53365,0.34944,0.056701,0.12715,0.073932,0.12008,0.0010687,0,0,0,0,0.0010086,0.010233,6.2992,201.06,83.544,11.418,NaN,14.488,1004,340.08,0.05,0.090028
1.5113,82.805,79.919,14.982,80.486,15.218,9.3682,-0.11703,9.369,-0.7157,9.5319,2.6727,28.61,-80.6,9.7919,0.47209,0,0.0049289,-0.0042249,38432,10196,59.061,0.29546,103.08,92.761,1.6382,0.23677,1.917e7,1e3,42.303,0.53363,0.534,0.3494,0.056947,0.12729,0.07437,0.12038,0.0011247,0,0,0,0,0.0013313,0.010329,6.2992,201.06,83.478,12.254,NaN,14.462,1003.5,340.06,0.05,0.090466
1.5613,86.82,80.669,14.982,81.245,15.226,9.8481,-0.11821,9.8488,-0.68771,9.6634,2.7147,28.61,-80.6,9.7919,0.41925,0,0.0041908,-0.0051386,38391,10156,59.027,0.29534,103.18,92.724,1.6596,0.23902,19345488,1e3,43.111,0.53398,0.53427,0.34936,0.057191,0.12743,0.065848,0.10858,0.0013961,0,0,0,0,9.4452e-4,0.010425,6.2992,201.06,83.406,13.078,NaN,14.436,1003.1,340.05,0.05,0.09093
1.6113,90.872,81.418,14.983,82.005,15.235,10.335,-0.11786,10.335,-0.65339,9.7964,2.76,28.61,-80.6,9.7919,0.38457,0,0.0032344,-0.0059087,38351,10115,58.993,0.29522,103.24,92.687,1.6759,0.24127,19520633,1e3,43.931,0.53433,0.53457,0.34932,0.057435,0.12757,0.060284,0.10077,0.0019149,0,0,0,0,5.5222e-4,0.01052,6.2992,201.06,83.33,13.886,NaN,14.409,1002.6,340.03,0.05,0.091593
1.6613,94.962,82.168,14.982,82.766,15.243,10.828,-0.11578,10.828,-0.61262,9.9309,2.8108,28.61,-80.6,9.7919,0.36916,0,0.0016905,-0.0065919,38310,10074,58.96,0.2951,103.27,92.649,1.6865,0.24352,19695518,1e3,44.76,0.53467,0.5349,0.34928,0.05768,0.12771,0.05782,0.097135,0.001786,0,0,0,0,1.4808e-4,0.010615,6.2992,201.06,83.25,14.67,NaN,14.383,1002.1,340.01,0.05,0.093264
1.7113,99.089,82.917,14.98,83.526,15.252,11.328,-0.11176,11.328,-0.56529,10.067,2.8685,28.61,-80.6,9.7919,0.39348,0,-3.9616e-4,-0.0068151,38269,10033,58.926,0.29498,103.23,92.612,1.6857,0.24576,1.987e7,1e3,45.599,0.53502,0.53528,0.34925,0.057924,0.12785,0.06172,0.10448,0.0021295,0,0,0,0,-7.9856e-6,0.01071,6.2992,201.06,83.165,15.423,NaN,14.356,1001.6,340,0.05,0.093852
1.7613,103.25,83.667,14.977,84.287,15.261,11.834,-0.10559,11.835,-0.51117,10.205,2.9328,28.61,-80.6,9.7919,0.4674,0,-0.0021894,-0.0064238,38228,9992.7,58.892,0.29486,103.1,92.574,1.6706,0.24801,20044153,1e3,46.453,0.53537,0.53573,0.34921,0.058169,0.128,0.073632,0.12281,0.0015687,0,0,0,0,-2.3953e-4,0.010805,6.2992,201.06,83.077,16.136,NaN,14.329,1001.1,339.98,0.05,0.094455
1.8113,107.46,84.416,14.973,85.047,15.27,12.348,-0.097,12.349,-0.45007,10.346,2.9962,28.61,-80.6,9.7918,0.52913,0,-0.0029772,-0.005992,38188,9951.9,58.858,0.29474,102.99,92.537,1.6591,0.25026,20218558,1e3,47.316,0.53572,0.53618,0.34917,0.058414,0.12814,0.083657,0.13949,0.0018903,0,0,0,0,-4.3503e-4,0.010899,6.2992,201.06,82.987,16.8,NaN,14.302,1000.6,339.97,0.05,0.095082
1.8613,111.7,85.165,14.97,85.808,15.279,12.869,-0.085802,12.869,-0.38201,10.488,3.0545,28.61,-80.6,9.7918,0.54454,0,-0.0032161,-0.0057257,38147,9911.2,58.824,0.29462,102.96,92.499,1.661,0.25252,20393396,1e3,48.184,0.53608,0.53656,0.34913,0.058661,0.12829,0.086173,0.14411,0.0012278,0,0,0,0,-4.9866e-4,0.010993,6.2992,201.06,82.894,17.411,NaN,14.274,1000.2,339.95,0.05,0.095609
1.9113,115.97,85.914,14.966,86.569,15.287,13.397,-0.071832,13.397,-0.30721,10.633,3.1176,28.61,-80.6,9.7918,0.58346,0,-0.0034627,-0.0054025,38106,9870.5,58.79,0.2945,102.89,92.461,1.6562,0.25477,20567838,1e3,49.063,0.53643,0.53699,0.34909,0.058907,0.12844,0.092545,0.15361,0.0015159,0,0,0,0,-5.6793e-4,0.011087,6.2992,201.06,82.799,17.965,NaN,14.246,999.65,339.93,0.05,0.10882
1.9613,120.29,86.662,14.961,87.33,15.296,13.932,-0.05493,13.932,-0.22591,10.781,3.1811,28.61,-80.6,9.7918,0.61766,0,-0.0035814,-0.005117,38065,9829.7,58.756,0.29439,102.83,92.423,1.6528,0.25703,20742184,1e3,49.951,0.53679,0.53741,0.34905,0.059154,0.12859,0.098167,0.16285,0.0016803,0,0,0,0,-5.9695e-4,0.011181,6.2992,201.06,82.704,18.463,NaN,14.218,999.14,339.92,0.05,0.11
2.0113,124.64,87.411,14.955,88.091,15.305,14.474,-0.034929,14.474,-0.13826,10.93,3.2534,28.61,-80.6,9.7918,0.70183,0,-0.0036537,-0.0048025,38025,9789,58.722,0.29427,102.69,92.385,1.6354,0.25928,20915787,1e3,50.854,0.53715,0.53795,0.34901,0.0594,0.12874,0.11208,0.18348,6.5342e-4,0,0,0,0,-6.1062e-4,0.011275,6.2992,201.06,82.609,18.901,NaN,14.19,998.63,339.9,0.05,0.11144
2.0613,129.03,88.159,14.951,88.853,15.313,15.024,-0.011656,15.024,-0.044452,11.083,3.308,28.61,-80.6,9.7918,0.67611,0,-0.003518,-0.004628,37984,9748.2,58.687,0.29415,102.73,92.347,1.6489,0.26155,2.109e7,1e3,51.749,0.53751,0.53825,0.34896,0.059648,0.12889,0.10783,0.17835,8.2572e-4,0,0,0,0,-5.5638e-4,0.011368,6.2992,201.06,82.514,19.277,NaN,14.161,998.12,339.88,0.05,0.1129
2.1113,133.45,88.907,14.945,89.614,15.322,15.581,0.014991,15.581,0.055124,11.239,3.3762,28.61,-80.6,9.7918,0.73427,0,-0.0034043,-0.0044149,37943,9707.5,58.653,0.29403,102.63,92.309,1.639,0.2638,21263928,1e3,52.666,0.53786,0.53874,0.34892,0.059895,0.12905,0.1175,0.19292,7.1567e-4,0,0,0,0,-5.122e-4,0.011461,6.2992,201.06,82.42,19.594,NaN,14.133,997.6,339.86,0.05,0.11463
2.1613,137.92,89.654,14.94,90.376,15.33,16.147,0.04515,16.147,0.16022,11.397,3.4352,28.61,-80.6,9.7918,0.74277,0,-0.0032079,-0.0042474,37902,9666.8,58.618,0.29391,102.62,92.271,1.643,0.26606,21437780,1e3,53.583,0.53823,0.53912,0.34888,0.060143,0.1292,0.11892,0.19599,7.7189e-4,0,0,0,0,-4.4714e-4,0.011554,6.2992,201.06,82.328,19.85,NaN,14.104,997.07,339.85,0.05,0.11501
2.2113,142.42,90.402,14.934,91.137,15.337,16.719,0.078917,16.72,0.27044,11.558,3.4923,28.61,-80.6,9.7917,0.74873,0,-0.0029877,-0.0040969,37862,9626,58.584,0.29379,102.61,92.233,1.6477,0.26833,21611452,1e3,54.507,0.53859,0.5395,0.34884,0.060391,0.12936,0.11992,0.19832,5.4767e-4,0,0,0,0,-3.8139e-4,0.011647,6.2992,201.06,82.239,20.046,NaN,14.074,996.55,339.83,0.05,0.11545
2.2613,146.96,91.148,14.927,91.899,15.346,17.3,0.11639,17.301,0.38545,11.722,3.5614,28.61,-80.6,9.7917,0.82538,0,-0.0026868,-0.0039846,37821,9585.3,58.549,0.29367,102.48,92.195,1.6328,0.27058,21783981,1e3,55.453,0.53895,0.54006,0.3488,0.060638,0.12952,0.13278,0.21679,3.4219e-4,0,0,0,0,-3.0336e-4,0.01174,6.2992,201.06,82.152,20.185,NaN,14.045,996.01,339.81,0.05,0.11747
2.3113,151.53,91.895,14.921,92.661,15.353,17.889,0.15769,17.89,0.50505,11.889,3.6187,28.61,-80.6,9.7917,0.84908,0,-0.0023416,-0.0038897,37780,9544.5,58.515,0.29355,102.44,92.156,1.6327,0.27284,21956892,1e3,56.397,0.53932,0.54049,0.34875,0.060886,0.12968,0.13678,0.22359,6.7499e-4,0,0,0,0,-2.2664e-4,0.011832,6.2992,201.06,82.068,20.262,NaN,14.015,995.48,339.79,0.05,0.11791
2.3612,156.15,92.641,14.914,93.423,15.361,18.486,0.20292,18.487,0.62891,12.059,3.6757,28.61,-80.6,9.7917,0.88287,0,-0.0019456,-0.0038206,37739,9503.8,58.48,0.29343,102.38,92.118,1.6298,0.27509,22129389,1e3,57.351,0.53968,0.54095,0.34871,0.061134,0.12984,0.14251,0.23219,6.9258e-4,0,0,0,0,-1.5393e-4,0.011925,6.2992,201.06,81.989,20.28,NaN,13.985,994.94,339.77,0.05,0.11849
2.4112,160.8,93.387,14.908,94.185,15.368,19.091,0.25216,19.093,0.75673,12.231,3.7331,28.61,-80.6,9.7917,0.93007,0,-0.0014877,-0.0037776,37699,9463.1,58.445,0.29331,102.3,92.079,1.6233,0.27735,22301404,1e3,58.316,0.54005,0.54145,0.34867,0.061382,0.13,0.15053,0.24396,6.0196e-4,0,0,0,0,-8.8555e-5,0.012017,6.2992,201.06,81.914,20.236,NaN,13.955,994.39,339.76,0.05,0.11917
2.4612,165.49,94.133,14.901,94.947,15.375,19.705,0.3055,19.707,0.88824,12.407,3.7878,28.61,-80.6,9.7917,0.97749,0,-9.7062e-4,-0.0037535,37658,9422.3,58.41,0.29319,102.23,92.04,1.6169,0.2796,22473093,1e3,59.29,0.54041,0.54196,0.34862,0.06163,0.13016,0.15864,0.2569,6.2428e-4,0,0,0,0,-3.7093e-5,0.01211,6.2992,201.06,81.845,20.13,NaN,13.924,993.84,339.74,0.05,0.11971
2.5112,170.21,94.878,14.896,95.709,15.38,20.327,0.36302,20.33,1.0231,12.585,3.8262,28.61,-80.6,9.7917,0.96724,0,-4.5526e-4,-0.0037359,37617,9381.6,58.375,0.29307,102.24,92.002,1.6261,0.28186,22645200,1e3,60.256,0.54078,0.5423,0.34858,0.061879,0.13033,0.15689,0.25517,1.4656e-4,0,0,0,0,-8.0311e-6,0.012202,6.2992,201.06,81.78,19.959,NaN,13.894,993.29,339.72,0.05,0.1203
2.5612,174.97,95.624,14.895,96.472,15.383,20.958,0.4247,20.962,1.1609,12.765,3.8421,28.61,-80.6,9.7916,0.87454,0,-4.7729e-5,-0.0037234,37576,9340.8,58.34,0.29295,102.41,91.963,1.6579,0.28413,22818149,1e3,61.209,0.54116,0.5424,0.34853,0.06213,0.13049,0.14113,0.23352,0.0010163,0,0,0,0,-8.6873e-8,0.012295,6.2992,201.06,81.722,19.726,NaN,13.863,992.73,339.7,0.05,0.12266
2.6112,179.77,96.369,14.891,97.235,15.387,21.597,0.49046,21.603,1.3009,12.948,3.8744,28.61,-80.6,9.7916,0.8725,0,4.4764e-4,-0.0037297,37536,9300.1,58.305,0.29284,102.41,91.924,1.6649,0.28639,2.299e7,1e3,62.192,0.54153,0.54277,0.34849,0.062379,0.13066,0.1408,0.23404,1.6336e-4,0,0,0,0,7.5224e-6,0.012387,6.2992,201.06,81.67,19.437,NaN,13.831,992.17,339.68,0.05,0.12316
2.6612,184.61,97.114,14.888,97.998,15.39,22.245,0.56025,22.252,1.4427,13.132,3.9005,28.61,-80.6,9.7916,0.86118,0,9.5312e-4,-0.0037474,37495,9259.4,58.27,0.29272,102.43,91.885,1.6745,0.28865,23160803,1e3,63.179,0.5419,0.54311,0.34844,0.062628,0.13083,0.13889,0.23284,9.8176e-4,0,0,0,0,3.3575e-5,0.01248,6.2992,201.06,81.623,19.092,NaN,13.8,991.6,339.66,0.05,0.12342
2.7112,189.49,97.858,14.886,98.761,15.392,22.903,0.63405,22.911,1.5858,13.319,3.9167,28.61,-80.6,9.7916,0.82467,0,0.0014273,-0.0037843,37454,9218.6,58.235,0.2926,102.5,91.846,1.6911,0.29091,23332078,1e3,64.169,0.54227,0.54339,0.34839,0.062878,0.131,0.13274,0.224,1.9664e-4,0,0,0,0,7.4131e-5,0.012572,6.2992,201.06,81.582,18.693,NaN,13.768,991.03,339.64,0.05,0.12377
2.7612,194.4,98.603,14.884,99.524,15.394,23.569,0.71176,23.579,1.7298,13.507,3.927,28.61,-80.6,9.7916,0.78077,0,0.0018779,-0.0038375,37414,9177.9,58.2,0.29248,102.58,91.807,1.7098,0.29317,23503157,1e3,65.164,0.54265,0.54365,0.34835,0.063128,0.13117,0.12537,0.21427,1.1801e-4,0,0,0,0,1.2637e-4,0.012665,6.2992,201.06,81.548,18.241,NaN,13.736,990.45,339.62,0.05,0.12436
2.8112,199.35,99.348,14.884,100.29,15.394,24.244,0.79328,24.257,1.8741,13.696,3.9291,28.61,-80.6,9.7916,0.71944,0,0.0022729,-0.0039261,37373,9137.1,58.164,0.29236,102.69,91.767,1.7334,0.29543,23674194,1e3,66.163,0.54303,0.54388,0.3483,0.063379,0.13135,0.11513,0.19942,5.0698e-4,0,0,0,0,1.8233e-4,0.012759,6.2992,201.06,81.519,17.74,NaN,13.704,989.87,339.6,0.05,0.12477
2.8612,204.33,100.09,14.886,101.05,15.392,24.928,0.87846,24.944,2.0182,13.887,3.9124,28.61,-80.6,9.7915,0.58999,0,0.0023548,-0.004162,37332,9096.4,58.129,0.29224,102.92,91.728,1.7764,0.29771,23846060,1e3,67.16,0.54341,0.54398,0.34825,0.063631,0.13152,0.093731,0.16658,4.9141e-4,0,0,0,0,1.9274e-4,0.012852,6.2992,201.06,81.496,17.194,NaN,13.672,989.29,339.58,0.05,0.12531
2.9112,209.36,100.84,14.888,101.82,15.39,25.622,0.96704,25.64,2.1615,14.077,3.9,28.61,-80.6,9.7915,0.4963,0,0.0023332,-0.0044074,37291,9055.6,58.093,0.29212,103.09,91.689,1.8096,0.29998,24017190,1e3,68.175,0.54379,0.5442,0.34821,0.063883,0.1317,0.078431,0.14166,0.001094,0,0,0,0,1.8639e-4,0.012946,6.2992,201.06,81.478,16.613,NaN,13.639,988.7,339.56,0.05,0.12649
2.9612,214.42,101.58,14.889,102.58,15.388,26.324,1.0588,26.346,2.3033,14.269,3.8857,28.61,-80.6,9.7915,0.41135,0,0.0020864,-0.0047056,37251,9014.9,58.058,0.292,103.24,91.649,1.8407,0.30225,24188015,1e3,69.202,0.54417,0.54445,0.34816,0.064135,0.13188,0.064694,0.11904,6.4682e-4,0,0,0,0,1.4683e-4,0.01304,6.2992,201.06,81.464,16.004,NaN,13.606,988.1,339.54,0.05,0.12696
3.0112,219.51,102.33,14.891,103.34,15.385,27.036,1.1535,27.061,2.4431,14.46,3.8685,28.61,-80.6,9.7915,0.33226,0,0.0014178,-0.0050617,37210,8974.2,58.022,0.29188,103.39,91.61,1.8703,0.30452,24358670,1e3,70.24,0.54455,0.54474,0.34811,0.064387,0.13206,0.052022,0.097333,8.8652e-4,0,0,0,0,6.6804e-5,0.013135,6.2992,201.06,81.455,15.376,NaN,13.573,987.5,339.52,0.05,0.12819
3.0612,224.65,103.07,14.893,104.11,15.382,27.757,1.251,27.786,2.5805,14.651,3.8472,28.61,-80.6,9.7915,0.26605,0,-1.5024e-4,-0.0052892,37169,8933.4,57.986,0.29176,103.52,91.57,1.8963,0.3068,24529345,1e3,71.291,0.54494,0.54506,0.34806,0.06464,0.13224,0.041499,0.078703,0.0013575,0,0,0,0,-7.3916e-7,0.013229,6.2992,201.06,81.449,14.738,NaN,13.54,986.9,339.5,0.05,0.12942
3.1112,229.82,103.82,14.895,104.87,15.379,28.488,1.3509,28.52,2.715,14.842,3.8276,28.61,-80.6,9.7915,0.24034,0,-0.0019446,-0.0048837,37128,8892.7,57.95,0.29164,103.57,91.53,1.9106,0.30907,24699494,1e3,72.355,0.54532,0.54542,0.34801,0.064893,0.13242,0.037435,0.071609,8.2437e-4,0,0,0,0,-1.2203e-4,0.013325,6.2992,201.06,81.446,14.099,NaN,13.506,986.3,339.48,0.05,0.12988
3.1612,235.03,104.56,14.897,105.64,15.375,29.228,1.4531,29.264,2.8461,15.032,3.8041,28.61,-80.6,9.7915,0.26444,0,-0.0037789,-0.0034656,37088,8851.9,57.914,0.29152,103.52,91.49,1.9101,0.31135,2.487e7,1e3,73.434,0.54571,0.54583,0.34796,0.065146,0.1326,0.04125,0.079533,-8.8136e-5,0,0,0,0,-4.5415e-4,0.01342,6.2992,201.06,81.446,13.47,NaN,13.472,985.68,339.46,0.05,0.13177
3.2112,240.28,105.31,14.898,106.4,15.372,29.977,1.5572,30.017,2.9736,15.221,3.785,28.61,-80.6,9.7914,0.29418,0,-0.0042683,-0.0024683,37047,8811.2,57.878,0.29141,103.47,91.45,1.9081,0.31362,25039173,1e3,74.518,0.5461,0.54624,0.34791,0.065399,0.13279,0.045972,0.088164,-5.0298e-5,0,0,0,0,-5.7111e-4,0.013516,6.2992,201.06,81.447,12.861,NaN,13.438,985.07,339.44,0.05,0.13229
3.2612,245.56,106.05,14.9,107.17,15.367,30.735,1.663,30.78,3.0971,15.41,3.7594,28.61,-80.6,9.7914,0.38731,0,-0.0044708,-0.0012686,37006,8770.5,57.842,0.29129,103.3,91.41,1.8876,0.3159,25209316,1e3,75.626,0.54649,0.54674,0.34786,0.065653,0.13297,0.060857,0.11534,6.5523e-6,0,0,0,0,-6.1765e-4,0.013613,6.2992,201.06,81.45,12.28,NaN,13.404,984.45,339.42,0.05,0.13277
3.3112,250.88,106.8,14.902,107.93,15.362,31.503,1.7703,31.553,3.2164,15.597,3.7344,28.61,-80.6,9.7914,0.49317,0,-0.0042118,-5.6343e-4,36965,8729.7,57.806,0.29117,103.11,91.37,1.8638,0.31818,25379306,1e3,76.751,0.54688,0.54729,0.34781,0.065907,0.13316,0.077968,0.14617,2.0482e-5,0,0,0,0,-5.404e-4,0.01371,6.2992,201.06,81.454,11.741,NaN,13.369,983.83,339.4,0.05,0.13317
3.3612,256.24,107.54,14.903,108.7,15.358,32.28,1.8789,32.335,3.3311,15.784,3.713,28.61,-80.6,9.7914,0.55816,0,-0.0037656,-2.1003e-4,36925,8689,57.77,0.29105,103,91.33,1.852,0.32045,25548370,1e3,77.874,0.54727,0.54779,0.34776,0.066161,0.13335,0.088579,0.16414,2.8404e-5,0,0,0,0,-4.2589e-4,0.013807,6.2992,201.06,81.458,11.255,NaN,13.334,983.2,339.38,0.05,0.13349
3.4112,261.64,108.29,14.903,109.46,15.354,33.066,1.9883,33.126,3.4412,15.968,3.6908,28.61,-80.6,9.7914,0.64087,0,-0.0032083,5.0266e-5,36884,8648.2,57.734,0.29093,102.85,91.29,1.8353,0.32273,25717617,1e3,79.015,0.54766,0.54835,0.34771,0.066416,0.13354,0.10219,0.18775,2.7374e-4,0,0,0,0,-3.0485e-4,0.013904,6.2992,201.06,81.461,10.832,NaN,13.299,982.56,339.36,0.05,0.1355
3.4612,267.07,109.04,14.903,110.23,15.349,33.862,2.0986,33.927,3.5464,16.152,3.6717,28.61,-80.6,9.7914,0.66053,0,-0.0025925,1.9823e-4,36843,8607.5,57.697,0.29081,102.82,91.249,1.8366,0.325,25885658,1e3,80.141,0.54806,0.54878,0.34766,0.06667,0.13373,0.10545,0.19347,-4.362e-5,0,0,0,0,-1.9631e-4,0.014002,6.2992,201.06,81.463,10.48,NaN,13.264,981.93,339.34,0.05,0.13612
3.5112,272.54,109.78,14.903,110.99,15.345,34.666,2.2095,34.737,3.6468,16.335,3.6527,28.61,-80.6,9.7913,0.67665,0,-0.0019361,3.0663e-4,36802,8566.8,57.661,0.29069,102.79,91.209,1.8388,0.32727,26053553,1e3,81.275,0.54845,0.54921,0.3476,0.066923,0.13392,0.10813,0.19894,-4.7721e-4,0,0,0,0,-1.0799e-4,0.014099,6.2992,201.06,81.464,10.203,NaN,13.228,981.29,339.32,0.05,0.13664
3.5612,278.05,110.53,14.903,111.75,15.34,35.48,2.3209,35.556,3.7427,16.517,3.6364,28.61,-80.6,9.7913,0.63182,0,-0.0012874,3.8003e-4,36762,8526,57.624,0.29057,102.87,91.168,1.8582,0.32953,2.622e7,1e3,82.391,0.54885,0.54951,0.34755,0.067176,0.13412,0.10072,0.18707,4.3151e-4,0,0,0,0,-4.7105e-5,0.014197,6.2992,201.06,81.462,10.004,NaN,13.193,980.64,339.29,0.05,0.13698
3.6112,283.59,111.27,14.902,112.52,15.335,36.303,2.433,36.384,3.8342,16.698,3.6197,28.61,-80.6,9.7913,0.61358,0,-6.4744e-4,4.2667e-4,36721,8485.3,57.588,0.29045,102.91,91.127,1.8702,0.3318,26387448,1e3,83.527,0.54924,0.54987,0.3475,0.06743,0.13431,0.097718,0.18305,-4.2023e-4,0,0,0,0,-1.1752e-5,0.014295,6.2992,201.06,81.459,9.8784,NaN,13.157,979.99,339.27,0.05,0.13722
3.6612,289.18,112.02,14.9,113.28,15.33,37.134,2.5456,37.222,3.9216,16.878,3.6048,28.61,-80.6,9.7913,0.58266,0,-2.2038e-5,4.443e-4,36680,8444.5,57.551,0.29033,102.97,91.087,1.8858,0.33406,26554255,1e3,84.667,0.54964,0.55021,0.34745,0.067685,0.13451,0.092639,0.17446,-1.6731e-4,0,0,0,0,-1.3433e-8,0.014393,6.2992,201.06,81.453,9.8255,NaN,13.12,979.33,339.25,0.05,0.13746
3.7112,294.79,112.76,14.899,114.05,15.325,37.975,2.6589,38.068,4.0051,17.058,3.5892,28.61,-80.6,9.7913,0.60267,0,5.9892e-4,4.3516e-4,36639,8403.8,57.514,0.29021,102.93,91.046,1.887,0.33634,26721794,1e3,85.837,0.55004,0.55065,0.34739,0.06794,0.13471,0.095938,0.18083,3.433e-4,0,0,0,0,9.7891e-6,0.01449,6.2992,201.06,81.444,9.8423,NaN,13.084,978.68,339.23,0.05,0.13769
3.7612,300.45,113.51,14.897,114.81,15.319,38.825,2.7727,38.924,4.0848,17.236,3.5746,28.61,-80.6,9.7913,0.65098,0,0.0012769,4.1103e-4,36599,8363.1,57.477,0.29009,102.85,91.005,1.8802,0.33863,2.689e7,1e3,87.029,0.55044,0.55115,0.34734,0.068197,0.13491,0.10392,0.19564,-3.943e-4,0,0,0,0,4.39e-5,0.014588,6.2992,201.06,81.431,9.9315,NaN,13.047,978.01,339.21,0.05,0.13797
3.8112,306.15,114.25,14.893,115.57,15.315,39.684,2.887,39.789,4.161,17.414,3.5697,28.61,-80.6,9.7912,0.56444,0,0.0019467,3.0691e-4,36558,8322.3,57.44,0.28997,103.01,90.964,1.9115,0.34089,27055250,1e3,88.171,0.55084,0.55138,0.34728,0.068451,0.13511,0.089671,0.1714,4.3444e-4,0,0,0,0,1.007e-4,0.014686,6.2992,201.06,81.414,10.096,NaN,13.01,977.34,339.18,0.05,0.13822
3.8612,311.88,115,14.888,116.34,15.31,40.551,3.0021,40.662,4.234,17.593,3.5692,28.61,-80.6,9.7912,0.4881,0,0.0025354,1.3826e-4,36517,8281.6,57.403,0.28986,103.14,90.923,1.9402,0.34316,27220793,1e3,89.328,0.55124,0.55165,0.34723,0.068706,0.13531,0.077211,0.14947,3.0394e-4,0,0,0,0,1.686e-4,0.014783,6.2992,201.06,81.392,10.327,NaN,12.973,976.67,339.16,0.05,0.13846
3.9112,317.65,115.74,14.883,117.1,15.305,41.428,3.118,41.545,4.3041,17.771,3.5709,28.61,-80.6,9.7912,0.4492,0,0.0030543,-2.6721e-5,36476,8240.8,57.366,0.28974,103.22,90.882,1.9583,0.34543,27386819,1e3,90.509,0.55165,0.55199,0.34718,0.068962,0.13551,0.070905,0.13832,-2.483e-4,0,0,0,0,2.4149e-4,0.01488,6.2992,201.06,81.366,10.613,NaN,12.935,976,339.14,0.05,0.13869
3.9612,323.45,116.49,14.877,117.86,15.301,42.313,3.2349,42.437,4.3718,17.95,3.5739,28.61,-80.6,9.7912,0.44784,0,0.0035669,-1.0672e-4,36436,8200.1,57.329,0.28962,103.22,90.84,1.9657,0.34771,27553378,1e3,91.714,0.55206,0.5524,0.34712,0.069219,0.13572,0.070691,0.13835,-2.1984e-4,0,0,0,0,3.2507e-4,0.014977,6.2992,201.06,81.334,10.949,NaN,12.898,975.31,339.11,0.05,0.13892
4.0112,329.29,117.23,14.87,118.63,15.297,43.207,3.3528,43.337,4.4371,18.129,3.5887,28.61,-80.6,9.7912,0.3823,0,0.0040239,-4.5091e-4,36395,8159.4,57.292,0.2895,103.34,90.799,1.9916,0.34999,27718575,1e3,92.903,0.55246,0.55271,0.34706,0.069475,0.13592,0.060123,0.1192,4.4679e-4,0,0,0,0,4.0842e-4,0.015074,6.2992,201.06,81.297,11.332,NaN,12.86,974.63,339.09,0.05,0.1392
4.0612,335.17,117.98,14.861,119.39,15.294,44.11,3.472,44.247,4.5005,18.309,3.6129,28.61,-80.6,9.7911,0.30097,0,0.0043037,-0.0011099,36354,8118.6,57.255,0.28938,103.5,90.757,2.0222,0.35225,27883181,1e3,94.097,0.55287,0.55302,0.34701,0.069731,0.13613,0.047115,0.094827,9.2443e-5,0,0,0,0,4.6127e-4,0.01517,6.2992,201.06,81.255,11.753,NaN,12.821,973.94,339.07,0.05,0.14105
4.1112,341.09,118.72,14.851,120.15,15.291,45.023,3.5926,45.166,4.5623,18.49,3.6438,28.61,-80.6,9.7911,0.23313,0,0.0042592,-0.0020983,36314,8077.9,57.217,0.28926,103.62,90.716,2.0492,0.35452,28047645,1e3,95.305,0.55328,0.55337,0.34695,0.069987,0.13634,0.036356,0.073588,-1.1134e-4,0,0,0,0,4.4606e-4,0.015266,6.2992,201.06,81.207,12.197,NaN,12.783,973.25,339.05,0.05,0.14139
4.1612,347.05,119.46,14.839,120.91,15.289,45.943,3.7151,46.093,4.623,18.673,3.6833,28.61,-80.6,9.7911,0.17974,0,0.0032941,-0.0036921,36273,8037.1,57.18,0.28914,103.73,90.674,2.072,0.35679,28211661,1e3,96.523,0.55369,0.55374,0.3469,0.070243,0.13655,0.027945,0.057658,6.9193e-4,0,0,0,0,2.6347e-4,0.015362,6.2992,201.06,81.154,12.651,NaN,12.744,972.55,339.02,0.05,0.14166
4.2112,353.04,120.2,14.826,121.67,15.288,46.873,3.8395,47.03,4.6828,18.857,3.7295,28.61,-80.6,9.7911,0.16927,0,0.0010271,-0.0049458,36232,7996.4,57.142,0.28902,103.75,90.632,2.0821,0.35906,28375390,1e3,97.754,0.5541,0.55415,0.34684,0.0705,0.13676,0.026304,0.054245,0.0010397,0,0,0,0,2.5295e-5,0.015457,6.2992,201.06,81.097,13.101,NaN,12.705,971.84,339,0.05,0.14206
4.2612,359.07,120.95,14.81,122.44,15.288,47.812,3.9662,47.977,4.742,19.044,3.7901,28.61,-80.6,9.7911,0.23391,0,-0.0016953,-0.0047232,36191,7955.6,57.105,0.2889,103.63,90.59,2.07,0.36132,28538105,1e3,98.997,0.55451,0.5546,0.34678,0.070755,0.13697,0.036489,0.0757,2.819e-4,0,0,0,0,-6.8069e-5,0.015552,6.2992,201.06,81.036,13.533,NaN,12.666,971.14,338.97,0.05,0.14233
4.3112,365.13,121.69,14.795,123.2,15.287,48.761,4.0955,48.932,4.8012,19.233,3.8449,28.61,-80.6,9.7911,0.28431,0,-0.0022929,-0.0043052,36151,7914.9,57.067,0.28878,103.54,90.549,2.0622,0.36359,28701408,1e3,100.25,0.55492,0.55506,0.34672,0.071012,0.13719,0.044485,0.091869,1.8771e-4,0,0,0,0,-1.2298e-4,0.015646,6.2992,201.06,80.971,13.929,NaN,12.627,970.43,338.95,0.05,0.14263
4.3612,371.24,122.43,14.781,123.96,15.285,49.718,4.2277,49.897,4.8604,19.423,3.8931,28.61,-80.599,9.791,0.29742,0,-0.0023074,-0.0040848,36110,7874.2,57.029,0.28866,103.52,90.506,2.0655,0.36586,28865061,1e3,101.52,0.55534,0.55549,0.34666,0.07127,0.1374,0.046575,0.096522,4.0653e-4,0,0,0,0,-1.2301e-4,0.01574,6.2992,201.06,80.905,14.278,NaN,12.587,969.71,338.93,0.05,0.14305
4.4112,377.38,123.17,14.766,124.72,15.283,50.684,4.3628,50.872,4.9198,19.616,3.9387,28.61,-80.599,9.791,0.29125,0,-0.0022003,-0.003924,36069,7833.4,56.991,0.28854,103.53,90.464,2.0744,0.36814,29028660,1e3,102.79,0.55575,0.5559,0.34661,0.071529,0.13762,0.045596,0.095025,5.4551e-4,0,0,0,0,-1.1049e-4,0.015834,6.2992,201.06,80.838,14.579,NaN,12.547,968.99,338.9,0.05,0.14337
4.4612,383.55,123.9,14.751,125.48,15.281,51.66,4.501,51.856,4.9794,19.811,3.9875,28.61,-80.599,9.791,0.29226,0,-0.0021318,-0.0037427,36028,7792.7,56.953,0.28842,103.53,90.422,2.0812,0.37042,29191707,1e3,104.06,0.55617,0.55632,0.34655,0.071788,0.13784,0.045761,0.094984,4.6568e-4,0,0,0,0,-1.0246e-4,0.015928,6.2992,201.06,80.769,14.832,NaN,12.507,968.27,338.88,0.05,0.14376
4.5112,389.77,124.64,14.735,126.24,15.279,52.646,4.6423,52.85,5.0393,20.009,4.0405,28.61,-80.599,9.791,0.30704,0,-0.0020538,-0.0035497,35988,7751.9,56.915,0.28831,103.51,90.38,2.084,0.3727,29354059,1e3,105.35,0.55659,0.55675,0.34649,0.072046,0.13806,0.048122,0.10029,2.9838e-4,0,0,0,0,-9.3953e-5,0.016021,6.2992,201.06,80.701,15.036,NaN,12.467,967.54,338.85,0.05,0.14405
4.5612,396.02,125.38,14.719,127,15.276,53.641,4.7869,53.854,5.0995,20.209,4.0877,28.61,-80.599,9.791,0.30105,0,-0.0019104,-0.0033908,35947,7711.2,56.877,0.28819,103.52,90.337,2.0929,0.37497,29516360,1e3,106.63,0.55701,0.55717,0.34643,0.072304,0.13828,0.04717,0.098488,2.4519e-4,0,0,0,0,-8.0325e-5,0.016115,6.2992,201.06,80.634,15.191,NaN,12.426,966.8,338.83,0.05,0.14467
4.6112,402.3,126.11,14.703,127.75,15.274,54.645,4.9347,54.868,5.1601,20.411,4.1363,28.61,-80.599,9.7909,0.30381,0,-0.0017544,-0.0032411,35906,7670.5,56.839,0.28807,103.52,90.295,2.0992,0.37724,29678041,1e3,107.93,0.55743,0.55759,0.34637,0.072563,0.1385,0.047615,0.10047,3.6006e-4,0,0,0,0,-6.6936e-5,0.016208,6.2992,201.06,80.568,15.298,NaN,12.385,966.07,338.8,0.05,0.14507
4.6612,408.63,126.85,14.687,128.51,15.271,55.66,5.0859,55.892,5.2209,20.616,4.1842,28.61,-80.599,9.7909,0.31119,0,-0.0015554,-0.0031151,35865,7629.7,56.8,0.28795,103.51,90.252,2.1043,0.37951,29839156,1e3,109.23,0.55785,0.55802,0.34631,0.072821,0.13872,0.048797,0.10305,-2.0577e-4,0,0,0,0,-5.1991e-5,0.016301,6.2992,201.06,80.504,15.358,NaN,12.344,965.32,338.78,0.05,0.14539
4.7112,414.99,127.58,14.671,129.27,15.268,56.684,5.2404,56.926,5.2819,20.823,4.2253,28.61,-80.599,9.7909,0.30325,0,-0.0013368,-0.0030043,35825,7589,56.762,0.28783,103.52,90.209,2.1138,0.38178,3e7,1e3,110.54,0.55828,0.55843,0.34625,0.07308,0.13895,0.047534,0.10006,1.3376e-4,0,0,0,0,-3.7955e-5,0.016394,6.2992,201.06,80.443,15.371,NaN,12.303,964.58,338.75,0.05,0.14573
4.7612,421.39,128.32,14.658,130.03,15.262,57.719,5.3983,57.971,5.3432,21.032,4.2519,28.61,-80.599,9.7909,0.25588,0,-0.0012765,-0.0028503,35784,7548.2,56.723,0.28771,103.61,90.167,2.1349,0.38406,30161416,1e3,111.85,0.5587,0.55881,0.34619,0.07334,0.13918,0.040004,0.085269,-1.9496e-4,0,0,0,0,-3.4205e-5,0.016487,6.2992,201.06,80.386,15.342,NaN,12.261,963.83,338.73,0.05,0.14616
4.8112,427.82,129.05,14.642,130.79,15.258,58.763,5.5595,59.026,5.4046,21.243,4.2919,28.61,-80.599,9.7909,0.26917,0,-0.0010314,-0.0027869,35743,7507.5,56.685,0.28759,103.59,90.124,2.1382,0.38633,30320960,1e3,113.17,0.55912,0.55925,0.34612,0.073598,0.1394,0.042117,0.090376,-2.3558e-4,0,0,0,0,-2.2071e-5,0.016581,6.2992,201.06,80.332,15.277,NaN,12.219,963.07,338.7,0.05,0.14658
4.8612,434.29,129.78,14.628,131.54,15.253,59.818,5.724,60.091,5.4661,21.456,4.323,28.61,-80.599,9.7908,0.26583,0,-8.1622e-4,-0.0027203,35702,7466.8,56.646,0.28747,103.6,90.081,2.1465,0.38859,3.048e7,1e3,114.5,0.55955,0.55967,0.34606,0.073856,0.13963,0.04159,0.088889,-1.9863e-4,0,0,0,0,-1.3665e-5,0.016674,6.2992,201.06,80.283,15.178,NaN,12.177,962.31,338.68,0.05,0.1469
4.9112,440.8,130.51,14.611,132.3,15.25,60.883,5.8919,61.167,5.5275,21.67,4.3687,28.61,-80.599,9.7908,0.32476,0,-2.3566e-4,-0.002747,35662,7426,56.608,0.28735,103.5,90.038,2.1365,0.39083,30637782,1e3,115.83,0.55997,0.56015,0.346,0.074113,0.13986,0.050989,0.10939,3.2841e-4,0,0,0,0,-1.1263e-6,0.016767,6.2992,201.06,80.238,15.044,NaN,12.135,961.55,338.65,0.05,0.14717
4.9612,447.34,131.24,14.598,133.06,15.243,61.958,6.0631,62.254,5.589,21.887,4.3865,28.61,-80.599,9.7908,0.30854,0,1.2773e-4,-0.0027445,35621,7385.3,56.569,0.28723,103.53,89.994,2.1485,0.39309,30796320,1e3,117.17,0.5604,0.56056,0.34594,0.074371,0.14009,0.0484,0.10368,4.0069e-4,0,0,0,0,3.271e-7,0.01686,6.2992,201.06,80.198,14.87,NaN,12.092,960.78,338.63,0.05,0.14831
5.0112,453.92,131.97,14.587,133.81,15.235,63.044,6.2376,63.352,5.6505,22.104,4.3971,28.61,-80.599,9.7908,0.2864,0,4.5735e-4,-0.0027602,35580,7344.5,56.53,0.28711,103.57,89.951,2.1623,0.39535,30954442,1e3,118.51,0.56083,0.56097,0.34588,0.07463,0.14032,0.044875,0.096555,3.4413e-4,0,0,0,0,4.1467e-6,0.016953,6.2992,201.06,80.164,14.657,NaN,12.05,960.01,338.6,0.05,0.14855
5.0612,460.54,132.7,14.576,134.57,15.226,64.14,6.4155,64.46,5.7119,22.322,4.4021,28.61,-80.599,9.7908,0.2636,0,7.7187e-4,-0.0027909,35539,7303.8,56.491,0.28699,103.62,89.908,2.1763,0.39761,31112032,1e3,119.86,0.56125,0.56137,0.34581,0.074888,0.14055,0.041252,0.089421,2.7483e-4,0,0,0,0,1.1679e-5,0.017046,6.2992,201.06,80.136,14.41,NaN,12.006,959.24,338.57,0.05,0.14881
5.1112,467.19,133.43,14.566,135.32,15.216,65.247,6.5965,65.58,5.773,22.54,4.3994,28.61,-80.599,9.7907,0.23271,0,0.0010048,-0.0028492,35499,7263.1,56.452,0.28687,103.68,89.864,2.1927,0.39987,31269283,1e3,121.21,0.56168,0.56178,0.34575,0.075147,0.14079,0.036357,0.080113,3.014e-4,0,0,0,0,1.9573e-5,0.017139,6.2992,201.06,80.112,14.132,NaN,11.963,958.46,338.55,0.05,0.14923
5.1612,473.88,134.16,14.558,136.08,15.205,66.365,6.7806,66.71,5.8337,22.759,4.3891,28.61,-80.599,9.7907,0.19393,0,0.0010906,-0.0029508,35458,7222.3,56.413,0.28676,103.75,89.821,2.2116,0.40213,31426229,1e3,122.57,0.56211,0.56218,0.34569,0.075406,0.14102,0.030233,0.066925,3.1116e-4,0,0,0,0,2.2803e-5,0.017232,6.2992,201.06,80.094,13.827,NaN,11.92,957.67,338.52,0.05,0.14954
5.2112,480.61,134.89,14.55,136.83,15.193,67.493,6.9675,67.851,5.894,22.977,4.3712,28.61,-80.599,9.7907,0.14741,0,8.2749e-4,-0.0031321,35417,7181.6,56.373,0.28664,103.84,89.777,2.2328,0.40439,31582962,1e3,123.94,0.56255,0.56258,0.34562,0.075665,0.14126,0.022921,0.05122,5.4354e-4,0,0,0,0,1.2983e-5,0.017326,6.2992,201.06,80.08,13.503,NaN,11.876,956.88,338.5,0.05,0.15007
5.2612,487.37,135.62,14.544,137.59,15.179,68.631,7.1572,69.003,5.9536,23.194,4.3474,28.61,-80.599,9.7907,0.10393,0,-2.5101e-4,-0.0032578,35376,7140.8,56.334,0.28652,103.93,89.733,2.2532,0.40665,31739471,1e3,125.31,0.56298,0.563,0.34556,0.075925,0.1415,0.01612,0.036801,3.6336e-4,0,0,0,0,-1.1816e-6,0.01742,6.2992,201.06,80.069,13.168,NaN,11.832,956.09,338.47,0.05,0.15041
5.3112,494.17,136.35,14.538,138.34,15.165,69.78,7.3494,70.166,6.0124,23.411,4.3177,28.61,-80.599,9.7907,0.096741,0,-0.0024401,-0.0020799,35336,7100.1,56.294,0.2864,103.94,89.689,2.2628,0.40891,31895935,1e3,126.7,0.56341,0.56343,0.34549,0.076185,0.14174,0.015001,0.033629,-1.1626e-4,0,0,0,0,-1.1045e-4,0.017514,6.2992,201.06,80.062,12.832,NaN,11.788,955.29,338.44,0.05,0.1507
5.3612,501.01,137.07,14.533,139.09,15.15,70.94,7.5439,71.34,6.0701,23.626,4.2782,28.61,-80.599,9.7906,0.1896,0,-0.0029596,-1.1754e-4,35295,7059.4,56.255,0.28628,103.77,89.645,2.2425,0.41119,32053376,1e3,128.12,0.56385,0.56392,0.34543,0.076447,0.14198,0.029562,0.066251,-5.6468e-5,0,0,0,0,-1.607e-4,0.017608,6.2992,201.06,80.056,12.51,NaN,11.743,954.5,338.42,0.05,0.15093
5.4112,507.88,137.8,14.528,139.85,15.136,72.11,7.7402,72.525,6.1266,23.839,4.2472,28.61,-80.599,9.7906,0.26408,0,-0.0025241,3.7675e-4,35254,7018.6,56.215,0.28616,103.64,89.601,2.228,0.41346,32210661,1e3,129.55,0.56429,0.56441,0.34536,0.076708,0.14222,0.041358,0.092676,2.9882e-4,0,0,0,0,-1.1563e-4,0.017703,6.2992,201.06,80.051,12.223,NaN,11.699,953.73,338.39,0.05,0.15122
5.4612,514.79,138.53,14.521,140.6,15.122,73.291,7.9381,73.72,6.1816,24.051,4.2208,28.61,-80.599,9.7906,0.31182,0,-0.001934,5.8766e-4,35214,6977.9,56.176,0.28604,103.55,89.557,2.2214,0.41572,32367061,1e3,130.98,0.56473,0.5649,0.3453,0.076968,0.14247,0.048973,0.10917,-2.5008e-4,0,0,0,0,-6.7155e-5,0.017798,6.2992,201.06,80.046,11.987,NaN,11.654,952.96,338.36,0.05,0.15159
5.5112,521.73,139.25,14.511,141.35,15.109,74.482,8.1375,74.926,6.235,24.261,4.2059,28.61,-80.599,9.7906,0.27738,0,-0.0013583,6.9407e-4,35173,6937.1,56.136,0.28592,103.62,89.512,2.239,0.41795,32521339,1e3,132.37,0.56517,0.5653,0.34523,0.077226,0.14271,0.043483,0.097388,-3.6913e-4,0,0,0,0,-3.278e-5,0.017893,6.2992,201.06,80.039,11.807,NaN,11.609,952.18,338.33,0.05,0.15208
5.5612,528.71,139.98,14.504,142.1,15.094,75.684,8.3383,76.142,6.2871,24.471,4.1822,28.61,-80.599,9.7906,0.31122,0,-7.5517e-4,7.6577e-4,35132,6896.4,56.096,0.2858,103.56,89.468,2.2366,0.42021,32676977,1e3,133.81,0.56561,0.56577,0.34516,0.077487,0.14296,0.048887,0.10953,1.4345e-4,0,0,0,0,-1.0025e-5,0.017988,6.2992,201.06,80.03,11.683,NaN,11.563,951.4,338.31,0.05,0.15237
5.6112,535.73,140.7,14.495,142.85,15.08,76.896,8.5404,77.369,6.3376,24.679,4.1614,28.61,-80.599,9.7905,0.33805,0,-9.7516e-5,7.8882e-4,35091,6855.6,56.056,0.28568,103.51,89.423,2.2363,0.42247,32832277,1e3,135.25,0.56605,0.56625,0.3451,0.077748,0.1432,0.053189,0.1193,9.3036e-5,0,0,0,0,-1.6541e-7,0.018084,6.2992,201.06,80.019,11.617,NaN,11.518,950.62,338.28,0.05,0.15268
5.6612,542.78,141.43,14.485,143.6,15.066,78.118,8.7439,78.606,6.3866,24.887,4.1441,28.61,-80.599,9.7905,0.35829,0,6.1117e-4,7.7812e-4,35051,6814.9,56.016,0.28556,103.48,89.379,2.2379,0.42473,32987276,1e3,136.7,0.56649,0.56671,0.34503,0.078009,0.14345,0.056445,0.1266,3.7448e-4,0,0,0,0,6.4294e-6,0.018179,6.2992,201.06,80.004,11.616,NaN,11.472,949.83,338.25,0.05,0.15302
5.7112,549.87,142.15,14.474,144.35,15.053,79.351,8.9485,79.854,6.4341,25.094,4.1337,28.61,-80.599,9.7905,0.35198,0,0.0013391,7.3567e-4,35010,6774.2,55.976,0.28544,103.49,89.334,2.2473,0.42698,33141504,1e3,138.15,0.56693,0.56715,0.34496,0.078269,0.1437,0.055437,0.12487,-9.0693e-5,0,0,0,0,3.0546e-5,0.018274,6.2992,201.06,79.985,11.682,NaN,11.426,949.04,338.22,0.05,0.15327
5.7612,557,142.88,14.462,145.1,15.04,80.594,9.1543,81.112,6.4802,25.3,4.1282,28.61,-80.599,9.7905,0.34264,0,0.0020582,6.6565e-4,34969,6733.4,55.936,0.28533,103.51,89.289,2.2577,0.42924,33295519,1e3,139.6,0.56738,0.56758,0.34489,0.07853,0.14395,0.053942,0.12158,-2.939e-5,0,0,0,0,7.1414e-5,0.018369,6.2992,201.06,79.961,11.813,NaN,11.38,948.24,338.19,0.05,0.15361
5.8112,564.16,143.6,14.448,145.85,15.027,81.847,9.3615,82.381,6.525,25.506,4.1335,28.61,-80.599,9.7904,0.29729,0,0.0027487,5.0107e-4,34928,6692.7,55.895,0.28521,103.6,89.244,2.2785,0.43148,33448480,1e3,141.04,0.56782,0.56797,0.34483,0.07879,0.1442,0.046686,0.10589,9.0252e-5,0,0,0,0,1.2607e-4,0.018464,6.2992,201.06,79.932,12.007,NaN,11.333,947.44,338.17,0.05,0.15414
5.8612,571.36,144.32,14.431,146.6,15.016,83.111,9.5701,83.66,6.5686,25.714,4.1519,28.61,-80.599,9.7904,0.22136,0,0.0033046,9.6152e-5,34888,6651.9,55.855,0.28509,103.74,89.199,2.3085,0.43372,3.36e7,1e3,142.48,0.56826,0.56835,0.34476,0.079049,0.14445,0.034613,0.080042,-1.6226e-5,0,0,0,0,1.8037e-4,0.018558,6.2992,201.06,79.897,12.253,NaN,11.286,946.64,338.14,0.05,0.15459
5.9112,578.59,145.04,14.415,147.34,15.004,84.384,9.7804,84.949,6.6112,25.922,4.1623,28.61,-80.599,9.7904,0.21994,0,0.0037601,5.8231e-5,34847,6611.2,55.814,0.28497,103.75,89.154,2.3165,0.43598,33754001,1e3,143.96,0.56871,0.5688,0.34469,0.079312,0.14471,0.034392,0.079157,1.8956e-4,0,0,0,0,2.3115e-4,0.018652,6.2992,201.06,79.858,12.536,NaN,11.239,945.83,338.11,0.05,0.15675
5.9612,585.86,145.76,14.398,148.09,14.992,85.668,9.9924,86.249,6.653,26.13,4.1782,28.61,-80.599,9.7904,0.21947,0,0.0042335,8.7908e-5,34806,6570.5,55.774,0.28485,103.75,89.109,2.3243,0.43825,33907453,1e3,145.45,0.56916,0.56925,0.34462,0.079575,0.14497,0.034321,0.079323,3.7738e-4,0,0,0,0,2.9005e-4,0.018746,6.2992,201.06,79.813,12.854,NaN,11.192,945.02,338.08,0.05,0.15713
6.0112,593.17,146.48,14.377,148.83,14.983,86.962,10.206,87.559,6.6939,26.34,4.2157,28.61,-80.599,9.7904,0.15602,0,0.0045952,-6.1358e-4,34765,6529.7,55.733,0.28473,103.87,89.064,2.3509,0.44049,34058869,1e3,146.92,0.56961,0.56965,0.34455,0.079835,0.14522,0.024312,0.057007,4.8501e-4,0,0,0,0,3.383e-4,0.01884,6.2992,201.06,79.762,13.205,NaN,11.144,944.2,338.05,0.05,0.15818
6.0612,600.51,147.2,14.354,149.58,14.974,88.267,10.422,88.88,6.7343,26.552,4.2652,28.61,-80.599,9.7903,0.090335,0,0.0040912,-0.0026597,34725,6489,55.692,0.28461,104,89.018,2.3782,0.44273,3.421e7,1e3,148.4,0.57006,0.57007,0.34448,0.080095,0.14548,0.014024,0.03335,2.3307e-4,0,0,0,0,2.655e-4,0.018933,6.2992,201.06,79.707,13.574,NaN,11.097,943.38,338.02,0.05,0.15847
6.1112,607.89,147.92,14.331,150.32,14.966,89.582,10.641,90.211,6.7742,26.766,4.3153,28.61,-80.599,9.7903,0.068336,0,0.001488,-0.0047609,34684,6448.2,55.651,0.28449,104.04,88.972,2.3925,0.44497,3.436e7,1e3,149.89,0.57051,0.57052,0.34441,0.080356,0.14574,0.010596,0.02548,3.9053e-4,0,0,0,0,3.4776e-5,0.019026,6.2992,201.06,79.648,13.947,NaN,11.049,942.55,337.99,0.05,0.15895
6.1612,615.3,148.64,14.306,151.07,14.959,90.907,10.862,91.554,6.8138,26.982,4.3727,28.61,-80.599,9.7903,0.093151,0,-0.002062,-0.0045176,34643,6407.5,55.61,0.28437,104,88.927,2.3928,0.44721,34510629,1e3,151.39,0.57096,0.57097,0.34434,0.080617,0.146,0.014467,0.034366,7.0305e-4,0,0,0,0,-6.612e-5,0.019118,6.2992,201.06,79.586,14.308,NaN,11.001,941.73,337.97,0.05,0.15956
6.2112,622.75,149.35,14.28,151.81,14.952,92.243,11.086,92.907,6.8534,27.2,4.432,28.61,-80.599,9.7903,0.13433,0,-0.0031448,-0.0036627,34602,6366.8,55.569,0.28425,103.93,88.881,2.3882,0.44946,34660552,1e3,152.9,0.57141,0.57144,0.34427,0.080878,0.14626,0.020915,0.050465,4.2219e-4,0,0,0,0,-1.5229e-4,0.01921,6.2992,201.06,79.523,14.646,NaN,10.952,940.89,337.94,0.05,0.16003
6.2612,630.24,150.07,14.253,152.55,14.946,93.589,11.314,94.271,6.8929,27.422,4.5003,28.61,-80.599,9.7902,0.19737,0,-0.0033623,-0.0030763,34562,6326,55.528,0.28413,103.81,88.835,2.3773,0.45169,34809420,1e3,154.42,0.57186,0.57193,0.3442,0.081139,0.14652,0.030846,0.073813,5.8049e-4,0,0,0,0,-1.7241e-4,0.019301,6.2992,201.06,79.459,14.949,NaN,10.903,940.06,337.91,0.05,0.16036
6.3112,637.76,150.78,14.225,153.29,14.941,94.947,11.545,95.646,6.9327,27.646,4.5706,28.61,-80.599,9.7902,0.26094,0,-0.0031038,-0.0027785,34521,6285.3,55.487,0.28401,103.69,88.789,2.3663,0.45392,34957611,1e3,155.95,0.57231,0.57243,0.34413,0.081399,0.14679,0.040937,0.09684,1.858e-4,0,0,0,0,-1.455e-4,0.019392,6.2992,201.06,79.396,15.205,NaN,10.855,939.22,337.88,0.05,0.16072
6.3612,645.32,151.49,14.197,154.03,14.935,96.314,11.779,97.032,6.9727,27.873,4.6371,28.61,-80.599,9.7902,0.31477,0,-0.0025612,-0.0026184,34480,6244.5,55.446,0.28389,103.6,88.743,2.3583,0.45614,35105262,1e3,157.48,0.57276,0.57294,0.34406,0.081658,0.14705,0.049539,0.11703,-2.2538e-4,0,0,0,0,-9.8125e-5,0.019482,6.2992,201.06,79.335,15.4,NaN,10.805,938.37,337.85,0.05,0.16308
6.4112,652.91,152.2,14.175,154.77,14.924,97.693,12.018,98.43,7.0132,28.102,4.6699,28.61,-80.599,9.7902,0.29558,0,-0.0019956,-0.0024896,34439,6203.8,55.404,0.28378,103.64,88.697,2.3718,0.45839,35254078,1e3,159.01,0.57322,0.57338,0.34399,0.081921,0.14732,0.046473,0.10986,2.3253e-4,0,0,0,0,-5.9001e-5,0.019572,6.2992,201.06,79.278,15.527,NaN,10.756,937.52,337.82,0.05,0.16545
6.4612,660.54,152.91,14.15,155.51,14.915,99.083,12.261,99.839,7.054,28.333,4.7158,28.61,-80.599,9.7901,0.31618,0,-0.0013432,-0.0024257,34399,6163.1,55.363,0.28366,103.6,88.65,2.3736,0.46062,35400981,1e3,160.54,0.57368,0.57385,0.34391,0.082181,0.14758,0.049777,0.11782,4.1805e-4,0,0,0,0,-2.6476e-5,0.019662,6.2992,201.06,79.226,15.588,NaN,10.707,936.67,337.79,0.05,0.16669
6.5112,668.2,153.62,14.13,156.25,14.902,100.48,12.507,101.26,7.0951,28.566,4.7346,28.61,-80.599,9.7901,0.28677,0,-7.553e-4,-0.0023661,34358,6122.3,55.321,0.28354,103.66,88.604,2.3901,0.46285,35548463,1e3,162.08,0.57413,0.57428,0.34384,0.082443,0.14785,0.045075,0.10757,2.7587e-4,0,0,0,0,-8.2925e-6,0.019752,6.2992,201.06,79.179,15.583,NaN,10.657,935.82,337.76,0.05,0.16773
6.5612,675.9,154.32,14.108,156.99,14.891,101.9,12.758,102.69,7.1366,28.8,4.7646,28.61,-80.599,9.7901,0.29589,0,-1.0302e-4,-0.002353,34317,6081.6,55.279,0.28342,103.65,88.557,2.3953,0.46507,35694015,1e3,163.62,0.57459,0.57474,0.34377,0.082702,0.14812,0.046538,0.1112,4.3517e-4,0,0,0,0,-1.5285e-7,0.019841,6.2992,201.06,79.138,15.517,NaN,10.607,934.96,337.73,0.05,0.16929
6.6112,683.63,155.03,14.088,157.72,14.877,103.32,13.013,104.14,7.1784,29.036,4.7814,28.61,-80.599,9.7901,0.28922,0,5.7959e-4,-0.0023621,34276,6040.8,55.237,0.2833,103.66,88.511,2.4052,0.46729,35839155,1e3,165.16,0.57504,0.57519,0.3437,0.082962,0.14839,0.045478,0.10952,4.2452e-4,0,0,0,0,4.7925e-6,0.019931,6.2992,201.06,79.103,15.39,NaN,10.556,934.09,337.7,0.05,0.16993
6.6612,691.4,155.73,14.075,158.46,14.857,104.75,13.271,105.59,7.2203,29.272,4.7568,28.61,-80.599,9.7901,0.20398,0,9.1376e-4,-0.0024611,34236,6000.1,55.196,0.28318,103.82,88.464,2.4382,0.46953,35985856,1e3,166.7,0.57551,0.57558,0.34362,0.083225,0.14866,0.031919,0.078125,-5.3333e-6,0,0,0,0,1.1801e-5,0.020021,6.2992,201.06,79.074,15.205,NaN,10.506,933.22,337.67,0.05,0.17063
