# Time (s),Altitude (m),Vertical velocity (m/s),Vertical acceleration (m/s²),Total velocity (m/s),Total acceleration (m/s²),Position East of launch (m),Position North of launch (m),Lateral distance (m),Lateral direction (°),Lateral velocity (m/s),Lateral acceleration (m/s²),Latitude (°),Longitude (°),Gravitational acceleration (m/s²),Angle of attack (°),Roll rate (r/s),Pitch rate (r/s),Yaw rate (r/s),Mass (g),Propellant mass (g),Longitudinal moment of inertia (kg·m²),Rotational moment of inertia (kg·m²),CP location (in),CG location (in),Stability margin calibers (​),Mach number (​),Reynolds number (​),Thrust (N),Drag force (N),Drag coefficient (​),Axial drag coefficient (​),Friction drag coefficient (​),Pressure drag coefficient (​),Base drag coefficient (​),Normal force coefficient (​),Pitch moment coefficient (​),Yaw moment coefficient (​),Side force coefficient (​),Roll moment coefficient (​),Roll forcing coefficient (​),Roll damping coefficient (​),Pitch damping coefficient (​),Coriolis acceleration (m/s²),Reference length (in),Reference area (cm²),Vertical orientation (zenith) (°),Lateral orientation (azimuth) (°),Wind velocity (m/s),Air temperature (°C),Air pressure (mbar),Speed of sound (m/s),Simulation time step (s),Computation time (s)
0,0,0,-5.6763,0,5.7075,0,0,0,0,0,0.5966,28.61,-80.6,9.7922,90,0,0,0,40581,12346,60.972,0.31372,NaN,94.756,NaN,0.014514,1183684,163.58,0,0.58023,0,0.418,0.042206,0.12003,NaN,NaN,NaN,NaN,NaN,NaN,NaN,NaN,0,6.2992,201.06,84,0,NaN,15,1013.2,340.39,0.01,0.001609
0.01,0,0,61.573,0,61.913,0,0,0,0,0,6.4716,28.61,-80.6,9.7922,90,0,0,0,40581,12346,60.972,0.31372,NaN,94.756,NaN,0.014331,1168788,2907.7,0,0.58127,0,0.41903,0.042206,0.12003,NaN,NaN,NaN,NaN,NaN,NaN,NaN,NaN,0,6.2992,201.06,84,0,NaN,15,1013.2,340.39,0.01,0.0019588
0.02,0.0030793,0.6159,90.451,0.61929,90.949,3.2365e-4,0,3.2365e-4,0,0.064734,9.5067,28.61,-80.6,9.7922,82.673,0,0,0,40570,12334,60.962,0.31362,NaN,94.746,NaN,0.014265,1163393,4084.9,8.2129e-4,0.58165,0.0028285,0.41941,0.042206,0.12003,NaN,NaN,NaN,NaN,NaN,NaN,NaN,NaN,7.942e-5,6.2992,201.06,84,0,NaN,15,1013.2,340.39,0.01,0.0023019
0.03,0.013763,1.5208,89.063,1.5292,89.554,0.0014465,0,0.0014465,0,0.15985,9.3609,28.61,-80.6,9.7922,72.168,0,0,0,40549,12313,60.944,0.31341,NaN,94.727,NaN,0.014671,1196473,4026.2,0.011015,0.57936,0.035865,0.41712,0.042206,0.12003,NaN,NaN,NaN,NaN,NaN,NaN,NaN,NaN,1.9611e-4,6.2992,201.06,84,0,NaN,15,1013.2,340.39,0.01,0.0025951
0.04,0.033426,2.4119,88.815,2.4252,89.305,0.0035132,0,0.0035132,0,0.25351,9.3349,28.61,-80.6,9.7922,62.665,0,0,0,40525,12290,60.923,0.31317,NaN,94.706,NaN,0.015516,1265397,4013.8,0.038772,0.57484,0.11287,0.41261,0.042206,0.12003,NaN,NaN,NaN,NaN,NaN,NaN,NaN,NaN,3.1102e-4,6.2992,201.06,84,0,NaN,15,1013.2,340.39,0.01,0.0028924
0.05,0.061988,3.3006,89.021,3.3187,89.511,0.0065152,0,0.0065152,0,0.3469,9.3565,28.61,-80.6,9.7922,54.365,0,0,0,40502,12266,60.903,0.31293,NaN,94.685,NaN,0.016734,1364760,4019.9,0.087157,0.56887,0.21812,0.40662,0.042207,0.12004,NaN,NaN,NaN,NaN,NaN,NaN,NaN,NaN,4.256e-4,6.2992,201.06,84,0,NaN,15,1013.2,340.39,0.01,0.0031882
0.06,0.099447,4.1912,89.947,4.2143,90.443,0.010452,0,0.010452,0,0.44052,9.4538,28.61,-80.6,9.7922,47.83,0,0,0,40479,12243,60.882,0.31269,NaN,94.664,NaN,0.018442,1504040,4055.4,0.15477,0.56138,0.31892,0.39912,0.042209,0.12004,NaN,NaN,NaN,NaN,NaN,NaN,NaN,NaN,5.4046e-4,6.2992,201.06,84,0,NaN,14.999,1013.2,340.39,0.01,0.0035044
0.07,0.14586,5.0912,91.05,5.1192,91.551,0.01533,0,0.01533,0,0.5351,9.5697,28.61,-80.6,9.7922,42.408,0,0,0,40455,12220,60.861,0.31245,NaN,94.643,NaN,0.020368,1661117,4098,0.24146,0.55393,0.4079,0.39167,0.04221,0.12005,NaN,NaN,NaN,NaN,NaN,NaN,NaN,NaN,6.565e-4,6.2992,201.06,84,0,NaN,14.999,1013.2,340.39,0.01,0.0037781
0.08,0.20132,6.0022,92.153,6.0352,92.661,0.02116,0,0.02116,0,0.63085,9.6857,28.61,-80.6,9.7922,37.903,0,0,0,40432,12196,60.84,0.31221,NaN,94.622,NaN,0.022471,1832544,4140.5,0.34603,0.54678,0.48029,0.3845,0.042212,0.12007,NaN,NaN,NaN,NaN,NaN,NaN,NaN,NaN,7.7397e-4,6.2992,201.06,84,0,NaN,14.999,1013.2,340.39,0.01,0.0040485
0.09,0.26596,6.9242,93.091,6.9623,93.603,0.027953,0,0.027953,0,0.72776,9.7842,28.61,-80.6,9.7922,34.146,0,0,0,40408,12173,60.82,0.31197,NaN,94.6,NaN,0.024714,2015530,4176.3,0.46716,0.54003,0.53603,0.37774,0.042214,0.12008,NaN,NaN,NaN,NaN,NaN,NaN,NaN,NaN,8.9287e-4,6.2992,201.06,84,0,NaN,14.998,1013.2,340.39,0.01,0.0043615
0.1,0.33985,7.8556,93.041,7.8988,93.554,0.03572,0,0.03572,0,0.82565,9.779,28.61,-80.6,9.7922,30.994,0,0,0,40385,12149,60.799,0.31173,NaN,94.579,NaN,0.027071,2207661,4172,0.60348,0.53375,0.57717,0.37143,0.042217,0.1201,NaN,NaN,NaN,NaN,NaN,NaN,NaN,NaN,0.001013,6.2992,201.06,84,0,NaN,14.998,1013.2,340.39,0.01,0.004655
0.11,0.42306,8.7864,93.329,8.8348,93.843,0.044466,0,0.044466,0,0.92349,9.8092,28.61,-80.6,9.7922,28.273,0,0,0,40361,12125,60.778,0.31148,NaN,94.557,NaN,0.029471,2403416,4181.4,0.75256,0.52802,0.60727,0.36569,0.04222,0.12011,NaN,NaN,NaN,NaN,NaN,NaN,NaN,NaN,0.001133,6.2992,201.06,84,0,NaN,14.997,1013.2,340.39,0.01,0.0049856
0.12,0.5156,9.7202,93.861,9.7738,94.378,0.054191,0,0.054191,0,1.0216,9.8652,28.61,-80.6,9.7922,25.959,0,0,0,40337,12101,60.757,0.31124,NaN,94.535,NaN,0.031936,2604390,4200.7,0.91347,0.52274,0.62774,0.36039,0.042223,0.12013,NaN,NaN,NaN,NaN,NaN,NaN,NaN,NaN,0.0012534,6.2992,201.06,84,0,NaN,14.997,1013.2,340.39,0.01,0.0053967
0.13,0.61749,10.659,94.394,10.718,94.914,0.064901,0,0.064901,0,1.1203,9.9212,28.61,-80.6,9.7922,23.969,0,0,0,40313,12077,60.735,0.31099,NaN,94.514,NaN,0.034459,2810169,4220,1.0858,0.51785,0.64091,0.35547,0.042226,0.12015,NaN,NaN,NaN,NaN,NaN,NaN,NaN,NaN,0.0013745,6.2992,201.06,84,0,NaN,14.996,1013.2,340.39,0.01,0.0058001
0.14,0.72881,11.604,94.927,11.668,95.45,0.076601,0,0.076601,0,1.2196,9.9773,28.61,-80.6,9.7922,22.243,0,0,0,40289,12054,60.714,0.31075,NaN,94.492,NaN,0.037033,3020057,4239.3,1.2701,0.51373,0.6491,0.35132,0.04223,0.12018,NaN,NaN,NaN,NaN,NaN,NaN,NaN,NaN,0.0014963,6.2992,201.06,84,0,NaN,14.995,1013.2,340.39,0.01,0.0060836
0.15,0.84959,12.554,95.461,12.623,95.987,0.089296,0,0.089296,0,1.3194,10.033,28.61,-80.6,9.7922,20.734,0,0,0,40265,12030,60.693,0.3105,NaN,94.47,NaN,0.039652,3233524,4258.5,1.4762,0.51375,0.65809,0.35131,0.042234,0.1202,NaN,NaN,NaN,NaN,NaN,NaN,NaN,NaN,0.0016188,6.2992,201.06,84,0,NaN,14.994,1013.2,340.39,0.01,0.0063818
0.16,0.9799,13.509,95.994,13.583,96.523,0.10299,0,0.10299,0,1.4198,10.089,28.61,-80.6,9.7922,19.538,0,0,0,40241,12006,60.672,0.31025,NaN,94.448,NaN,0.042343,3452968,4277.8,1.6967,0.51378,0.66329,0.35131,0.042238,0.12023,NaN,NaN,NaN,NaN,NaN,NaN,NaN,NaN,0.0017419,6.2992,201.06,84,0,NaN,14.994,1013.1,340.39,0.01,0.0067156
0.17,1.1198,14.469,96.528,14.549,97.06,0.11769,0,0.11769,0,1.5208,10.146,28.61,-80.6,9.7922,18.479,0,0,0,40218,11982,60.65,0.31001,NaN,94.426,NaN,0.045066,3674950,4297.1,1.9307,0.5138,0.66634,0.3513,0.042243,0.12026,NaN,NaN,NaN,NaN,NaN,NaN,NaN,NaN,0.0018658,6.2992,201.06,84,0,NaN,14.993,1013.1,340.38,0.01,0.0069953
0.18,1.2693,15.435,96.909,15.52,97.443,0.13341,0,0.13341,0,1.6223,10.186,28.61,-80.6,9.7922,17.535,0,0,0,40194,11958,60.629,0.30976,NaN,94.405,NaN,0.047817,3899264,4310.2,2.1783,0.51383,0.66777,0.35129,0.042247,0.1203,NaN,NaN,NaN,NaN,NaN,NaN,NaN,NaN,0.0019903,6.2992,201.06,84,0,NaN,14.992,1013.1,340.38,0.01,0.0072119
0.19,1.4285,16.404,96.671,16.495,97.203,0.15014,0,0.15014,0,1.7242,10.161,28.61,-80.6,9.7922,16.69,0,0,0,40170,11934,60.607,0.30952,NaN,94.383,NaN,0.050591,4125391,4298.3,2.4387,0.51386,0.66787,0.35128,0.042253,0.12033,NaN,NaN,NaN,NaN,NaN,NaN,NaN,NaN,0.0021153,6.2992,201.06,84,0,NaN,14.991,1013.1,340.38,0.01,0.0074151
0.2,1.5974,17.372,96.811,17.467,97.344,0.16789,0,0.16789,0,1.8258,10.175,28.61,-80.6,9.7922,15.936,0,0,0,40146,11910,60.586,0.30927,NaN,94.361,NaN,0.053368,4351762,4301.6,2.7074,0.5139,0.66633,0.35127,0.042261,0.12037,NaN,NaN,NaN,NaN,NaN,NaN,NaN,NaN,0.0022401,6.2992,201.06,84,0,NaN,14.99,1013.1,340.38,0.01,0.0076289
0.21,1.7759,18.34,97.167,18.441,97.702,0.18666,0,0.18666,0,1.9276,10.213,28.61,-80.6,9.7922,15.16,0,0,0,40122,11886,60.565,0.30902,NaN,94.339,NaN,0.056131,4577062,4313.7,2.9804,0.51394,0.66309,0.35126,0.04227,0.12041,NaN,NaN,NaN,NaN,NaN,NaN,NaN,NaN,0.002365,6.2992,201.06,84,0,NaN,14.988,1013,340.38,0.01,0.0079374
0.22,1.9642,19.312,97.523,19.419,98.06,0.20645,0,0.20645,0,2.0298,10.25,28.61,-80.6,9.7922,14.454,0,0,0,40098,11862,60.543,0.30878,NaN,94.316,NaN,0.058915,4803945,4325.8,3.2622,0.51398,0.65883,0.35125,0.042279,0.12045,NaN,NaN,NaN,NaN,NaN,NaN,NaN,NaN,0.0024903,6.2992,201.06,84,0,NaN,14.987,1013,340.38,0.01,0.0081423
0.23,2.1622,20.288,97.879,20.4,98.419,0.22726,0,0.22726,0,2.1324,10.288,28.61,-80.6,9.7922,13.81,0,0,0,40074,11838,60.522,0.30853,NaN,94.294,NaN,0.061717,5032315,4337.9,3.5533,0.51402,0.65397,0.35123,0.042288,0.1205,NaN,NaN,NaN,NaN,NaN,NaN,NaN,NaN,0.0026161,6.2992,201.06,84,0,NaN,14.986,1013,340.38,0.01,0.0083756
0.24,2.37,21.267,98.236,21.385,98.777,0.2491,0,0.2491,0,2.2353,10.325,28.61,-80.6,9.7922,13.219,0,0,0,40050,11814,60.5,0.30828,NaN,94.272,NaN,0.064536,5262090,4349.9,3.8545,0.51406,0.64879,0.35122,0.042297,0.12054,NaN,NaN,NaN,NaN,NaN,NaN,NaN,NaN,0.0027424,6.2992,201.06,84,0,NaN,14.985,1013,340.38,0.01,0.0085662
0.25,2.5876,22.25,98.593,22.373,99.136,0.27197,0,0.27197,0,2.3386,10.363,28.61,-80.6,9.7922,12.676,0,0,0,40026,11791,60.478,0.30804,NaN,94.25,NaN,0.067371,5493205,4362,4.1662,0.51411,0.64348,0.35121,0.042307,0.12059,NaN,NaN,NaN,NaN,NaN,NaN,NaN,NaN,0.0028692,6.2992,201.06,84,0,NaN,14.983,1012.9,340.38,0.01,0.0087191
0.26,2.815,23.237,98.95,23.365,99.495,0.29587,0,0.29587,0,2.4423,10.4,28.61,-80.6,9.7922,12.234,0,0,0,40002,11767,60.457,0.30779,NaN,94.228,NaN,0.070239,5726872,4374.1,4.4955,0.51415,0.63883,0.35119,0.042317,0.12064,NaN,NaN,NaN,NaN,NaN,NaN,NaN,NaN,0.0029964,6.2992,201.06,84,0,NaN,14.982,1012.9,340.38,0.01,0.0088679
0.27,3.0523,24.227,99.307,24.36,99.854,0.32081,0,0.32081,0,2.5463,10.438,28.61,-80.6,9.7922,11.825,0,0,0,39978,11743,60.435,0.30754,NaN,94.206,NaN,0.07312,5961682,4386.2,4.8371,0.5142,0.63429,0.35118,0.042328,0.1207,NaN,NaN,NaN,NaN,NaN,NaN,NaN,NaN,0.003124,6.2992,201.06,84,0,NaN,14.98,1012.9,340.38,0.01,0.0090163
0.28,3.2996,25.22,99.664,25.359,100.21,0.3468,0,0.3468,0,2.6508,10.475,28.61,-80.6,9.7922,11.446,0,0,0,39954,11719,60.414,0.3073,NaN,94.184,NaN,0.076015,6197603,4398.3,5.1914,0.51425,0.62989,0.35116,0.042338,0.12075,NaN,NaN,NaN,NaN,NaN,NaN,NaN,NaN,0.0032521,6.2992,201.06,84,0,NaN,14.979,1012.9,340.38,0.01,0.0091823
0.29,3.5567,26.217,100.02,26.362,100.57,0.37383,0,0.37383,0,2.7556,10.513,28.61,-80.6,9.7922,11.093,0,0,0,39930,11695,60.392,0.30705,NaN,94.161,NaN,0.078924,6434605,4410.3,5.5585,0.51431,0.62566,0.35115,0.04235,0.12081,NaN,NaN,NaN,NaN,NaN,NaN,NaN,NaN,0.0033807,6.2992,201.06,84,0,NaN,14.977,1012.8,340.37,0.01,0.0093304
0.3,3.8239,27.218,100.37,27.368,100.92,0.40191,0,0.40191,0,2.8607,10.549,28.61,-80.6,9.7922,10.763,0,0,0,39907,11671,60.37,0.3068,NaN,94.139,NaN,0.081846,6672666,4422.2,5.9388,0.51436,0.62161,0.35113,0.042361,0.12087,NaN,NaN,NaN,NaN,NaN,NaN,NaN,NaN,0.0035098,6.2992,201.06,84,0,NaN,14.975,1012.8,340.37,0.01,0.009555
0.31,4.1011,28.222,100.72,28.378,101.27,0.43105,0,0.43105,0,2.9663,10.586,28.61,-80.6,9.7922,10.326,0,0,0,39883,11647,60.348,0.30656,NaN,94.117,NaN,0.084745,6908898,4433.7,6.3102,0.51442,0.61607,0.35112,0.042373,0.12093,NaN,NaN,NaN,NaN,NaN,NaN,NaN,NaN,0.0036392,6.2992,201.06,84,0,NaN,14.973,1012.8,340.37,0.01,0.0098181
0.32,4.3884,29.23,101.06,29.391,101.62,0.46124,0,0.46124,0,3.0722,10.622,28.61,-80.6,9.7922,9.9171,0,0,0,39859,11623,60.327,0.30631,NaN,94.094,NaN,0.08766,7146308,4445.3,6.6934,0.51448,0.61077,0.3511,0.042385,0.121,NaN,NaN,NaN,NaN,NaN,NaN,NaN,NaN,0.0037692,6.2992,201.06,84,0,NaN,14.971,1012.7,340.37,0.01,0.010072
0.33,4.6857,30.241,101.41,30.408,101.97,0.49249,0,0.49249,0,3.1785,10.658,28.61,-80.6,9.7922,9.5332,0,0,0,39835,11599,60.305,0.30606,NaN,94.072,NaN,0.090588,7384865,4456.9,7.0888,0.51454,0.60573,0.35108,0.042398,0.12107,NaN,NaN,NaN,NaN,NaN,NaN,NaN,NaN,0.0038996,6.2992,201.06,84,0,NaN,14.97,1012.7,340.37,0.01,0.010223
0.34,4.9932,31.256,101.56,31.428,102.24,0.52481,0,0.52481,0,3.2851,11.719,28.61,-80.6,9.7922,9.1723,0,0,0,39811,11575,60.283,0.30581,92.63,94.05,-0.22535,0.093531,7624538,4462.1,7.4967,0.51461,0.60094,0.35106,0.042411,0.12114,2.1564,-0.48604,-2.6702e-4,0,0,0,0,0,0.0040304,6.2992,201.06,84,0,NaN,14.968,1012.7,340.37,0.015,0.010398
0.355,5.4735,32.779,101.08,32.961,101.75,0.5754,-7.6407e-5,0.5754,-0.0076082,3.4606,11.667,28.61,-80.6,9.7922,8.6359,0,-3.2293e-5,3.9171e-8,39781,11545,60.256,0.30551,93.058,94.022,-0.15292,0.097951,7984549,4442.7,8.1235,0.51471,0.59377,0.35103,0.042431,0.12125,1.9895,-0.30393,4.4492e-4,0,0,0,0,-3.3331e-7,0.0042278,6.2992,201.06,84,-8.8593e-4,NaN,14.964,1012.6,340.37,0.0225,0.0106
0.3775,6.2366,35.055,101.33,35.253,102,0.65622,-4.7994e-4,0.65622,-0.041905,3.7229,11.69,28.61,-80.6,9.7922,7.8683,0,-5.7078e-5,2.5235e-7,39736,11500,60.215,0.30505,93.706,93.98,-0.043483,0.10456,8522482,4451.1,9.1034,0.51532,0.58401,0.35098,0.042913,0.12142,1.7594,-0.076435,-1.0545e-4,0,0,0,0,-9.1387e-7,0.0045228,6.2992,201.06,84,-0.0045309,NaN,14.959,1012.5,340.36,0.03375,0.010761
0.41125,7.4775,38.481,101.75,38.701,102.43,0.78851,-0.0017421,0.78852,-0.12659,4.1175,11.73,28.61,-80.6,9.7922,7.0201,0,-4.3579e-5,6.7499e-7,39669,11434,60.154,0.30436,94.473,93.917,0.088336,0.11456,9337204,4461.6,10.741,0.51657,0.57402,0.35091,0.043953,0.12171,1.517,0.13382,2.245e-4,0,0,0,0,-4.4373e-7,0.0049668,6.2992,201.06,84,-0.010894,NaN,14.951,1012.4,340.36,0.05,0.011043
0.46125,9.529,43.581,102.23,43.834,102.91,1.009,-0.0051417,1.009,-0.29196,4.7044,11.775,28.61,-80.6,9.7921,6.2239,0,5.6798e-5,6.7942e-7,39571,11335,60.063,0.30335,95.25,93.824,0.22645,0.12955,10556848,4470.6,13.534,0.51848,0.56576,0.35078,0.045517,0.12218,1.3009,0.29422,2.5319e-4,0,0,0,0,5.8946e-7,0.0056279,6.2992,201.06,84,-0.010894,NaN,14.938,1012.1,340.35,0.05,0.011204
0.51125,11.836,48.704,102.06,48.991,102.73,1.2589,-0.010489,1.259,-0.47734,5.2935,11.746,28.61,-80.6,9.7921,5.2983,0,2.7366e-4,-1.2291e-6,39453,11218,59.955,0.30214,96.226,93.713,0.39909,0.14456,11777637,4453.6,16.571,0.52044,0.55649,0.35063,0.047092,0.12272,1.0638,0.42451,4.5256e-4,0,0,0,0,1.099e-5,0.0062922,6.2992,201.06,84,0.015828,NaN,14.923,1011.9,340.34,0.05,0.011356
0.56125,14.399,53.819,100.07,54.139,100.73,1.5382,-0.017859,1.5383,-0.66519,5.8813,11.531,28.61,-80.6,9.7921,4.94,0,5.9255e-4,-5.2542e-6,39337,11102,59.847,0.30095,96.632,93.602,0.48102,0.15967,13005530,4365.3,20.137,0.52247,0.55449,0.35047,0.048685,0.12331,0.97614,0.46929,3.3767e-4,0,0,0,0,4.2241e-5,0.0069555,6.2992,201.06,84,0.089004,NaN,14.906,1011.6,340.33,0.05,0.011506
0.61125,17.215,58.833,98.372,59.186,99.024,1.8465,-0.027424,1.8467,-0.85089,6.4581,11.345,28.61,-80.6,9.7921,4.5321,0,0.0010114,-1.3148e-5,39224,10988,59.741,0.29979,97.11,93.493,0.57419,0.17446,14206797,4289.7,23.929,0.52451,0.5521,0.3503,0.050253,0.12396,0.87913,0.50484,-4.6218e-4,0,0,0,0,1.0309e-4,0.0076061,6.2992,201.06,83.999,0.22548,NaN,14.888,1011.2,340.32,0.05,0.011712
0.66125,20.28,63.762,86.44,64.147,87.027,2.1834,-0.039298,2.1838,-1.0311,7.0255,10.085,28.61,-80.6,9.7921,4.1916,0,0.0015345,-2.5608e-5,39114,10878,59.637,0.29867,97.525,93.387,0.65701,0.18901,15387501,3812.5,28.003,0.52656,0.55064,0.35011,0.051803,0.12464,0.80042,0.52617,6.8652e-5,0,0,0,0,2.022e-4,0.0082458,6.2992,201.06,83.998,0.44284,NaN,14.868,1010.9,340.31,0.05,0.011875
0.71125,23.576,68.092,26.27,68.507,26.55,2.547,-0.05356,2.5476,-1.2047,7.5295,3.8437,28.61,-80.6,9.7921,3.9171,0,0.0021577,-4.3466e-5,39012,10777,59.542,0.29766,97.871,93.289,0.72746,0.2018,16424026,1446.1,31.858,0.5284,0.54977,0.34994,0.053173,0.12529,0.73849,0.53679,-4.2527e-4,0,0,0,0,3.5072e-4,0.0088083,6.2992,201.06,83.996,0.75862,NaN,14.847,1010.5,340.3,0.05,0.012026
0.76125,27.014,69.407,9.5149,69.835,9.7591,2.9278,-0.070305,2.9286,-1.3756,7.7165,2.1696,28.61,-80.6,9.7921,3.6312,0,0.002839,-7.8775e-5,38946,10710,59.48,0.29705,98.236,93.225,0.7956,0.20566,16733189,788.58,32.944,0.52897,0.54759,0.34988,0.053587,0.1255,0.67528,0.53706,-4.3764e-4,0,0,0,0,5.8466e-4,0.0089823,6.2992,201.06,83.992,1.1869,NaN,14.824,1010.1,340.28,0.05,0.012186
0.81125,30.496,69.883,10.741,70.319,10.973,3.3156,-0.08949,3.3168,-1.5461,7.8149,2.2432,28.61,-80.6,9.7921,3.4202,0,0.0035296,-1.2497e-4,38915,10680,59.454,0.29687,98.511,93.196,0.84375,0.20706,16841742,836.25,33.274,0.52917,0.54586,0.34986,0.053737,0.12557,0.62955,0.53017,-1.0839e-4,0,0,0,0,8.9157e-4,0.0090478,6.2992,201.06,83.987,1.7322,NaN,14.802,1009.7,340.27,0.05,0.012361
0.86125,34.004,70.42,12.019,70.864,12.247,3.7084,-0.11099,3.71,-1.7144,7.9195,2.353,28.61,-80.6,9.7921,3.4208,0,0.0042296,-1.5788e-4,38895,10659,59.438,0.29681,98.512,93.178,0.84667,0.20869,16969085,886.25,33.802,0.52941,0.54612,0.34984,0.053912,0.12566,0.6297,0.5322,4.7197e-5,0,0,0,0,0.0012605,0.0091211,6.2992,201.06,83.979,2.3947,NaN,14.779,1009.3,340.25,0.05,0.012512
0.91125,37.54,71.022,13.298,71.474,13.522,4.1064,-0.13473,4.1086,-1.8792,8.0305,2.4469,28.61,-80.6,9.7921,3.2777,0,0.0049333,-2.173e-4,38875,10639,59.421,0.29675,98.702,93.16,0.87979,0.21048,17109238,936.25,34.307,0.52968,0.54512,0.34981,0.054105,0.12576,0.59916,0.52593,-3.9691e-5,0,0,0,0,0.001686,0.0092024,6.2992,201.06,83.969,3.1744,NaN,14.756,1008.8,340.24,0.05,0.012861
0.96125,41.108,71.687,14.543,72.148,14.766,4.51,-0.16056,4.5129,-2.0389,8.1479,2.5561,28.61,-80.6,9.7921,3.2822,0,0.0056512,-2.5475e-4,38854,10619,59.405,0.29669,98.697,93.142,0.88193,0.21249,17267695,984.98,34.975,0.52997,0.54546,0.34978,0.054322,0.12587,0.60013,0.52693,3.9331e-4,0,0,0,0,0.0021708,0.0092919,6.2992,201.06,83.955,4.0706,NaN,14.733,1008.4,340.23,0.05,0.013499
1.0113,44.71,72.414,14.928,72.885,15.145,4.9196,-0.18837,4.9232,-2.1928,8.2714,2.5601,28.61,-80.6,9.792,3.0608,0,0.0063677,-3.5307e-4,38832,10596,59.387,0.29663,98.997,93.122,0.93275,0.21464,17436908,1e3,35.569,0.53029,0.54391,0.34975,0.054553,0.12599,0.55356,0.5136,1.7215e-4,0,0,0,0,0.0027013,0.0093891,6.2992,201.06,83.936,5.0824,NaN,14.709,1008,340.21,0.05,0.013665
1.0613,48.349,73.161,14.931,73.641,15.147,5.3352,-0.21793,5.3397,-2.3391,8.3968,2.5468,28.61,-80.6,9.792,3.0419,0,0.0070952,-3.9886e-4,38799,10563,59.36,0.29653,99.025,93.092,0.94174,0.2169,17614826,1e3,36.319,0.53063,0.54409,0.34971,0.054797,0.12612,0.54964,0.51471,-2.4256e-4,0,0,0,0,0.0032846,0.0094885,6.2992,201.06,83.912,6.2067,NaN,14.686,1007.6,340.2,0.05,0.013819
1.1113,52.026,73.908,14.94,74.398,15.153,5.7571,-0.2491,5.7624,-2.4776,8.5219,2.5315,28.61,-80.6,9.792,2.9829,0,0.0078361,-4.5972e-4,38758,10522,59.327,0.29641,99.107,93.056,0.96059,0.21916,17792230,1e3,37.053,0.53096,0.54396,0.34968,0.05504,0.12624,0.53743,0.51266,-3.0559e-5,0,0,0,0,0.0039248,0.0095878,6.2992,201.06,83.883,7.4414,NaN,14.662,1007.1,340.18,0.05,0.014003
1.1613,55.74,74.656,14.948,75.155,15.159,6.185,-0.28175,6.1914,-2.6082,8.6468,2.5181,28.61,-80.6,9.792,2.926,0,0.0085908,-5.2056e-4,38717,10482,59.294,0.29629,99.187,93.019,0.97909,0.22142,1.797e7,1e3,37.797,0.5313,0.54384,0.34965,0.055284,0.12637,0.5257,0.50961,-1.6674e-4,0,0,0,0,0.0046217,0.009687,6.2992,201.06,83.846,8.7836,NaN,14.638,1006.7,340.17,0.05,0.014165
1.2113,59.492,75.404,14.957,75.912,15.164,6.6192,-0.31569,6.6267,-2.7306,8.7716,2.5026,28.61,-80.6,9.792,2.7917,0,0.0093477,-6.254e-4,38676,10441,59.261,0.29617,99.375,92.983,1.0148,0.22366,18146347,1e3,38.5,0.53164,0.54313,0.34961,0.055527,0.1265,0.49821,0.5007,-1.4159e-4,0,0,0,0,0.0053631,0.009786,6.2992,201.06,83.801,10.229,NaN,14.613,1006.3,340.15,0.05,0.014321
1.2613,63.281,76.152,14.965,76.67,15.17,7.0595,-0.35068,7.0682,-2.8438,8.8961,2.4886,28.61,-80.6,9.792,2.5578,0,0.010093,-8.1707e-4,38636,10400,59.228,0.29605,99.709,92.946,1.0736,0.22589,18320810,1e3,39.151,0.53198,0.54173,0.34958,0.055768,0.12663,0.45109,0.47795,2.4452e-4,0,0,0,0,0.00613,0.0098846,6.2992,201.06,83.747,11.769,NaN,14.589,1005.8,340.14,0.05,0.014471
1.3113,67.107,76.901,14.973,77.428,15.178,7.506,-0.38632,7.5159,-2.9463,9.0203,2.4846,28.61,-80.6,9.792,2.0962,0,0.010748,-0.0013117,38595,10359,59.194,0.29594,100.39,92.909,1.1876,0.22806,18490721,1e3,39.688,0.5323,0.53899,0.34954,0.056003,0.12676,0.36095,0.42206,-1.7808e-4,0,0,0,0,0.0068212,0.0099825,6.2992,201.06,83.683,13.391,NaN,14.564,1005.4,340.12,0.05,0.01462
1.3613,70.971,77.65,14.978,78.187,15.185,7.9587,-0.42205,7.9699,-3.0356,9.1442,2.5007,28.61,-80.6,9.792,1.7965,0,0.011322,-0.0017889,38554,10319,59.161,0.29582,100.85,92.872,1.2667,0.23028,18664207,1e3,40.343,0.53264,0.53762,0.3495,0.056243,0.12689,0.30449,0.37876,5.987e-4,0,0,0,0,0.0074241,0.01008,6.2992,201.06,83.609,15.074,NaN,14.539,1004.9,340.11,0.05,0.014769
1.4113,74.872,78.4,14.982,78.946,15.194,8.4176,-0.45741,8.43,-3.1104,9.2681,2.5292,28.61,-80.6,9.7919,1.5737,0,0.011827,-0.0022651,38514,10278,59.128,0.2957,101.2,92.835,1.3286,0.23252,18839319,1e3,41.053,0.53298,0.53684,0.34947,0.056485,0.12703,0.26357,0.34202,4.7346e-4,0,0,0,0,0.0079469,0.010176,6.2992,201.06,83.523,16.8,NaN,14.513,1004.5,340.09,0.05,0.014917
1.4613,78.811,79.149,14.983,79.705,15.202,8.8828,-0.49197,8.8965,-3.17,9.3922,2.5691,28.61,-80.6,9.7919,1.3823,0,0.01226,-0.0027916,38473,10237,59.094,0.29558,101.52,92.798,1.3838,0.23477,19015115,1e3,41.793,0.53333,0.53633,0.34943,0.05673,0.12717,0.22914,0.30898,3.7062e-4,0,0,0,0,0.0083767,0.010273,6.2992,201.06,83.425,18.549,NaN,14.488,1004,340.08,0.05,0.015067
1.5113,82.787,79.899,14.983,80.464,15.212,9.3544,-0.52533,9.3691,-3.2143,9.5166,2.6267,28.61,-80.6,9.7919,1.1466,0,0.01251,-0.0037108,38432,10196,59.061,0.29546,101.91,92.761,1.4518,0.23701,1.919e7,1e3,42.529,0.53367,0.53576,0.34939,0.056973,0.1273,0.18762,0.26375,7.7834e-4,0,0,0,0,0.0085592,0.010368,6.2992,201.06,83.315,20.305,NaN,14.462,1003.5,340.06,0.05,0.015216
1.5613,86.801,80.648,14.98,81.223,15.224,9.8323,-0.55703,9.848,-3.2425,9.6414,2.7142,28.61,-80.6,9.7919,0.81428,0,0.011973,-0.0060594,38391,10156,59.027,0.29534,102.48,92.724,1.548,0.23922,19362329,1e3,43.252,0.53401,0.53508,0.34936,0.057213,0.12744,0.1308,0.19442,0.0019376,0,0,0,0,0.0076955,0.010463,6.2992,201.06,83.193,22.048,NaN,14.436,1003.1,340.05,0.05,0.015366
1.6113,90.852,81.398,14.975,81.982,15.236,10.317,-0.58651,10.333,-3.2538,9.767,2.8091,28.61,-80.6,9.7919,0.59041,0,0.010094,-0.0092121,38351,10115,58.993,0.29522,102.87,92.687,1.6168,0.24146,19536219,1e3,44.03,0.53435,0.53492,0.34932,0.057456,0.12758,0.093652,0.14646,0.00422,0,0,0,0,0.0053692,0.010557,6.2992,201.06,83.059,23.754,NaN,14.409,1002.6,340.03,0.05,0.01558
1.6613,94.94,82.147,14.968,82.74,15.248,10.807,-0.61327,10.825,-3.2478,9.8937,2.9088,28.61,-80.6,9.7919,0.46775,0,0.0061129,-0.012402,38310,10074,58.96,0.2951,103.09,92.649,1.658,0.24371,19711127,1e3,44.844,0.5347,0.53506,0.34928,0.057701,0.12772,0.07368,0.12028,0.0081779,0,0,0,0,0.0019333,0.010651,6.2992,201.06,82.915,25.404,NaN,14.383,1002.1,340.01,0.05,0.015816
1.7113,99.066,82.895,14.957,83.499,15.264,11.305,-0.63681,11.323,-3.2241,10.022,3.0446,28.61,-80.6,9.7919,0.50378,0,-0.0045624,-0.013071,38269,10033,58.926,0.29498,103.03,92.612,1.6539,0.24592,19883042,1e3,45.675,0.53505,0.53546,0.34924,0.057942,0.12786,0.079524,0.13212,0.0090374,0,0,0,0,-0.0010578,0.010744,6.2992,201.06,82.762,26.982,NaN,14.356,1001.6,340,0.05,0.016044
1.7613,103.23,83.643,14.947,84.257,15.277,11.809,-0.65656,11.827,-3.1824,10.151,3.1599,28.61,-80.6,9.7919,0.60376,0,-0.0078397,-0.011266,38228,9992.7,58.892,0.29486,102.85,92.574,1.6317,0.24818,20058317,1e3,46.541,0.5354,0.53599,0.3492,0.058188,0.12801,0.095858,0.15975,0.0067082,0,0,0,0,-0.0030668,0.010835,6.2992,201.06,82.601,28.466,NaN,14.329,1001.1,339.98,0.05,0.016195
1.8113,107.43,84.391,14.936,85.015,15.291,12.319,-0.67209,12.338,-3.1228,10.282,3.2736,28.61,-80.6,9.7918,0.69419,0,-0.0092531,-0.0098839,38188,9951.9,58.858,0.29474,102.69,92.537,1.6125,0.25045,20234296,1e3,47.421,0.53575,0.53654,0.34916,0.058436,0.12815,0.11079,0.18256,0.0048291,0,0,0,0,-0.0041957,0.010927,6.2992,201.06,82.434,29.847,NaN,14.302,1000.7,339.97,0.05,0.016343
1.8613,111.67,85.138,14.917,85.773,15.309,12.837,-0.68297,12.855,-3.0456,10.416,3.4408,28.61,-80.6,9.7918,0.98793,0,-0.01073,-0.0077237,38147,9911.2,58.824,0.29462,102.19,92.499,1.5378,0.25267,20405897,1e3,48.343,0.5361,0.53767,0.34912,0.058678,0.1283,0.16031,0.25213,0.0024862,0,0,0,0,-0.0055436,0.011017,6.2992,201.06,82.263,31.12,NaN,14.274,1000.2,339.95,0.05,0.016602
1.9113,115.94,85.884,14.898,86.529,15.328,13.361,-0.68863,13.378,-2.9505,10.553,3.6051,28.61,-80.6,9.7918,1.2416,0,-0.010921,-0.0066078,38106,9870.5,58.79,0.2945,101.76,92.461,1.4764,0.2549,20578271,1e3,49.288,0.53645,0.5389,0.34909,0.058921,0.12845,0.20434,0.30738,0.0023015,0,0,0,0,-0.0056439,0.011107,6.2992,201.06,82.089,32.275,NaN,14.246,999.65,339.93,0.05,0.016779
1.9613,120.26,86.628,14.875,87.286,15.348,13.892,-0.6885,13.909,-2.8373,10.692,3.7819,28.61,-80.6,9.7918,1.5139,0,-0.010681,-0.0058485,38065,9829.7,58.756,0.29439,101.32,92.423,1.4121,0.25712,2.075e7,1e3,50.266,0.5368,0.54041,0.34905,0.059164,0.12859,0.25288,0.3625,0.0013854,0,0,0,0,-0.0053054,0.011196,6.2992,201.06,81.916,33.307,NaN,14.218,999.15,339.92,0.05,0.017059
2.0113,124.61,87.372,14.858,88.041,15.365,14.43,-0.68206,14.446,-2.7062,10.835,3.9147,28.61,-80.6,9.7918,1.6207,0,-0.010127,-0.0054764,38025,9789,58.722,0.29427,101.15,92.385,1.3913,0.25938,20924135,1e3,51.209,0.53716,0.54128,0.349,0.059411,0.12875,0.27231,0.38374,8.7293e-4,0,0,0,0,-0.0046874,0.011284,6.2992,201.06,81.746,34.212,NaN,14.19,998.64,339.9,0.05,0.017213
2.0613,128.99,88.115,14.836,88.797,15.385,14.975,-0.6689,14.99,-2.5576,10.982,4.07,28.61,-80.6,9.7918,1.7976,0,-0.0094914,-0.0051224,37984,9748.2,58.687,0.29415,100.87,92.347,1.3534,0.26162,21096495,1e3,52.192,0.53752,0.54254,0.34896,0.059656,0.1289,0.30492,0.41717,9.0099e-4,0,0,0,0,-0.0040477,0.011372,6.2992,201.06,81.58,34.993,NaN,14.162,998.12,339.88,0.05,0.017363
2.1113,133.42,88.857,14.813,89.551,15.406,15.528,-0.64858,15.541,-2.3918,11.133,4.2324,28.61,-80.6,9.7918,1.9916,0,-0.0087266,-0.004844,37943,9707.5,58.653,0.29403,100.58,92.309,1.3122,0.26385,21267867,1e3,53.199,0.53787,0.544,0.34892,0.0599,0.12905,0.34135,0.45133,8.5465e-4,0,0,0,0,-0.0033644,0.011459,6.2992,201.06,81.421,35.653,NaN,14.133,997.6,339.86,0.05,0.017511
2.1613,137.88,89.597,14.796,90.306,15.421,16.088,-0.62066,16.099,-2.2094,11.289,4.3465,28.61,-80.6,9.7918,2.0477,0,-0.0078441,-0.004662,37902,9666.8,58.618,0.29391,100.49,92.271,1.305,0.26611,21441310,1e3,54.154,0.53823,0.5447,0.34888,0.060148,0.12921,0.35202,0.46217,9.8157e-4,0,0,0,0,-0.0026727,0.011545,6.2992,201.06,81.269,36.192,NaN,14.104,997.08,339.85,0.05,0.017723
2.2113,142.38,90.337,14.79,91.06,15.428,16.655,-0.58488,16.665,-2.0113,11.45,4.3898,28.61,-80.6,9.7917,1.9172,0,-0.0069468,-0.0045321,37862,9626,58.584,0.29379,100.69,92.233,1.343,0.26841,21618301,1e3,55.027,0.5386,0.5443,0.34884,0.0604,0.12937,0.32734,0.44145,5.7878e-4,0,0,0,0,-0.0020606,0.011631,6.2992,201.06,81.127,36.616,NaN,14.075,996.55,339.83,0.05,0.017933
2.2613,146.91,91.077,14.775,91.815,15.443,17.23,-0.54116,17.238,-1.799,11.615,4.4922,28.61,-80.6,9.7917,1.9686,0,-0.0060531,-0.0043944,37821,9585.3,58.549,0.29367,100.62,92.195,1.3369,0.27066,21790954,1e3,55.993,0.53897,0.54497,0.34879,0.060648,0.12952,0.33705,0.45231,0.0010331,0,0,0,0,-0.0015388,0.011717,6.2992,201.06,80.994,36.934,NaN,14.045,996.02,339.81,0.05,0.018177
2.3113,151.49,91.816,14.761,92.569,15.456,17.812,-0.48928,17.819,-1.5734,11.785,4.5821,28.61,-80.6,9.7917,1.9991,0,-0.0050998,-0.004284,37780,9544.5,58.515,0.29355,100.57,92.156,1.3359,0.27292,21963434,1e3,56.955,0.53933,0.54551,0.34875,0.060895,0.12968,0.34284,0.45874,4.7003e-4,0,0,0,0,-0.0010744,0.011802,6.2992,201.06,80.871,37.151,NaN,14.015,995.48,339.79,0.05,0.018328
2.3612,156.1,92.554,14.765,93.324,15.454,18.403,-0.4291,18.408,-1.3357,11.959,4.5656,28.61,-80.6,9.7917,1.7583,0,-0.004197,-0.0041775,37739,9503.8,58.48,0.29343,100.95,92.118,1.4014,0.27525,22142172,1e3,57.799,0.53971,0.54454,0.34871,0.061152,0.12985,0.29774,0.41797,9.2162e-4,0,0,0,0,-7.1546e-4,0.011888,6.2992,201.06,80.76,37.269,NaN,13.985,994.94,339.77,0.05,0.018477
2.4112,160.74,93.293,14.758,94.079,15.461,19.001,-0.36075,19.005,-1.0876,12.137,4.608,28.61,-80.6,9.7917,1.6956,0,-0.0033338,-0.0040914,37699,9463.1,58.445,0.29331,101.05,92.079,1.4234,0.27753,22316257,1e3,58.732,0.54008,0.54459,0.34866,0.061402,0.13001,0.28618,0.40822,4.7554e-4,0,0,0,0,-4.441e-4,0.011973,6.2992,201.06,80.659,37.301,NaN,13.955,994.4,339.76,0.05,0.018691
2.4612,165.42,94.031,14.748,94.835,15.471,19.608,-0.2842,19.61,-0.83039,12.32,4.6745,28.61,-80.6,9.7917,1.7155,0,-0.0024388,-0.0040349,37658,9422.3,58.41,0.29319,101.02,92.04,1.4249,0.27978,22487542,1e3,59.706,0.54044,0.54506,0.34862,0.06165,0.13018,0.28987,0.41334,7.7107e-4,0,0,0,0,-2.3388e-4,0.012059,6.2992,201.06,80.57,37.251,NaN,13.925,993.85,339.74,0.05,0.018977
2.5112,170.14,94.769,14.741,95.59,15.477,20.223,-0.19938,20.224,-0.56486,12.508,4.7155,28.61,-80.6,9.7917,1.6835,0,-0.0015339,-0.0039938,37617,9381.6,58.375,0.29307,101.07,92.002,1.4393,0.28203,2.266e7,1e3,60.663,0.54081,0.54527,0.34857,0.061899,0.13034,0.28399,0.40888,6.8463e-4,0,0,0,0,-9.1051e-5,0.012144,6.2992,201.06,80.492,37.121,NaN,13.894,993.29,339.72,0.05,0.019142
2.5612,174.9,95.506,14.739,96.347,15.48,20.846,-0.10625,20.846,-0.29202,12.699,4.7334,28.61,-80.6,9.7916,1.6085,0,-6.3488e-4,-0.0039708,37576,9340.8,58.34,0.29295,101.19,91.963,1.4647,0.2843,22832312,1e3,61.609,0.54118,0.54527,0.34853,0.062149,0.13051,0.27027,0.39567,2.2557e-4,0,0,0,0,-1.5352e-5,0.01223,6.2992,201.06,80.426,36.913,NaN,13.863,992.74,339.7,0.05,0.019422
2.6112,179.7,96.244,14.744,97.103,15.477,21.478,-0.0048951,21.478,-0.013059,12.894,4.7039,28.61,-80.6,9.7916,1.4255,0,1.5719e-4,-0.0039628,37536,9300.1,58.305,0.29284,101.49,91.924,1.5179,0.28661,23007814,1e3,62.523,0.54156,0.5448,0.34848,0.062404,0.13068,0.23717,0.36019,8.7331e-4,0,0,0,0,9.2609e-7,0.012316,6.2992,201.06,80.372,36.632,NaN,13.832,992.17,339.68,0.05,0.019892
2.6612,184.53,96.981,14.743,97.861,15.479,22.118,0.1045,22.118,0.2707,13.091,4.7163,28.61,-80.6,9.7916,1.3719,0,9.642e-4,-0.0039797,37495,9259.4,58.27,0.29272,101.57,91.885,1.5383,0.28887,23178933,1e3,63.492,0.54194,0.54494,0.34844,0.062653,0.13085,0.2276,0.35007,9.1099e-4,0,0,0,0,3.4307e-5,0.012402,6.2992,201.06,80.33,36.284,NaN,13.801,991.61,339.66,0.05,0.020114
2.7112,189.39,97.719,14.748,98.619,15.476,22.767,0.22181,22.768,0.5582,13.292,4.6917,28.61,-80.6,9.7916,1.2362,0,0.0016683,-0.00403,37454,9218.6,58.235,0.2926,101.8,91.846,1.5802,0.29115,23352153,1e3,64.443,0.54232,0.54477,0.34839,0.062906,0.13102,0.20359,0.32117,4.9891e-4,0,0,0,0,1.0112e-4,0.012488,6.2992,201.06,80.298,35.875,NaN,13.769,991.04,339.64,0.05,0.020269
2.7612,194.3,98.457,14.748,99.377,15.476,23.425,0.34688,23.428,0.84839,13.495,4.6922,28.61,-80.6,9.7916,1.1853,0,0.0024044,-0.0040854,37414,9177.9,58.2,0.29248,101.89,91.807,1.6002,0.2934,23522101,1e3,65.425,0.54269,0.54495,0.34834,0.063154,0.13119,0.19466,0.31081,5.1589e-4,0,0,0,0,2.0685e-4,0.012575,6.2992,201.06,80.277,35.406,NaN,13.737,990.46,339.62,0.05,0.020422
2.8112,199.24,99.195,14.76,100.14,15.467,24.092,0.47954,24.097,1.1403,13.7,4.6247,28.61,-80.6,9.7916,0.96527,0,0.0028557,-0.004278,37373,9137.1,58.164,0.29236,102.26,91.767,1.6658,0.29572,23697347,1e3,66.379,0.54307,0.54459,0.3483,0.063411,0.13137,0.15662,0.26078,5.0738e-4,0,0,0,0,2.8726e-4,0.012662,6.2992,201.06,80.267,34.884,NaN,13.705,989.88,339.6,0.05,0.020586
2.8612,204.22,99.933,14.765,100.9,15.463,24.768,0.61947,24.775,1.4327,13.906,4.5927,28.61,-80.6,9.7915,0.85745,0,0.003285,-0.0044421,37332,9096.4,58.129,0.29224,102.45,91.728,1.7018,0.29799,23868458,1e3,67.369,0.54345,0.54466,0.34825,0.063662,0.13154,0.1383,0.23522,0.0010035,0,0,0,0,3.7439e-4,0.01275,6.2992,201.06,80.265,34.316,NaN,13.673,989.3,339.58,0.05,0.020795
2.9112,209.23,100.67,14.769,101.66,15.461,25.453,0.76643,25.464,1.7248,14.114,4.5719,28.61,-80.6,9.7915,0.79491,0,0.0037441,-0.0045827,37291,9055.6,58.093,0.29212,102.56,91.689,1.7256,0.30023,24037466,1e3,68.374,0.54383,0.54487,0.3482,0.063911,0.13172,0.12777,0.21989,4.3577e-4,0,0,0,0,4.7917e-4,0.012838,6.2992,201.06,80.272,33.709,NaN,13.64,988.71,339.56,0.05,0.021006
2.9612,214.28,101.41,14.779,102.42,15.453,26.147,0.92021,26.163,2.0156,14.322,4.5126,28.61,-80.6,9.7915,0.64089,0,0.0037718,-0.0049914,37251,9014.9,58.058,0.292,102.83,91.649,1.7752,0.30252,2.421e7,1e3,69.381,0.54421,0.54489,0.34815,0.064165,0.1319,0.10213,0.18123,0.001313,0,0,0,0,4.7901e-4,0.012926,6.2992,201.06,80.287,33.065,NaN,13.607,988.12,339.54,0.05,0.02123
3.0112,219.37,102.15,14.785,103.18,15.448,26.85,1.0805,26.872,2.3045,14.531,4.4782,28.61,-80.6,9.7915,0.5686,0,0.0039203,-0.0052598,37210,8974.2,58.022,0.29188,102.96,91.61,1.8023,0.30476,24378293,1e3,70.403,0.54459,0.54513,0.3481,0.064414,0.13207,0.090243,0.16213,6.5293e-4,0,0,0,0,5.0992e-4,0.013015,6.2992,201.06,80.309,32.393,NaN,13.574,987.52,339.52,0.05,0.021478
3.0612,224.5,102.89,14.797,103.94,15.438,27.562,1.2471,27.591,2.5906,14.739,4.402,28.61,-80.6,9.7915,0.4062,0,0.0027697,-0.006172,37169,8933.4,57.986,0.29176,103.26,91.57,1.8555,0.30707,24551086,1e3,71.444,0.54498,0.54526,0.34805,0.06467,0.13226,0.063876,0.11857,0.0015151,0,0,0,0,2.5076e-4,0.013105,6.2992,201.06,80.337,31.697,NaN,13.541,986.92,339.5,0.05,0.021635
3.1112,229.66,103.63,14.804,104.7,15.431,28.284,1.4195,28.32,2.8732,14.947,4.353,28.61,-80.6,9.7915,0.33374,0,0.0016211,-0.0066764,37128,8892.7,57.95,0.29164,103.39,91.53,1.8832,0.30932,2.472e7,1e3,72.493,0.54537,0.54555,0.34801,0.064921,0.13244,0.052266,0.098143,0.0017021,0,0,0,0,8.4666e-5,0.013195,6.2992,201.06,80.369,30.99,NaN,13.507,986.31,339.48,0.05,0.021787
3.1612,234.86,104.37,14.811,105.47,15.425,29.015,1.5976,29.059,3.1516,15.155,4.3097,28.61,-80.6,9.7915,0.28915,0,4.0154e-4,-0.0069097,37088,8851.9,57.914,0.29152,103.48,91.49,1.9029,0.31157,24888025,1e3,73.549,0.54575,0.54589,0.34796,0.065171,0.13262,0.045169,0.086149,0.0015688,0,0,0,0,5.1204e-6,0.013285,6.2992,201.06,80.405,30.279,NaN,13.473,985.7,339.46,0.05,0.022056
3.2112,240.1,105.11,14.819,106.23,15.417,29.756,1.7811,29.809,3.4254,15.361,4.2533,28.61,-80.6,9.7914,0.262,0,-0.0022665,-0.0065069,37047,8811.2,57.878,0.29141,103.53,91.45,1.9176,0.31383,25057080,1e3,74.624,0.54613,0.54625,0.34791,0.065423,0.1328,0.040866,0.078948,0.0013466,0,0,0,0,-1.6081e-4,0.013376,6.2992,201.06,80.444,29.569,NaN,13.439,985.09,339.44,0.05,0.022348
3.2612,245.37,105.85,14.827,106.99,15.409,30.506,1.9696,30.569,3.6941,15.567,4.1933,28.61,-80.6,9.7914,0.28854,0,-0.004692,-0.0048969,37006,8770.5,57.842,0.29129,103.48,91.41,1.9165,0.3161,25226304,1e3,75.717,0.54652,0.54666,0.34786,0.065676,0.13299,0.045079,0.086859,0.0010042,0,0,0,0,-6.794e-4,0.013467,6.2992,201.06,80.486,28.868,NaN,13.405,984.47,339.42,0.05,0.022617
3.3112,250.69,106.6,14.841,107.76,15.395,31.265,2.1628,31.34,3.9571,15.77,4.0952,28.61,-80.6,9.7914,0.4907,0,-0.0061371,-0.0020099,36965,8729.7,57.806,0.29117,103.12,91.37,1.8646,0.31845,25401239,1e3,76.889,0.54693,0.54733,0.3478,0.065937,0.13318,0.077567,0.14529,-1.7924e-4,0,0,0,0,-0.0011454,0.01356,6.2992,201.06,80.527,28.189,NaN,13.371,983.85,339.4,0.05,0.022957
3.3612,256.03,107.34,14.846,108.52,15.389,32.034,2.3602,32.12,4.2139,15.971,4.0517,28.61,-80.6,9.7914,0.53055,0,-0.0058233,-0.0014439,36925,8689,57.77,0.29105,103.05,91.33,1.8599,0.32069,25568003,1e3,77.992,0.54731,0.54778,0.34775,0.066188,0.13337,0.084065,0.15706,-2.4549e-4,0,0,0,0,-0.001017,0.013652,6.2992,201.06,80.568,27.551,NaN,13.336,983.22,339.38,0.05,0.023275
3.4112,261.42,108.08,14.848,109.29,15.385,32.812,2.5616,32.911,4.4641,16.171,4.028,28.61,-80.6,9.7914,0.48937,0,-0.0053801,-0.0012314,36884,8648.2,57.734,0.29093,103.12,91.29,1.8784,0.3229,25731597,1e3,79.064,0.54769,0.54809,0.3477,0.066435,0.13355,0.077362,0.14643,5.1904e-4,0,0,0,0,-8.5638e-4,0.013745,6.2992,201.06,80.606,26.962,NaN,13.301,982.59,339.36,0.05,0.023435
3.4612,266.84,108.83,14.848,110.05,15.382,33.599,2.767,33.712,4.7079,16.37,4.0184,28.61,-80.6,9.7914,0.38857,0,-0.0049906,-0.0012095,36843,8607.5,57.697,0.29081,103.31,91.249,1.9142,0.32509,25893050,1e3,80.119,0.54807,0.54833,0.34765,0.066679,0.13374,0.061078,0.11727,-1.2771e-4,0,0,0,0,-7.2708e-4,0.013838,6.2992,201.06,80.642,26.418,NaN,13.266,981.95,339.34,0.05,0.023818
3.5112,272.3,109.57,14.856,110.81,15.371,34.395,2.9762,34.524,4.9455,16.567,3.9442,28.61,-80.6,9.7913,0.55219,0,-0.0046467,-4.5772e-4,36802,8566.8,57.661,0.29069,103.01,91.209,1.874,0.3274,26064388,1e3,81.307,0.54847,0.54898,0.3476,0.066938,0.13393,0.087621,0.16502,-1.2969e-4,0,0,0,0,-6.2154e-4,0.013931,6.2992,201.06,80.676,25.914,NaN,13.23,981.31,339.32,0.05,0.024098
3.5612,277.8,110.31,14.859,111.58,15.365,35.201,3.189,35.345,5.1766,16.763,3.9126,28.61,-80.6,9.7913,0.54401,0,-0.0041164,-1.8826e-4,36762,8526,57.624,0.29057,103.03,91.168,1.8831,0.32964,26229360,1e3,82.424,0.54886,0.54936,0.34755,0.067188,0.13413,0.08629,0.16255,-1.463e-4,0,0,0,0,-4.8124e-4,0.014025,6.2992,201.06,80.706,25.463,NaN,13.194,980.67,339.29,0.05,0.024359
3.6112,283.33,111.06,14.858,112.34,15.361,36.016,3.4053,36.176,5.4014,16.957,3.8978,28.61,-80.6,9.7913,0.46881,0,-0.003624,3.7521e-5,36721,8485.3,57.588,0.29045,103.17,91.127,1.9114,0.33185,26391968,1e3,83.517,0.54925,0.54962,0.3475,0.067436,0.13432,0.074048,0.14236,4.3833e-4,0,0,0,0,-3.6809e-4,0.014118,6.2992,201.06,80.733,25.065,NaN,13.158,980.02,339.27,0.05,0.024667
3.6612,288.9,111.8,14.863,113.11,15.352,36.839,3.6251,37.017,5.62,17.15,3.8451,28.61,-80.6,9.7913,0.56336,0,-0.0030993,2.55e-4,36680,8444.5,57.551,0.29033,103,91.087,1.8913,0.33414,26560628,1e3,84.703,0.54965,0.55018,0.34745,0.067693,0.13451,0.089472,0.16902,-2.9429e-4,0,0,0,0,-2.6557e-4,0.014212,6.2992,201.06,80.756,24.715,NaN,13.122,979.37,339.25,0.05,0.024914
3.7112,294.51,112.54,14.868,113.87,15.342,37.672,3.8481,37.868,5.8324,17.34,3.7828,28.61,-80.6,9.7913,0.71493,0,-0.0024087,3.5886e-4,36639,8403.8,57.514,0.29021,102.73,91.046,1.8554,0.33646,26731540,1e3,85.94,0.55006,0.55091,0.34739,0.067953,0.13472,0.11453,0.21237,-9.846e-5,0,0,0,0,-1.5822e-4,0.014306,6.2992,201.06,80.774,24.424,NaN,13.086,978.71,339.23,0.05,0.025121
3.7612,300.16,113.29,14.867,114.63,15.337,38.514,4.0741,38.729,6.0384,17.529,3.7661,28.61,-80.6,9.7913,0.67544,0,-0.0016798,4.6072e-4,36599,8363.1,57.477,0.29009,102.81,91.005,1.8733,0.3387,26895641,1e3,87.076,0.55045,0.55122,0.34734,0.068204,0.13491,0.10797,0.20284,-1.932e-4,0,0,0,0,-7.5952e-5,0.0144,6.2992,201.06,80.786,24.201,NaN,13.049,978.05,339.21,0.05,0.025612
3.8112,305.84,114.03,14.869,115.4,15.328,39.365,4.303,39.6,6.2383,17.716,3.7242,28.61,-80.6,9.7912,0.76584,0,-9.0544e-4,4.8983e-4,36558,8322.3,57.44,0.28997,102.65,90.964,1.855,0.341,27064730,1e3,88.305,0.55086,0.55184,0.34728,0.068464,0.13512,0.12306,0.22785,5.1047e-5,0,0,0,0,-2.1771e-5,0.014494,6.2992,201.06,80.791,24.048,NaN,13.012,977.38,339.18,0.05,0.025784
3.8612,311.56,114.77,14.868,116.16,15.322,40.225,4.5347,40.48,6.432,17.901,3.7015,28.61,-80.6,9.7912,0.78791,0,-5.4812e-5,5.0241e-4,36517,8281.6,57.403,0.28986,102.61,90.923,1.8558,0.34328,27231556,1e3,89.503,0.55127,0.5523,0.34723,0.06872,0.13532,0.12678,0.23498,-1.33e-4,0,0,0,0,-7.8739e-8,0.014589,6.2992,201.06,80.788,23.972,NaN,12.975,976.71,339.16,0.05,0.026016
3.9112,317.32,115.52,14.863,116.93,15.317,41.094,4.769,41.369,6.6197,18.086,3.7014,28.61,-80.6,9.7912,0.73043,0,7.9118e-4,4.8658e-4,36476,8240.8,57.366,0.28974,102.72,90.882,1.8787,0.34553,27395600,1e3,90.659,0.55167,0.55256,0.34717,0.068973,0.13552,0.11716,0.21972,7.6093e-5,0,0,0,0,1.6194e-5,0.014684,6.2992,201.06,80.777,23.974,NaN,12.937,976.03,339.14,0.05,0.026353
3.9612,323.11,116.26,14.859,117.69,15.312,41.971,5.0061,42.268,6.8019,18.271,3.6957,28.61,-80.6,9.7912,0.72121,0,0.0015948,4.5798e-4,36436,8200.1,57.329,0.28962,102.73,90.84,1.8882,0.34781,27561682,1e3,91.858,0.55207,0.55294,0.34712,0.06923,0.13573,0.11563,0.21865,3.0713e-4,0,0,0,0,6.4954e-5,0.014778,6.2992,201.06,80.757,24.049,NaN,12.9,975.35,339.12,0.05,0.026668
4.0112,328.95,117,14.858,118.45,15.304,42.857,5.246,43.177,6.9787,18.455,3.6686,28.61,-80.6,9.7912,0.82585,0,0.0024655,4.8487e-4,36395,8159.4,57.292,0.2895,102.55,90.799,1.8661,0.35015,27732550,1e3,93.149,0.55249,0.55363,0.34706,0.069494,0.13594,0.1332,0.24866,-2.7352e-4,0,0,0,0,1.5318e-4,0.014872,6.2992,201.06,80.728,24.197,NaN,12.862,974.67,339.09,0.05,0.026917
4.0612,334.81,117.75,14.852,119.21,15.298,43.752,5.4886,44.095,7.1502,18.638,3.6663,28.61,-80.6,9.7911,0.84917,0,0.003418,4.7258e-4,36354,8118.6,57.255,0.28938,102.52,90.757,1.8667,0.35246,27900689,1e3,94.398,0.55291,0.55411,0.347,0.069755,0.13615,0.13715,0.25545,-1.9731e-4,0,0,0,0,2.9059e-4,0.014967,6.2992,201.06,80.689,24.426,NaN,12.824,973.98,339.07,0.05,0.027179
4.1112,340.72,118.49,14.843,119.98,15.294,44.656,5.7337,45.023,7.3166,18.822,3.6872,28.61,-80.6,9.7911,0.80296,0,0.0044067,3.8843e-4,36314,8077.9,57.217,0.28926,102.6,90.716,1.8864,0.35475,28066423,1e3,95.607,0.55332,0.55439,0.34695,0.070013,0.13636,0.12936,0.24312,-1.408e-4,0,0,0,0,4.7688e-4,0.015062,6.2992,201.06,80.64,24.738,NaN,12.785,973.29,339.05,0.05,0.027415
4.1612,346.66,119.23,14.825,120.74,15.295,45.569,5.9817,45.96,7.4783,19.008,3.7628,28.61,-80.6,9.7911,0.58911,0,0.0052146,-6.7463e-5,36273,8037.1,57.18,0.28914,102.98,90.674,1.9532,0.35695,28225412,1e3,96.712,0.55372,0.5543,0.34689,0.070262,0.13656,0.093777,0.18261,4.5247e-4,0,0,0,0,6.5964e-4,0.015155,6.2992,201.06,80.579,25.122,NaN,12.747,972.59,339.02,0.05,0.02764
4.2112,352.64,119.97,14.815,121.5,15.29,46.49,6.2329,46.906,7.636,19.196,3.7818,28.61,-80.6,9.7911,0.60841,0,0.0059621,2.779e-5,36232,7996.4,57.142,0.28902,102.95,90.632,1.9548,0.35928,28394274,1e3,97.991,0.55414,0.55476,0.34683,0.070525,0.13678,0.096965,0.18907,-1.7026e-4,0,0,0,0,8.5126e-4,0.015249,6.2992,201.06,80.509,25.561,NaN,12.708,971.89,339,0.05,0.027874
4.2612,358.66,120.72,14.797,122.26,15.292,47.421,6.4874,47.862,7.79,19.386,3.8582,28.61,-80.6,9.7911,0.46783,0,0.0066016,-5.1247e-4,36191,7955.6,57.105,0.2889,103.2,90.59,2.0019,0.36153,28556475,1e3,99.178,0.55455,0.55492,0.34678,0.07078,0.13699,0.073971,0.1469,2.3119e-5,0,0,0,0,0.0010309,0.015342,6.2992,201.06,80.429,26.048,NaN,12.669,971.19,338.98,0.05,0.02803
4.3112,364.71,121.45,14.776,123.02,15.294,48.36,6.7457,48.828,7.9409,19.579,3.9452,28.61,-80.6,9.7911,0.33371,0,0.0069843,-0.0014958,36151,7914.9,57.067,0.28878,103.45,90.549,2.0478,0.36379,28718739,1e3,100.39,0.55496,0.55515,0.34672,0.071036,0.1372,0.052363,0.10565,3.0467e-4,0,0,0,0,0.0011398,0.015434,6.2992,201.06,80.34,26.568,NaN,12.629,970.48,338.95,0.05,0.028355
4.3612,370.81,122.19,14.747,123.78,15.303,49.308,7.008,49.804,8.0891,19.776,4.0883,28.61,-80.599,9.791,0.16115,0,0.0030813,-0.0067123,36110,7874.2,57.029,0.28866,103.77,90.506,2.1057,0.36598,28875655,1e3,101.57,0.55536,0.5554,0.34666,0.071284,0.13741,0.025037,0.052635,8.7635e-4,0,0,0,0,2.1922e-4,0.015526,6.2992,201.06,80.245,27.099,NaN,12.59,969.76,338.93,0.05,0.028781
4.4112,376.93,122.93,14.724,124.54,15.307,50.265,7.2752,50.789,8.2356,19.978,4.1832,28.61,-80.599,9.791,0.1723,0,-0.0015495,-0.0072255,36069,7833.4,56.991,0.28854,103.75,90.464,2.1095,0.36825,29038573,1e3,102.84,0.55577,0.55583,0.3466,0.071542,0.13763,0.026789,0.056511,8.3009e-4,0,0,0,0,-5.4758e-5,0.015617,6.2992,201.06,80.144,27.614,NaN,12.55,969.04,338.9,0.05,0.029075
4.4612,383.1,123.67,14.708,125.3,15.303,51.232,7.5475,51.785,8.3805,20.182,4.2272,28.61,-80.599,9.791,0.1336,0,-3.5605e-4,-0.007374,36028,7792.7,56.953,0.28842,103.83,90.422,2.1282,0.3706,29206945,1e3,104.15,0.5562,0.55624,0.34654,0.071808,0.13785,0.020726,0.044481,0.0010256,0,0,0,0,-2.8554e-6,0.015707,6.2992,201.06,80.041,28.099,NaN,12.51,968.32,338.88,0.05,0.029361
4.5112,389.3,124.4,14.683,126.06,15.307,52.207,7.8249,52.79,8.5242,20.389,4.3271,28.61,-80.599,9.791,0.18332,0,-0.0040076,-0.0061146,35988,7751.9,56.915,0.28831,103.74,90.38,2.1205,0.37287,29369442,1e3,105.44,0.55662,0.55668,0.34648,0.072066,0.13807,0.028526,0.060789,0.0012091,0,0,0,0,-3.5741e-4,0.015797,6.2992,201.06,79.935,28.558,NaN,12.47,967.59,338.86,0.05,0.029519
4.5612,395.54,125.14,14.656,126.82,15.312,53.192,8.1079,53.807,8.6667,20.601,4.4337,28.61,-80.599,9.791,0.2667,0,-0.0052511,-0.004791,35947,7711.2,56.877,0.28819,103.58,90.337,2.103,0.37514,29531136,1e3,106.74,0.55704,0.55716,0.34642,0.072324,0.1383,0.041706,0.088071,4.7194e-4,0,0,0,0,-6.063e-4,0.015887,6.2992,201.06,79.829,28.98,NaN,12.429,966.86,338.83,0.05,0.029994
4.6112,401.81,125.87,14.626,127.58,15.319,54.186,8.3968,54.833,8.8085,20.816,4.5556,28.61,-80.599,9.7909,0.38557,0,-0.0054439,-0.0039666,35906,7670.5,56.839,0.28807,103.37,90.295,2.0754,0.37739,29690992,1e3,108.05,0.55746,0.55771,0.34636,0.07258,0.13852,0.060715,0.12623,-7.5779e-5,0,0,0,0,-6.4398e-4,0.015976,6.2992,201.06,79.723,29.357,NaN,12.388,966.12,338.81,0.05,0.031277
4.6612,408.13,126.6,14.602,128.34,15.322,55.19,8.6919,55.87,8.95,21.036,4.6403,28.61,-80.599,9.7909,0.42487,0,-0.0051487,-0.0035645,35865,7629.7,56.8,0.28795,103.3,90.252,2.0712,0.37968,29853527,1e3,109.37,0.55788,0.55819,0.3463,0.07284,0.13874,0.06706,0.13984,5.5032e-4,0,0,0,0,-5.692e-4,0.016064,6.2992,201.06,79.621,29.676,NaN,12.347,965.38,338.78,0.05,0.031868
4.7112,414.47,127.33,14.579,129.09,15.323,56.204,8.9934,56.919,9.0911,21.26,4.7169,28.61,-80.599,9.7909,0.45232,0,-0.0047184,-0.0032558,35825,7589,56.762,0.28783,103.25,90.209,2.0705,0.38197,30015787,1e3,110.7,0.55831,0.55866,0.34624,0.073101,0.13897,0.071512,0.14884,5.4243e-4,0,0,0,0,-4.7239e-4,0.016152,6.2992,201.06,79.524,29.936,NaN,12.306,964.64,338.76,0.05,0.032332
4.7612,420.86,128.06,14.557,129.85,15.323,57.227,9.3016,57.978,9.232,21.486,4.7842,28.61,-80.599,9.7909,0.46827,0,-0.0042312,-0.0030058,35784,7548.2,56.723,0.28771,103.23,90.167,2.0732,0.38425,30177743,1e3,112.03,0.55874,0.55911,0.34618,0.073361,0.13919,0.074108,0.15437,8.4222e-5,0,0,0,0,-3.7543e-4,0.01624,6.2992,201.06,79.432,30.136,NaN,12.264,963.89,338.73,0.05,0.032618
4.8112,427.28,128.79,14.527,130.6,15.331,58.26,9.6165,59.048,9.3728,21.717,4.9,28.61,-80.599,9.7909,0.58563,0,-0.0035099,-0.0029123,35743,7507.5,56.685,0.28759,103.02,90.124,2.0469,0.38648,30334173,1e3,113.37,0.55915,0.55974,0.34612,0.073615,0.13942,0.093312,0.19141,-1.5474e-4,0,0,0,0,-2.5542e-4,0.016328,6.2992,201.06,79.348,30.276,NaN,12.223,963.14,338.71,0.05,0.032901
4.8612,433.74,129.51,14.506,131.36,15.33,59.303,9.9385,60.13,9.5137,21.951,4.9585,28.61,-80.599,9.7908,0.60237,0,-0.0027068,-0.0028081,35702,7466.8,56.646,0.28747,102.99,90.081,2.0494,0.38874,30493941,1e3,114.7,0.55958,0.5602,0.34606,0.073874,0.13965,0.09608,0.19673,-1.8737e-4,0,0,0,0,-1.5016e-4,0.016415,6.2992,201.06,79.274,30.347,NaN,12.181,962.38,338.68,0.05,0.033187
4.9112,440.23,130.24,14.491,132.11,15.324,60.356,10.268,61.223,9.6546,22.187,4.9849,28.61,-80.599,9.7908,0.57243,0,-0.0019437,-0.0027077,35662,7426,56.608,0.28735,103.05,90.038,2.0652,0.39103,30654795,1e3,116.04,0.56001,0.56057,0.346,0.074135,0.13988,0.091158,0.18811,3.3994e-4,0,0,0,0,-7.6538e-5,0.016502,6.2992,201.06,79.209,30.35,NaN,12.138,961.62,338.65,0.05,0.033571
4.9612,446.76,130.96,14.47,132.87,15.323,61.42,10.604,62.328,9.7954,22.427,5.0415,28.61,-80.599,9.7908,0.61013,0,-0.0010593,-0.0026881,35621,7385.3,56.569,0.28723,102.98,89.994,2.0618,0.39327,30811399,1e3,117.38,0.56043,0.56106,0.34593,0.074391,0.14011,0.09738,0.20076,2.5298e-4,0,0,0,0,-2.2478e-5,0.016588,6.2992,201.06,79.154,30.288,NaN,12.096,960.85,338.63,0.05,0.033922
5.0112,453.33,131.69,14.459,133.62,15.314,62.493,10.948,63.445,9.9363,22.668,5.0441,28.61,-80.599,9.7908,0.56469,0,-2.4195e-4,-0.0026645,35580,7344.5,56.53,0.28711,103.07,89.951,2.082,0.39554,30970758,1e3,118.72,0.56086,0.56141,0.34587,0.074651,0.14034,0.089902,0.18687,3.4924e-4,0,0,0,0,-1.1594e-6,0.016675,6.2992,201.06,79.111,30.16,NaN,12.053,960.08,338.6,0.05,0.034198
5.0612,459.93,132.41,14.449,134.38,15.305,63.578,11.298,64.574,10.077,22.909,5.0462,28.61,-80.599,9.7908,0.53257,0,5.4088e-4,-0.0026665,35539,7303.8,56.491,0.28699,103.13,89.908,2.0984,0.3978,31128446,1e3,120.06,0.56129,0.56177,0.34581,0.07491,0.14057,0.084643,0.17761,-1.2794e-4,0,0,0,0,5.7294e-6,0.016762,6.2992,201.06,79.079,29.972,NaN,12.01,959.31,338.58,0.05,0.035417
5.1112,466.57,133.13,14.437,135.13,15.297,64.672,11.656,65.714,10.217,23.153,5.0588,28.61,-80.599,9.7907,0.53287,0,0.001412,-0.0026821,35499,7263.1,56.452,0.28687,103.13,89.864,2.1057,0.40003,31283424,1e3,121.4,0.56171,0.5622,0.34575,0.075165,0.1408,0.084699,0.17784,6.2601e-4,0,0,0,0,3.8616e-5,0.016849,6.2992,201.06,79.058,29.726,NaN,11.967,958.53,338.55,0.05,0.035866
5.1612,473.24,133.85,14.442,135.88,15.274,65.777,12.021,66.867,10.357,23.395,4.9708,28.61,-80.599,9.7907,0.36807,0,0.001793,-0.0029017,35458,7222.3,56.413,0.28676,103.43,89.821,2.1605,0.40235,31445701,1e3,122.76,0.56216,0.56239,0.34568,0.075432,0.14105,0.05796,0.12529,-1.5533e-4,0,0,0,0,6.1564e-5,0.016936,6.2992,201.06,79.047,29.426,NaN,11.924,957.75,338.52,0.05,0.036193
5.2112,479.95,134.58,14.446,136.64,15.251,66.893,12.393,68.031,10.496,23.636,4.8907,28.61,-80.599,9.7907,0.23234,0,0.0015125,-0.003321,35417,7181.6,56.373,0.28664,103.68,89.777,2.2077,0.40466,31606478,1e3,124.14,0.5626,0.56269,0.34561,0.075697,0.14129,0.036306,0.080567,-2.7727e-5,0,0,0,0,4.3317e-5,0.017024,6.2992,201.06,79.045,29.091,NaN,11.88,956.96,338.5,0.05,0.036459
5.2612,486.7,135.3,14.445,137.39,15.235,68.019,12.77,69.207,10.633,23.875,4.8413,28.61,-80.599,9.7907,0.16722,0,9.3812e-4,-0.003662,35376,7140.8,56.334,0.28652,103.81,89.733,2.2344,0.40693,31763265,1e3,125.51,0.56303,0.56308,0.34555,0.075957,0.14153,0.026033,0.058607,-3.6878e-5,0,0,0,0,1.6481e-5,0.017113,6.2992,201.06,79.049,28.739,NaN,11.836,956.17,338.47,0.05,0.036746
5.3112,493.48,136.02,14.449,138.14,15.213,69.156,13.154,70.395,10.769,24.112,4.7595,28.61,-80.599,9.7907,0.12919,0,-0.0023987,-0.0028848,35336,7100.1,56.294,0.2864,103.88,89.689,2.2531,0.40923,31922859,1e3,126.93,0.56348,0.56351,0.34548,0.076222,0.14177,0.02007,0.044877,-2.0152e-4,0,0,0,0,-1.0656e-4,0.017202,6.2992,201.06,79.058,28.383,NaN,11.792,955.37,338.45,0.05,0.037245
5.3612,500.3,136.75,14.454,138.9,15.19,70.303,13.543,71.595,10.904,24.345,4.6705,28.61,-80.599,9.7906,0.23184,0,-0.0034101,-5.8145e-4,35295,7059.4,56.255,0.28628,103.69,89.645,2.2301,0.41155,32083260,1e3,128.38,0.56392,0.56402,0.34542,0.076488,0.14202,0.036237,0.080974,-3.1586e-4,0,0,0,0,-2.1297e-4,0.017291,6.2992,201.06,79.069,28.044,NaN,11.748,954.57,338.42,0.05,0.037555
5.4112,507.16,137.47,14.454,139.65,15.172,71.461,13.937,72.807,11.036,24.576,4.6115,28.61,-80.599,9.7906,0.30616,0,-0.0029744,1.7848e-5,35254,7018.6,56.215,0.28616,103.56,89.601,2.2157,0.41382,32241170,1e3,129.82,0.56436,0.56453,0.34535,0.07675,0.14226,0.048065,0.10706,3.6076e-4,0,0,0,0,-1.6028e-4,0.017381,6.2992,201.06,79.08,27.743,NaN,11.703,953.81,338.39,0.05,0.037833
5.4612,514.05,138.19,14.452,140.4,15.155,72.629,14.336,74.03,11.166,24.805,4.5601,28.61,-80.599,9.7906,0.36494,0,-0.0023345,3.0451e-4,35214,6977.9,56.176,0.28604,103.45,89.557,2.206,0.41609,32398154,1e3,131.25,0.5648,0.56503,0.34528,0.077011,0.14251,0.057493,0.12717,1.7427e-4,0,0,0,0,-9.7674e-5,0.017472,6.2992,201.06,79.089,27.493,NaN,11.659,953.04,338.36,0.05,0.038436
5.5112,520.98,138.91,14.447,141.15,15.139,73.808,14.739,75.265,11.293,25.031,4.5263,28.61,-80.599,9.7906,0.38149,0,-0.0016304,4.3874e-4,35173,6937.1,56.136,0.28592,103.43,89.512,2.2087,0.41833,32552997,1e3,132.67,0.56524,0.56549,0.34522,0.07727,0.14275,0.060164,0.13258,-1.1171e-4,0,0,0,0,-4.7141e-5,0.017563,6.2992,201.06,79.094,27.303,NaN,11.614,952.26,338.34,0.05,0.038992
5.5612,527.94,139.64,14.443,141.9,15.123,74.997,15.146,76.511,11.418,25.256,4.4818,28.61,-80.599,9.7906,0.42719,0,-8.2807e-4,5.2211e-4,35132,6896.4,56.096,0.2858,103.35,89.468,2.203,0.4206,3.271e7,1e3,134.13,0.56568,0.566,0.34515,0.077532,0.143,0.067555,0.14927,-2.2821e-4,0,0,0,0,-1.2031e-5,0.017654,6.2992,201.06,79.094,27.176,NaN,11.568,951.49,338.31,0.05,0.039366
5.6112,534.94,140.36,14.432,142.65,15.11,76.197,15.558,77.769,11.54,25.48,4.4747,28.61,-80.599,9.7905,0.3848,0,-2.7835e-5,5.4581e-4,35091,6855.6,56.056,0.28568,103.43,89.423,2.2228,0.42282,32861847,1e3,135.52,0.56612,0.56637,0.34509,0.077788,0.14324,0.060708,0.13469,-5.6258e-5,0,0,0,0,-1.3454e-8,0.017744,6.2992,201.06,79.089,27.117,NaN,11.523,950.7,338.28,0.05,0.039676
5.6612,541.98,141.08,14.418,143.4,15.1,77.407,15.974,79.038,11.66,25.703,4.4841,28.61,-80.599,9.7905,0.31318,0,6.9672e-4,5.1634e-4,35051,6814.9,56.016,0.28556,103.56,89.379,2.2512,0.42503,33012650,1e3,136.91,0.56655,0.56672,0.34502,0.078043,0.14348,0.049211,0.11033,3.7615e-4,0,0,0,0,8.3435e-6,0.017835,6.2992,201.06,79.077,27.12,NaN,11.477,949.92,338.25,0.05,0.039981
5.7112,549.05,141.8,14.4,144.15,15.092,78.627,16.395,80.318,11.778,25.927,4.5164,28.61,-80.599,9.7905,0.20617,0,0.0012515,3.6785e-4,35010,6774.2,55.976,0.28544,103.76,89.334,2.2902,0.42721,33161468,1e3,138.28,0.56698,0.56705,0.34496,0.078295,0.14373,0.0322,0.073418,3.2283e-4,0,0,0,0,2.6651e-5,0.017925,6.2992,201.06,79.06,27.171,NaN,11.431,949.13,338.23,0.05,0.040279
5.7612,556.16,142.52,14.39,144.9,15.077,79.858,16.82,81.61,11.894,26.152,4.5018,28.61,-80.599,9.7905,0.21488,0,0.0016953,2.5158e-4,34969,6733.4,55.936,0.28533,103.75,89.289,2.2952,0.42947,33316293,1e3,139.75,0.56742,0.5675,0.34489,0.078557,0.14398,0.033581,0.077074,1.8581e-4,0,0,0,0,4.8398e-5,0.018015,6.2992,201.06,79.038,27.253,NaN,11.385,948.33,338.2,0.05,0.040586
5.8112,563.3,143.24,14.378,145.65,15.063,81.098,17.25,82.913,12.008,26.375,4.491,28.61,-80.599,9.7904,0.22511,0,0.0021559,1.4217e-4,34928,6692.7,55.895,0.28521,103.73,89.244,2.2998,0.43174,33471184,1e3,141.22,0.56787,0.56796,0.34482,0.07882,0.14423,0.035205,0.080821,1.0534e-4,0,0,0,0,7.7461e-5,0.018104,6.2992,201.06,79.01,27.364,NaN,11.339,947.54,338.17,0.05,0.040896
5.8612,570.48,143.96,14.363,146.4,15.051,82.349,17.685,84.227,12.121,26.598,4.4973,28.61,-80.599,9.7904,0.21306,0,0.0026108,-5.6321e-5,34888,6651.9,55.855,0.28509,103.76,89.199,2.311,0.434,33624776,1e3,142.69,0.56832,0.5684,0.34475,0.079082,0.14449,0.0333,0.076688,-2.2815e-4,0,0,0,0,1.1244e-4,0.018194,6.2992,201.06,78.977,27.503,NaN,11.292,946.73,338.14,0.05,0.041679
5.9112,577.7,144.68,14.347,147.14,15.039,83.61,18.125,85.552,12.231,26.822,4.5093,28.61,-80.599,9.7904,0.20237,0,0.0030263,-2.523e-4,34847,6611.2,55.814,0.28497,103.78,89.154,2.3218,0.43626,33778396,1e3,144.17,0.56877,0.56884,0.34468,0.079344,0.14474,0.031612,0.07345,2.4433e-4,0,0,0,0,1.4953e-4,0.018283,6.2992,201.06,78.936,27.666,NaN,11.245,945.93,338.11,0.05,0.042365
5.9612,584.95,145.4,14.331,147.89,15.025,84.881,18.57,86.889,12.34,27.046,4.5125,28.61,-80.599,9.7904,0.2168,0,0.0034736,-1.9277e-4,34806,6570.5,55.774,0.28485,103.76,89.109,2.3252,0.43855,33933651,1e3,145.68,0.56922,0.56931,0.34461,0.07961,0.145,0.033899,0.078189,-2.1474e-4,0,0,0,0,1.9499e-4,0.018372,6.2992,201.06,78.89,27.849,NaN,11.198,945.12,338.08,0.05,0.042537
6.0112,592.24,146.11,14.313,148.64,15.013,86.163,19.02,88.237,12.448,27.27,4.5309,28.61,-80.599,9.7904,0.21507,0,0.0039465,-2.0702e-4,34765,6529.7,55.733,0.28473,103.76,89.064,2.3334,0.44083,34088018,1e3,147.19,0.56968,0.56976,0.34454,0.079875,0.14526,0.033629,0.077906,-3.0215e-6,0,0,0,0,2.4914e-4,0.018461,6.2992,201.06,78.836,28.054,NaN,11.15,944.3,338.06,0.05,0.042698
6.0612,599.56,146.83,14.288,149.38,15.006,87.454,19.475,89.596,12.554,27.497,4.5835,28.61,-80.599,9.7903,0.168,0,0.004289,-7.4965e-4,34725,6489,55.692,0.28461,103.85,89.018,2.3551,0.44308,34239395,1e3,148.68,0.57013,0.57018,0.34447,0.080136,0.14552,0.026201,0.061636,-2.3685e-4,0,0,0,0,2.9134e-4,0.01855,6.2992,201.06,78.775,28.279,NaN,11.103,943.48,338.03,0.05,0.042861
6.1112,606.92,147.54,14.263,150.13,14.998,88.756,19.935,90.967,12.659,27.724,4.6367,28.61,-80.599,9.7903,0.13224,0,0.0045015,-0.0013506,34684,6448.2,55.651,0.28449,103.92,88.972,2.3734,0.44534,34391332,1e3,150.18,0.57058,0.57061,0.3444,0.080398,0.14578,0.020582,0.048525,-2.414e-4,0,0,0,0,3.1772e-4,0.018638,6.2992,201.06,78.708,28.517,NaN,11.055,942.66,338,0.05,0.043017
6.1612,614.32,148.26,14.226,150.87,15,90.067,20.4,92.349,12.762,27.956,4.7546,28.61,-80.599,9.7903,0.09396,0,-7.911e-5,-0.0048174,34643,6407.5,55.61,0.28437,104,88.927,2.3926,0.44752,34536980,1e3,151.63,0.57102,0.57103,0.34433,0.080652,0.14604,0.014594,0.035029,-1.3006e-4,0,0,0,0,-9.7192e-8,0.018726,6.2992,201.06,78.636,28.758,NaN,11.007,941.84,337.97,0.05,0.043179
6.2112,621.75,148.97,14.199,151.61,14.993,91.39,20.872,93.743,12.865,28.191,4.8117,28.61,-80.599,9.7903,0.097752,0,-0.0012446,-0.0046183,34602,6366.8,55.569,0.28425,103.99,88.881,2.3993,0.44978,34688710,1e3,153.16,0.57148,0.57149,0.34426,0.080916,0.1463,0.015188,0.036919,-9.0591e-5,0,0,0,0,-2.3819e-5,0.018813,6.2992,201.06,78.561,28.981,NaN,10.959,941.01,337.94,0.05,0.043464
6.2612,629.21,149.68,14.176,152.35,14.981,92.722,21.35,95.148,12.967,28.429,4.8431,28.61,-80.599,9.7902,0.068276,0,-7.6262e-4,-0.0046754,34562,6326,55.528,0.28413,104.05,88.835,2.4159,0.45208,34842680,1e3,154.71,0.57194,0.57195,0.34419,0.081184,0.14657,0.010591,0.025774,4.6292e-5,0,0,0,0,-8.8538e-6,0.0189,6.2992,201.06,78.486,29.183,NaN,10.91,940.17,337.91,0.05,0.043823
6.3112,636.71,150.39,14.155,153.09,14.967,94.065,21.833,96.566,13.067,28.668,4.8631,28.61,-80.599,9.7902,0.030655,0,0.0028156,-0.0038298,34521,6285.3,55.487,0.28401,104.13,88.789,2.4351,0.45439,34997612,1e3,156.29,0.57241,0.57241,0.34411,0.081454,0.14684,0.0047452,0.011724,7.0838e-4,0,0,0,0,1.1948e-4,0.018986,6.2992,201.06,78.409,29.369,NaN,10.861,939.33,337.88,0.05,0.044148
6.3612,644.25,151.09,14.126,153.83,14.96,95.419,22.323,97.995,13.167,28.909,4.9241,28.61,-80.599,9.7902,0.022087,0,-0.0018766,-0.0044094,34480,6244.5,55.446,0.28389,104.15,88.743,2.4455,0.45666,35148145,1e3,157.83,0.57287,0.57287,0.34404,0.081718,0.14711,0.0034177,0.0079433,3.0054e-4,0,0,0,0,-5.2557e-5,0.019073,6.2992,201.06,78.331,29.549,NaN,10.812,938.49,337.85,0.05,0.044443
6.4112,651.82,151.8,14.085,154.57,14.965,96.783,22.819,99.436,13.267,29.154,5.0574,28.61,-80.599,9.7902,0.15253,0,-0.0037826,-0.0026415,34439,6203.8,55.404,0.28378,103.9,88.697,2.4141,0.45883,35290983,1e3,159.32,0.57331,0.57335,0.34397,0.081972,0.14737,0.023784,0.057676,1.7847e-4,0,0,0,0,-2.1157e-4,0.019159,6.2992,201.06,78.253,29.719,NaN,10.763,937.65,337.82,0.05,0.044724
6.4612,659.43,152.5,14.056,155.31,14.957,98.158,23.322,100.89,13.365,29.403,5.1128,28.61,-80.599,9.7902,0.16466,0,-0.0036355,-0.0022395,34399,6163.1,55.363,0.28366,103.88,88.65,2.4184,0.46108,3.544e7,1e3,160.88,0.57377,0.57382,0.3439,0.082236,0.14764,0.025697,0.061869,3.5924e-4,0,0,0,0,-1.9356e-4,0.019245,6.2992,201.06,78.179,29.862,NaN,10.714,936.8,337.79,0.05,0.045171
6.5112,667.07,153.21,14.035,156.05,14.942,99.543,23.831,102.36,13.463,29.654,5.1288,28.61,-80.599,9.7901,0.12525,0,-0.003692,-0.0015272,34358,6122.3,55.321,0.28354,103.96,88.604,2.438,0.46338,35592372,1e3,162.47,0.57424,0.57427,0.34382,0.082504,0.14791,0.019505,0.047693,-4.7661e-5,0,0,0,0,-1.9769e-4,0.01933,6.2992,201.06,78.109,29.978,NaN,10.664,935.94,337.76,0.05,0.045478
6.5612,674.75,153.91,13.996,156.79,14.945,100.94,24.347,103.83,13.561,29.908,5.2426,28.61,-80.599,9.7901,0.23287,0,-0.0030192,-0.0018957,34317,6081.6,55.279,0.28342,103.76,88.557,2.4139,0.46554,35733805,1e3,163.98,0.57469,0.57478,0.34375,0.082758,0.14817,0.036495,0.088154,-4.0757e-4,0,0,0,0,-1.31e-4,0.019416,6.2992,201.06,78.043,30.07,NaN,10.614,935.08,337.73,0.05,0.04574
6.6112,682.46,154.61,13.975,157.52,14.931,102.35,24.87,105.33,13.658,30.165,5.2572,28.61,-80.599,9.7901,0.20684,0,-0.0026941,-0.0016168,34276,6040.8,55.237,0.2833,103.82,88.511,2.4296,0.46781,35882914,1e3,165.56,0.57515,0.57523,0.34368,0.083023,0.14845,0.03237,0.079234,-3.0932e-4,0,0,0,0,-1.0331e-4,0.0195,6.2992,201.06,77.984,30.131,NaN,10.564,934.22,337.7,0.05,0.046011
6.6612,690.21,155.3,13.926,158.26,14.945,103.77,25.4,106.83,13.754,30.426,5.4227,28.61,-80.599,9.7901,0.39128,0,-0.0016264,-0.001958,34236,6000.1,55.196,0.28318,103.48,88.464,2.3834,0.46988,36016832,1e3,167.05,0.57558,0.57585,0.34361,0.083267,0.1487,0.061895,0.14718,-6.7339e-5,0,0,0,0,-3.7329e-5,0.019585,6.2992,201.06,77.933,30.154,NaN,10.514,933.36,337.67,0.05,0.046458
