# Time (s),Altitude (m),Vertical velocity (m/s),Vertical acceleration (m/s²),Total velocity (m/s),Total acceleration (m/s²),Position East of launch (m),Position North of launch (m),Lateral distance (m),Lateral direction (°),Lateral velocity (m/s),Lateral acceleration (m/s²),Latitude (°),Longitude (°),Gravitational acceleration (m/s²),Angle of attack (°),Roll rate (r/s),Pitch rate (r/s),Yaw rate (r/s),Mass (g),Propellant mass (g),Longitudinal moment of inertia (kg·m²),Rotational moment of inertia (kg·m²),CP location (in),CG location (in),Stability margin calibers (​),Mach number (​),Reynolds number (​),Thrust (N),Drag force (N),Drag coefficient (​),Axial drag coefficient (​),Friction drag coefficient (​),Pressure drag coefficient (​),Base drag coefficient (​),Normal force coefficient (​),Pitch moment coefficient (​),Yaw moment coefficient (​),Side force coefficient (​),Roll moment coefficient (​),Roll forcing coefficient (​),Roll damping coefficient (​),Pitch damping coefficient (​),Coriolis acceleration (m/s²),Reference length (in),Reference area (cm²),Vertical orientation (zenith) (°),Lateral orientation (azimuth) (°),Wind velocity (m/s),Air temperature (°C),Air pressure (mbar),Speed of sound (m/s),Simulation time step (s),Computation time (s)
0,0,0,-5.6763,0,5.7075,0,0,0,0,0,0.5966,28.61,-80.6,9.7922,84,0,0,0,40581,12346,60.972,0.31372,NaN,94.756,NaN,0.0050398,411019,163.58,6.696e-5,0.68194,0.0018476,0.51973,0.042201,0.12,NaN,NaN,NaN,NaN,NaN,NaN,NaN,NaN,0,6.2992,201.06,84,0,NaN,15,1013.2,340.39,0.01,0.0040089
0.01,0,0,61.573,0,61.913,0,0,0,0,0,6.4716,28.61,-80.6,9.7922,84,0,0,0,40581,12346,60.972,0.31372,NaN,94.756,NaN,0.005002,407932,2907.7,6.604e-5,0.68279,0.0018499,0.52059,0.042201,0.12,NaN,NaN,NaN,NaN,NaN,NaN,NaN,NaN,0,6.2992,201.06,84,0,NaN,15,1013.2,340.39,0.01,0.005395
0.02,0.0030793,0.6159,90.45,0.61929,90.949,3.2365e-4,0,3.2365e-4,0,0.064734,9.5067,28.61,-80.6,9.7922,64.656,0,0,0,40570,12334,60.962,0.31362,NaN,94.746,NaN,0.0054626,445503,4084.9,0.0046113,0.67295,0.1083,0.51074,0.042201,0.12,NaN,NaN,NaN,NaN,NaN,NaN,NaN,NaN,7.942e-5,6.2992,201.06,84,0,NaN,15,1013.2,340.39,0.01,0.0057019
0.03,0.013763,1.5208,89.063,1.5292,89.553,0.0014465,0,0.0014465,0,0.15985,9.3609,28.61,-80.6,9.7922,44.374,0,0,0,40549,12313,60.944,0.31341,NaN,94.727,NaN,0.0070055,571331,4026.2,0.03054,0.64661,0.43612,0.4844,0.042202,0.12001,NaN,NaN,NaN,NaN,NaN,NaN,NaN,NaN,1.9611e-4,6.2992,201.06,84,0,NaN,15,1013.2,340.39,0.01,0.0059786
0.04,0.033426,2.4119,88.814,2.4252,89.304,0.0035132,0,0.0035132,0,0.2535,9.3348,28.61,-80.6,9.7922,32.484,0,0,0,40525,12290,60.923,0.31317,NaN,94.706,NaN,0.0090521,738238,4013.8,0.075609,0.62156,0.64668,0.45934,0.042203,0.12001,NaN,NaN,NaN,NaN,NaN,NaN,NaN,NaN,3.1102e-4,6.2992,201.06,84,0,NaN,15,1013.2,340.39,0.01,0.006251
0.05,0.061988,3.3005,89.02,3.3187,89.51,0.0065152,0,0.0065152,0,0.3469,9.3564,28.61,-80.6,9.7922,25.188,0,0,0,40502,12266,60.903,0.31293,NaN,94.685,NaN,0.011335,924381,4019.9,0.13399,0.60114,0.73094,0.43892,0.042204,0.12002,NaN,NaN,NaN,NaN,NaN,NaN,NaN,NaN,4.256e-4,6.2992,201.06,84,0,NaN,15,1013.2,340.39,0.01,0.0065126
0.06,0.099446,4.1912,89.946,4.2143,90.441,0.010452,0,0.010452,0,0.44051,9.4537,28.61,-80.6,9.7922,20.47,0,0,0,40479,12243,60.882,0.31269,NaN,94.664,NaN,0.013755,1121772,4055.4,0.20257,0.58465,0.75038,0.42242,0.042205,0.12002,NaN,NaN,NaN,NaN,NaN,NaN,NaN,NaN,5.4045e-4,6.2992,201.06,84,0,NaN,14.999,1013.2,340.39,0.01,0.0067731
0.07,0.14586,5.0911,91.049,5.1192,91.55,0.01533,0,0.01533,0,0.5351,9.5696,28.61,-80.6,9.7922,17.151,0,0,0,40455,12220,60.861,0.31245,NaN,94.643,NaN,0.016267,1326610,4098,0.2803,0.57109,0.7424,0.40885,0.042207,0.12003,NaN,NaN,NaN,NaN,NaN,NaN,NaN,NaN,6.565e-4,6.2992,201.06,84,0,NaN,14.999,1013.2,340.39,0.01,0.0070279
0.08,0.20132,6.0021,92.153,6.0352,92.66,0.02116,0,0.02116,0,0.63085,9.6857,28.61,-80.6,9.7922,14.7,0,0,0,40432,12196,60.84,0.31221,NaN,94.622,NaN,0.01885,1537274,4140.5,0.36465,0.55972,0.71925,0.39747,0.042209,0.12005,NaN,NaN,NaN,NaN,NaN,NaN,NaN,NaN,7.7397e-4,6.2992,201.06,84,0,NaN,14.999,1013.2,340.39,0.01,0.0072811
0.09,0.26595,6.9241,93.091,6.9623,93.604,0.027953,0,0.027953,0,0.72775,9.7843,28.61,-80.6,9.7922,12.823,0,0,0,40408,12173,60.82,0.31197,NaN,94.6,NaN,0.021491,1752663,4176.3,0.45473,0.55,0.69001,0.38773,0.042211,0.12006,NaN,NaN,NaN,NaN,NaN,NaN,NaN,NaN,8.9286e-4,6.2992,201.06,84,0,NaN,14.998,1013.2,340.39,0.01,0.0075406
0.1,0.33985,7.8555,93.042,7.8988,93.555,0.03572,0,0.03572,0,0.82565,9.7791,28.61,-80.6,9.7922,11.345,0,0,0,40385,12149,60.799,0.31173,NaN,94.579,NaN,0.024178,1971734,4172,0.55221,0.54157,0.66207,0.37928,0.042214,0.12008,NaN,NaN,NaN,NaN,NaN,NaN,NaN,NaN,0.001013,6.2992,201.06,84,0,NaN,14.998,1013.2,340.39,0.01,0.0077966
0.11,0.42306,8.7864,93.331,8.8348,93.845,0.044465,0,0.044465,0,0.92349,9.8095,28.61,-80.6,9.7922,10.17,0,0,0,40361,12125,60.778,0.31148,NaN,94.557,NaN,0.026876,2191795,4181.4,0.65721,0.53424,0.63768,0.37193,0.042217,0.12009,NaN,NaN,NaN,NaN,NaN,NaN,NaN,NaN,0.001133,6.2992,201.06,84,0,NaN,14.997,1013.2,340.39,0.01,0.0080516
0.12,0.51559,9.7202,93.865,9.7738,94.382,0.054191,0,0.054191,0,1.0216,9.8656,28.61,-80.6,9.7922,9.2061,0,0,0,40337,12101,60.757,0.31124,NaN,94.535,NaN,0.029592,2413292,4200.7,0.77061,0.52775,0.61676,0.36542,0.04222,0.12011,NaN,NaN,NaN,NaN,NaN,NaN,NaN,NaN,0.0012534,6.2992,201.06,84,0,NaN,14.997,1013.2,340.39,0.01,0.012658
0.13,0.61749,10.659,94.399,10.718,94.919,0.064901,0,0.064901,0,1.1203,9.9217,28.61,-80.6,9.7922,8.4008,0,0,0,40313,12077,60.735,0.31099,NaN,94.514,NaN,0.032331,2636625,4220,0.89316,0.52194,0.59886,0.35958,0.042223,0.12014,NaN,NaN,NaN,NaN,NaN,NaN,NaN,NaN,0.0013745,6.2992,201.06,84,0,NaN,14.996,1013.2,340.39,0.01,0.013116
0.14,0.72881,11.604,94.933,11.668,95.456,0.076601,0,0.076601,0,1.2196,9.9779,28.61,-80.6,9.7922,7.7178,0,0,0,40289,12054,60.714,0.31075,NaN,94.492,NaN,0.035091,2861668,4239.3,1.0252,0.51669,0.58353,0.35431,0.042227,0.12016,NaN,NaN,NaN,NaN,NaN,NaN,NaN,NaN,0.0014963,6.2992,201.06,84,0,NaN,14.995,1013.2,340.39,0.01,0.013509
0.15,0.84959,12.554,95.468,12.623,95.994,0.089296,0,0.089296,0,1.3194,10.034,28.61,-80.6,9.7922,7.1316,0,0,0,40265,12030,60.693,0.3105,NaN,94.47,NaN,0.037871,3088330,4258.5,1.1712,0.51373,0.57235,0.35132,0.042231,0.12019,NaN,NaN,NaN,NaN,NaN,NaN,NaN,NaN,0.0016188,6.2992,201.06,84,0,NaN,14.994,1013.2,340.39,0.01,0.013913
0.16,0.97991,13.509,96.003,13.583,96.532,0.10299,0,0.10299,0,1.4198,10.09,28.61,-80.6,9.7922,6.6999,0,0,0,40241,12006,60.672,0.31025,NaN,94.448,NaN,0.040682,3317544,4277.8,1.3382,0.51376,0.56671,0.35131,0.042235,0.12022,NaN,NaN,NaN,NaN,NaN,NaN,NaN,NaN,0.001742,6.2992,201.06,84,0,NaN,14.994,1013.1,340.39,0.01,0.014177
0.17,1.1198,14.469,96.539,14.549,97.07,0.1177,0,0.1177,0,1.5208,10.147,28.61,-80.6,9.7922,6.3217,0,0,0,40218,11982,60.65,0.31001,NaN,94.426,NaN,0.043511,3548196,4297.1,1.5177,0.51379,0.56188,0.3513,0.04224,0.12025,NaN,NaN,NaN,NaN,NaN,NaN,NaN,NaN,0.0018658,6.2992,201.06,84,0,NaN,14.993,1013.1,340.38,0.01,0.014412
0.18,1.2693,15.435,96.92,15.52,97.454,0.13341,0,0.13341,0,1.6223,10.187,28.61,-80.6,9.7922,5.9877,0,0,0,40194,11958,60.629,0.30976,NaN,94.405,NaN,0.046358,3780260,4310.2,1.7099,0.51382,0.55771,0.35129,0.042245,0.12028,NaN,NaN,NaN,NaN,NaN,NaN,NaN,NaN,0.0019904,6.2992,201.06,84,0,NaN,14.992,1013.1,340.38,0.01,0.014657
0.19,1.4285,16.405,96.684,16.495,97.216,0.15014,0,0.15014,0,1.7242,10.162,28.61,-80.6,9.7922,5.691,0,0,0,40170,11934,60.607,0.30952,NaN,94.383,NaN,0.049217,4013344,4298.3,1.9148,0.51385,0.55411,0.35128,0.04225,0.12031,NaN,NaN,NaN,NaN,NaN,NaN,NaN,NaN,0.0021154,6.2992,201.06,84,0,NaN,14.991,1013.1,340.38,0.01,0.014898
0.2,1.5974,17.372,96.825,17.468,97.358,0.16789,0,0.16789,0,1.8259,10.177,28.61,-80.6,9.7922,5.4277,0,0,0,40146,11910,60.586,0.30927,NaN,94.361,NaN,0.05207,4245948,4301.6,2.1312,0.51388,0.55099,0.35127,0.042258,0.12035,NaN,NaN,NaN,NaN,NaN,NaN,NaN,NaN,0.0022401,6.2992,201.06,84,0,NaN,14.99,1013.1,340.38,0.01,0.015139
0.21,1.776,18.341,97.182,18.442,97.717,0.18666,0,0.18666,0,1.9277,10.214,28.61,-80.6,9.7922,5.2315,0,0,0,40122,11886,60.565,0.30902,NaN,94.339,NaN,0.054936,4479585,4313.7,2.3625,0.51392,0.54874,0.35126,0.042266,0.12039,NaN,NaN,NaN,NaN,NaN,NaN,NaN,NaN,0.0023651,6.2992,201.06,84,0,NaN,14.988,1013,340.38,0.01,0.015382
0.22,1.9642,19.313,97.539,19.42,98.076,0.20645,0,0.20645,0,2.0299,10.252,28.61,-80.6,9.7922,5.0539,0,0,0,40098,11862,60.543,0.30878,NaN,94.316,NaN,0.057813,4714117,4325.8,2.6069,0.51396,0.54674,0.35125,0.042275,0.12043,NaN,NaN,NaN,NaN,NaN,NaN,NaN,NaN,0.0024904,6.2992,201.06,84,0,NaN,14.987,1013,340.38,0.01,0.015642
0.23,2.1623,20.289,97.897,20.401,98.436,0.22726,0,0.22726,0,2.1325,10.289,28.61,-80.6,9.7922,4.8923,0,0,0,40074,11838,60.522,0.30853,NaN,94.294,NaN,0.060701,4949537,4337.9,2.8645,0.514,0.54496,0.35124,0.042284,0.12048,NaN,NaN,NaN,NaN,NaN,NaN,NaN,NaN,0.0026163,6.2992,201.06,84,0,NaN,14.986,1013,340.38,0.01,0.0159
0.24,2.37,21.269,98.254,21.386,98.795,0.2491,0,0.2491,0,2.2354,10.327,28.61,-80.6,9.7922,4.7446,0,0,0,40050,11814,60.5,0.30828,NaN,94.272,NaN,0.0636,5185839,4349.9,3.1354,0.51405,0.54338,0.35123,0.042294,0.12053,NaN,NaN,NaN,NaN,NaN,NaN,NaN,NaN,0.0027426,6.2992,201.06,84,0,NaN,14.985,1013,340.38,0.01,0.016169
0.25,2.5877,22.252,98.611,22.374,99.155,0.27197,0,0.27197,0,2.3388,10.364,28.61,-80.6,9.7922,4.6091,0,0,0,40026,11791,60.478,0.30804,NaN,94.25,NaN,0.066511,5423020,4362,3.4198,0.51409,0.54195,0.35121,0.042304,0.12058,NaN,NaN,NaN,NaN,NaN,NaN,NaN,NaN,0.0028694,6.2992,201.06,84,0,NaN,14.983,1012.9,340.38,0.01,0.016435
0.26,2.8151,23.238,98.969,23.366,99.515,0.29588,0,0.29588,0,2.4425,10.402,28.61,-80.6,9.7922,4.3349,0,0,0,40002,11767,60.457,0.30779,NaN,94.228,NaN,0.069398,5658367,4374.1,3.7036,0.51414,0.53911,0.3512,0.042314,0.12063,NaN,NaN,NaN,NaN,NaN,NaN,NaN,NaN,0.0029966,6.2992,201.06,84,0,NaN,14.982,1012.9,340.38,0.01,0.0167
0.27,3.0524,24.229,99.327,24.362,99.875,0.32082,0,0.32082,0,2.5465,10.44,28.61,-80.6,9.7922,4.0821,0,0,0,39978,11743,60.435,0.30754,NaN,94.206,NaN,0.072298,5894681,4386.2,4.0007,0.51419,0.5366,0.35118,0.042325,0.12068,NaN,NaN,NaN,NaN,NaN,NaN,NaN,NaN,0.0031243,6.2992,201.06,84,0,NaN,14.98,1012.9,340.38,0.01,0.016952
0.28,3.2997,25.222,99.686,25.361,100.23,0.34681,0,0.34681,0,2.651,10.477,28.61,-80.6,9.7922,3.8483,0,0,0,39954,11719,60.414,0.3073,NaN,94.184,NaN,0.07521,6131949,4398.3,4.3114,0.51424,0.53438,0.35117,0.042335,0.12074,NaN,NaN,NaN,NaN,NaN,NaN,NaN,NaN,0.0032524,6.2992,201.06,84,0,NaN,14.979,1012.9,340.38,0.01,0.017354
0.29,3.5569,26.22,100.04,26.364,100.59,0.37385,0,0.37385,0,2.7558,10.515,28.61,-80.6,9.7922,3.6313,0,0,0,39930,11695,60.392,0.30705,NaN,94.161,NaN,0.078133,6370158,4410.3,4.6358,0.51429,0.53241,0.35115,0.042347,0.12079,NaN,NaN,NaN,NaN,NaN,NaN,NaN,NaN,0.003381,6.2992,201.06,84,0,NaN,14.977,1012.8,340.37,0.01,0.017645
0.3,3.8241,27.221,100.4,27.371,100.95,0.40193,0,0.40193,0,2.861,10.552,28.61,-80.6,9.7922,3.4296,0,0,0,39907,11671,60.37,0.3068,NaN,94.139,NaN,0.081068,6609299,4422.2,4.9741,0.51435,0.53066,0.35114,0.042358,0.12085,NaN,NaN,NaN,NaN,NaN,NaN,NaN,NaN,0.0035101,6.2992,201.06,84,0,NaN,14.975,1012.8,340.37,0.01,0.017902
0.31,4.1013,28.225,100.74,28.381,101.3,0.43107,0,0.43107,0,2.9666,10.588,28.61,-80.6,9.7922,3.3121,0,0,0,39883,11647,60.348,0.30656,NaN,94.117,NaN,0.084032,6850724,4433.7,5.3345,0.51441,0.5297,0.35112,0.04237,0.12092,NaN,NaN,NaN,NaN,NaN,NaN,NaN,NaN,0.0036396,6.2992,201.06,84,0,NaN,14.973,1012.8,340.37,0.01,0.018167
0.32,4.3886,29.233,101.09,29.394,101.64,0.46126,0,0.46126,0,3.0725,10.625,28.61,-80.6,9.7922,3.2022,0,0,0,39859,11623,60.327,0.30631,NaN,94.094,NaN,0.087006,7092992,4445.3,5.7092,0.51447,0.52883,0.3511,0.042382,0.12098,NaN,NaN,NaN,NaN,NaN,NaN,NaN,NaN,0.0037696,6.2992,201.06,84,0,NaN,14.971,1012.7,340.37,0.01,0.018449
0.33,4.686,30.244,101.43,30.411,101.99,0.49252,0,0.49252,0,3.1788,10.661,28.61,-80.6,9.7922,3.0991,0,0,0,39835,11599,60.305,0.30606,NaN,94.072,NaN,0.08999,7336100,4456.9,6.0984,0.51453,0.52805,0.35108,0.042395,0.12105,NaN,NaN,NaN,NaN,NaN,NaN,NaN,NaN,0.0039,6.2992,201.06,84,0,NaN,14.97,1012.7,340.37,0.01,0.018824
0.34,4.9935,31.259,101.6,31.432,102.26,0.52484,0,0.52484,0,3.2855,11.536,28.61,-80.6,9.7922,3.0024,0,0,0,39811,11575,60.283,0.30581,99.022,94.05,0.78932,0.092985,7.58e6,4462.1,6.5021,0.5146,0.52734,0.35106,0.042408,0.12112,0.54051,0.42617,-1.6428e-4,0,0,0,0,0,0.0040309,6.2992,201.06,84,0,NaN,14.968,1012.7,340.37,0.015,0.019208
0.355,5.4738,32.783,101.12,32.965,101.77,0.57542,2.6252e-8,0.57542,2.614e-6,3.4585,11.475,28.61,-80.6,9.7922,2.9038,0,3.4913e-5,9.906e-9,39781,11545,60.256,0.30551,99.159,94.022,0.81555,0.097493,7947182,4442.7,7.1383,0.5147,0.52667,0.35103,0.042429,0.12124,0.52019,0.42388,-2.4354e-4,0,0,0,0,3.9326e-7,0.0042276,6.2992,201.06,84,-3.6246e-7,NaN,14.964,1012.6,340.37,0.0225,0.019477
0.3775,6.2371,35.061,101.37,35.257,102.02,0.65614,1.6813e-7,0.65614,1.4682e-5,3.7167,11.484,28.61,-80.6,9.7922,2.8104,0,9.3521e-5,-1.1383e-8,39736,11500,60.215,0.30505,99.291,93.98,0.84317,0.10424,8496569,4451.1,8.1579,0.51528,0.52656,0.35099,0.04288,0.12141,0.50112,0.42273,2.8841e-4,0,0,0,0,2.4684e-6,0.0045216,6.2992,201.06,83.999,-6.612e-7,NaN,14.959,1012.5,340.36,0.03375,0.019733
0.41125,7.4782,38.488,101.8,38.706,102.45,0.78812,6.291e-7,0.78812,4.5735e-5,4.1045,11.503,28.61,-80.6,9.7922,2.6854,0,1.9649e-4,-9.0727e-8,39669,11434,60.154,0.30436,99.47,93.917,0.88159,0.11439,9323226,4461.6,9.8301,0.51654,0.52692,0.35091,0.043935,0.1217,0.47585,0.41938,-3.3095e-4,0,0,0,0,9.0482e-6,0.004964,6.2992,201.06,83.998,5.896e-6,NaN,14.951,1012.4,340.36,0.05,0.019992
0.46125,9.5301,43.59,102.28,43.84,102.92,1.0077,1.919e-6,1.0077,1.0911e-4,4.68,11.523,28.61,-80.6,9.7921,2.4881,0,3.8468e-4,-6.2655e-9,39571,11335,60.063,0.30335,99.758,93.824,0.94209,0.12949,10552035,4470.6,12.607,0.51847,0.52749,0.35078,0.045511,0.12218,0.43653,0.41151,1.9655e-4,0,0,0,0,2.7064e-5,0.0056226,6.2992,201.06,83.992,1.5214e-5,NaN,14.938,1012.1,340.35,0.05,0.02025
0.51125,11.838,48.715,102.1,48.998,102.75,1.2562,4.0218e-6,1.2562,1.8344e-4,5.2571,11.495,28.61,-80.6,9.7921,2.2187,0,6.1472e-4,-1.4529e-7,39453,11218,59.955,0.30214,100.16,93.713,1.0235,0.14463,11782940,4453.6,15.729,0.52045,0.52774,0.35063,0.047099,0.12272,0.38394,0.39339,4.1069e-4,0,0,0,0,5.5406e-5,0.0062842,6.2992,201.06,83.984,3.3014e-5,NaN,14.923,1011.9,340.34,0.05,0.020506
0.56125,14.401,53.832,100.11,54.147,100.75,1.5334,7.0418e-6,1.5334,2.6312e-4,5.833,11.282,28.61,-80.6,9.7921,2.0135,0,8.8571e-4,-2.4477e-7,39337,11102,59.847,0.30095,100.48,93.602,1.0913,0.15975,13011782,4365.3,19.214,0.52248,0.52856,0.35047,0.048693,0.12332,0.34477,0.37588,-3.0787e-4,0,0,0,0,9.4288e-5,0.0069447,6.2992,201.06,83.97,7.3756e-5,NaN,14.906,1011.6,340.33,0.05,0.020765
0.61125,17.218,58.849,98.417,59.195,99.041,1.8392,1.1092e-5,1.8392,3.4554e-4,6.3982,11.099,28.61,-80.6,9.7921,1.8968,0,0.001202,-1.0298e-7,39224,10988,59.741,0.29979,100.66,93.493,1.1381,0.1746,14217876,4289.7,23.006,0.52453,0.52997,0.3503,0.050268,0.12396,0.32286,0.36686,3.468e-4,0,0,0,0,1.4538e-4,0.0075922,6.2992,201.06,83.951,1.1139e-4,NaN,14.888,1011.2,340.32,0.05,0.021023
0.66125,20.284,63.78,86.485,64.158,87.042,2.173,1.628e-5,2.173,4.2925e-4,6.9541,9.8293,28.61,-80.6,9.7921,1.8292,0,0.0015721,3.3933e-8,39114,10878,59.637,0.29867,100.77,93.387,1.1728,0.18921,15404052,3812.5,27.097,0.52659,0.53168,0.35011,0.051825,0.12465,0.31033,0.36358,4.9145e-4,0,0,0,0,2.1176e-4,0.0082288,6.2992,201.06,83.927,1.3491e-4,NaN,14.868,1010.9,340.31,0.05,0.02128
0.71125,23.581,68.112,26.323,68.518,26.543,2.533,2.2696e-5,2.533,5.1337e-4,7.4469,3.4156,28.61,-80.6,9.7921,1.7357,0,0.0019922,1.2271e-7,39012,10777,59.542,0.29766,100.93,93.289,1.2128,0.20204,16443816,1446.1,30.964,0.52844,0.53306,0.34993,0.053199,0.12531,0.29306,0.35507,3.0703e-4,0,0,0,0,2.9827e-4,0.0087881,6.2992,201.06,83.894,1.4709e-4,NaN,14.847,1010.5,340.3,0.05,0.021537
0.76125,27.02,69.43,9.565,69.846,9.7019,2.9096,3.0381e-5,2.9096,5.9825e-4,7.6181,1.6239,28.61,-80.6,9.7921,1.7174,0,0.0024435,1.4315e-7,38946,10710,59.48,0.29705,100.96,93.225,1.2279,0.20597,16758503,788.58,32.196,0.52901,0.53354,0.34988,0.05362,0.12552,0.28971,0.35555,4.7621e-4,0,0,0,0,4.3178e-4,0.0089586,6.2992,201.06,83.855,1.5282e-4,NaN,14.824,1010.1,340.28,0.05,0.021793
0.81125,30.503,69.908,10.785,70.331,10.93,3.2926,3.9335e-5,3.2926,6.8448e-4,7.6996,1.7754,28.61,-80.6,9.7921,1.6855,0,0.0029068,-1.1807e-7,38915,10680,59.454,0.29687,101.01,93.196,1.2405,0.20741,1.687e7,836.25,32.637,0.52922,0.5336,0.34986,0.053775,0.12559,0.28384,0.35125,-1.286e-4,0,0,0,0,6.0267e-4,0.0090209,6.2992,201.06,83.806,1.8494e-4,NaN,14.802,1009.7,340.27,0.05,0.022092
0.86125,34.012,70.448,12.057,70.877,12.215,3.6798,4.9562e-5,3.6798,7.7169e-4,7.7899,1.9613,28.61,-80.6,9.7921,1.5725,0,0.003355,3.1594e-8,38895,10659,59.438,0.29681,101.19,93.178,1.272,0.20899,16993536,886.25,33.103,0.52946,0.53328,0.34983,0.053945,0.12568,0.26322,0.33443,-1.9023e-4,0,0,0,0,7.9084e-4,0.009091,6.2992,201.06,83.75,2.2583e-4,NaN,14.779,1009.3,340.25,0.05,0.02235
0.91125,37.55,71.051,13.332,71.487,13.496,4.0717,6.1072e-5,4.0717,8.5938e-4,7.8877,2.1,28.61,-80.6,9.7921,1.638,0,0.0038137,3.1874e-7,38875,10639,59.421,0.29675,101.09,93.16,1.2585,0.21085,1.714e7,936.25,33.719,0.52973,0.53387,0.34981,0.054145,0.12578,0.27517,0.34561,4.4163e-4,0,0,0,0,0.0010039,0.0091694,6.2992,201.06,83.686,2.5503e-4,NaN,14.756,1008.8,340.24,0.05,0.022604
0.96125,41.119,71.717,14.571,72.161,14.747,4.4688,7.3874e-5,4.4688,9.4717e-4,7.9936,2.2761,28.61,-80.6,9.7921,1.5838,0,0.00428,4.1352e-7,38854,10619,59.405,0.29669,101.18,93.142,1.2753,0.21285,17296696,984.98,34.349,0.53003,0.53391,0.34978,0.05436,0.12589,0.2653,0.33738,8.8531e-5,0,0,0,0,0.0012409,0.009256,6.2992,201.06,83.613,2.7467e-4,NaN,14.733,1008.4,340.23,0.05,0.022859
1.0113,44.723,72.446,14.947,72.898,15.132,4.8713,8.7977e-5,4.8713,0.0010348,8.1084,2.3555,28.61,-80.6,9.792,1.5481,0,0.0047453,4.8343e-7,38832,10596,59.387,0.29663,101.23,93.122,1.2878,0.21504,1.747e7,1e3,35.057,0.53035,0.53407,0.34974,0.054597,0.12601,0.25882,0.332,-4.0238e-4,0,0,0,0,0.0014946,0.0093506,6.2992,201.06,83.532,2.8737e-4,NaN,14.709,1008,340.21,0.05,0.023116
1.0613,48.364,73.193,14.945,73.654,15.137,5.2797,1.0339e-4,5.2797,0.001122,8.227,2.3997,28.61,-80.6,9.792,1.5005,0,0.0052162,6.4647e-7,38799,10563,59.36,0.29653,101.31,93.092,1.3048,0.21729,17646843,1e3,35.787,0.53069,0.53419,0.34971,0.054839,0.12614,0.25024,0.32427,2.8479e-5,0,0,0,0,0.0017688,0.0094478,6.2992,201.06,83.442,2.9182e-4,NaN,14.686,1007.6,340.2,0.05,0.023371
1.1113,52.042,73.941,14.945,74.411,15.15,5.6941,1.2012e-4,5.6941,0.0012087,8.3493,2.4821,28.61,-80.6,9.792,1.3465,0,0.0056668,9.5772e-7,38758,10522,59.327,0.29641,101.56,93.056,1.3505,0.21949,1.782e7,1e3,36.477,0.53101,0.53385,0.34968,0.055077,0.12626,0.22268,0.29911,2.3906e-4,0,0,0,0,0.0020462,0.009545,6.2992,201.06,83.344,2.9928e-4,NaN,14.662,1007.1,340.18,0.05,0.023624
1.1613,55.758,74.689,14.945,75.168,15.16,6.1147,1.3818e-4,6.1147,0.0012948,8.4748,2.5441,28.61,-80.6,9.792,1.2714,0,0.0061029,1.5626e-6,38717,10482,59.294,0.29629,101.69,93.019,1.3762,0.22174,17996153,1e3,37.214,0.53135,0.53389,0.34964,0.055319,0.12639,0.20942,0.28585,1.8692e-4,0,0,0,0,0.0023256,0.0096423,6.2992,201.06,83.238,2.7847e-4,NaN,14.638,1006.7,340.17,0.05,0.02388
1.2113,59.511,75.436,14.943,75.926,15.173,6.5416,1.5757e-4,6.5416,0.0013801,8.6043,2.6312,28.61,-80.6,9.792,1.1305,0,0.0065147,1.5496e-6,38676,10441,59.261,0.29617,101.92,92.983,1.4195,0.22395,1.817e7,1e3,37.931,0.53168,0.53371,0.34961,0.055558,0.12652,0.18477,0.25926,1.2271e-5,0,0,0,0,0.0025981,0.0097396,6.2992,201.06,83.124,2.4357e-4,NaN,14.613,1006.3,340.15,0.05,0.024136
1.2613,63.302,76.184,14.941,76.683,15.185,6.9752,1.7829e-4,6.9752,0.0014645,8.7378,2.7104,28.61,-80.6,9.792,1.0269,0,0.0069015,1.604e-6,38636,10400,59.228,0.29605,102.1,92.946,1.4533,0.22619,18345439,1e3,38.675,0.53202,0.5337,0.34957,0.0558,0.12665,0.16688,0.23925,2.1932e-4,0,0,0,0,0.0028586,0.0098371,6.2992,201.06,83.004,2.5776e-4,NaN,14.589,1005.8,340.14,0.05,0.024392
1.3113,67.129,76.931,14.938,77.442,15.198,7.4155,2.0034e-4,7.4155,0.001548,8.8756,2.7999,28.61,-80.6,9.792,0.90314,0,0.0072589,2.2202e-6,38595,10359,59.194,0.29594,102.31,92.909,1.493,0.22842,1.852e7,1e3,39.422,0.53236,0.53366,0.34953,0.056042,0.12678,0.14577,0.215,-4.7792e-4,0,0,0,0,0.0031012,0.0099346,6.2992,201.06,82.876,2.894e-4,NaN,14.564,1005.4,340.12,0.05,0.024647
1.3613,70.995,77.679,14.933,78.2,15.211,7.8628,2.2376e-4,7.8628,0.0016305,9.018,2.8955,28.61,-80.6,9.792,0.77194,0,0.0075825,3.2306e-6,38554,10319,59.161,0.29582,102.54,92.872,1.5353,0.23065,18694691,1e3,40.176,0.5327,0.53366,0.3495,0.056283,0.12692,0.12368,0.18626,1.7134e-4,0,0,0,0,0.003319,0.010032,6.2992,201.06,82.742,2.8066e-4,NaN,14.539,1004.9,340.11,0.05,0.0249
1.4113,74.897,78.426,14.928,78.959,15.225,8.3174,2.4854e-4,8.3174,0.0017121,9.1654,2.9895,28.61,-80.6,9.7919,0.65581,0,0.0078613,3.6907e-6,38514,10278,59.128,0.2957,102.75,92.835,1.5738,0.2329,1.887e7,1e3,40.948,0.53304,0.53374,0.34946,0.056526,0.12705,0.10439,0.16117,-1.7103e-4,0,0,0,0,0.0034995,0.01013,6.2992,201.06,82.603,2.8893e-4,NaN,14.513,1004.5,340.09,0.05,0.025225
1.4613,78.837,79.172,14.926,79.719,15.234,8.7794,2.747e-4,8.7794,0.0017927,9.3162,3.0493,28.61,-80.6,9.7919,0.65158,0,0.0081344,3.995e-6,38473,10237,59.094,0.29558,102.76,92.798,1.5811,0.23521,19050507,1e3,41.773,0.53339,0.53408,0.34942,0.056777,0.12719,0.1037,0.16,3.0605e-4,0,0,0,0,0.003674,0.010227,6.2992,201.06,82.459,3.1068e-4,NaN,14.488,1004,340.08,0.05,0.025774
1.5113,82.815,79.919,14.919,80.478,15.248,9.2491,3.0226e-4,9.2491,0.0018724,9.4713,3.1496,28.61,-80.6,9.7919,0.53401,0,0.0083813,5.2316e-6,38432,10196,59.061,0.29546,102.97,92.761,1.6206,0.23745,19225812,1e3,42.564,0.53374,0.5342,0.34939,0.057021,0.12733,0.084425,0.13295,-2.6869e-4,0,0,0,0,0.0038273,0.010325,6.2992,201.06,82.311,3.5565e-4,NaN,14.462,1003.5,340.06,0.05,0.026035
1.5613,86.829,80.665,14.914,81.238,15.259,9.7266,3.3123e-4,9.7266,0.0019511,9.6308,3.2262,28.61,-80.6,9.7919,0.49416,0,0.008603,5.6832e-6,38391,10156,59.027,0.29534,103.04,92.724,1.6382,0.23975,19404954,1e3,43.395,0.53409,0.53449,0.34935,0.057271,0.12747,0.07795,0.12388,-3.3822e-5,0,0,0,0,0.0039559,0.010423,6.2992,201.06,82.158,4.1094e-4,NaN,14.436,1003.1,340.05,0.05,0.027712
1.6113,90.881,81.411,14.908,81.998,15.269,10.212,3.6164e-4,10.212,0.002029,9.794,3.3044,28.61,-80.6,9.7919,0.45575,0,0.008819,6.6427e-6,38351,10115,58.993,0.29522,103.11,92.687,1.6554,0.24205,19584322,1e3,44.236,0.53445,0.53479,0.34931,0.057521,0.12762,0.071737,0.11454,3.3281e-4,0,0,0,0,0.0040787,0.010521,6.2992,201.06,82.001,4.7637e-4,NaN,14.409,1002.6,340.03,0.05,0.028006
1.6613,94.97,82.157,14.895,82.759,15.286,10.706,3.9352e-4,10.706,0.002106,9.9623,3.4322,28.61,-80.6,9.7919,0.28072,0,0.0089891,1.1107e-5,38310,10074,58.96,0.2951,103.44,92.649,1.7125,0.24427,19756739,1e3,45.04,0.53479,0.53492,0.34927,0.057762,0.12776,0.043743,0.070713,-2.8309e-5,0,0,0,0,0.0041614,0.010619,6.2992,201.06,81.841,5.4981e-4,NaN,14.383,1002.1,340.01,0.05,0.028276
1.7113,99.097,82.902,14.88,83.519,15.304,11.209,4.2691e-4,11.209,0.0021823,10.138,3.575,28.61,-80.6,9.7919,0.067543,0,0.0090642,4.8903e-5,38269,10033,58.926,0.29498,103.84,92.612,1.7821,0.24647,19926958,1e3,45.849,0.53513,0.53514,0.34923,0.058001,0.1279,0.010395,0.014181,3.9491e-4,0,0,0,0,0.0041565,0.010717,6.2992,201.06,81.678,6.5181e-4,NaN,14.356,1001.6,340,0.05,0.028544
1.7613,103.26,83.646,14.868,84.28,15.319,11.72,4.6185e-4,11.72,0.0022579,10.319,3.6875,28.61,-80.6,9.7919,0.053885,0,-0.0090555,6.2844e-5,38228,9992.7,58.892,0.29486,103.87,92.574,1.7924,0.24872,20101581,1e3,46.698,0.53548,0.53549,0.34919,0.058246,0.12804,0.008287,0.018463,5.2208e-5,0,0,0,0,-0.0040742,0.010815,6.2992,201.06,81.515,8.1877e-4,NaN,14.329,1001.1,339.98,0.05,0.028813
1.8113,107.46,84.389,14.858,85.041,15.331,12.241,4.9841e-4,12.241,0.002333,10.506,3.7824,28.61,-80.6,9.7918,0.12158,0,-0.0090088,2.7735e-5,38188,9951.9,58.858,0.29474,103.74,92.537,1.7783,0.251,20278766,1e3,47.57,0.53584,0.53586,0.34915,0.058496,0.12819,0.018774,0.037827,-2.489e-5,0,0,0,0,-0.0039596,0.010913,6.2992,201.06,81.352,0.0010394,NaN,14.302,1000.6,339.97,0.05,0.029061
1.8613,111.7,85.132,14.841,85.802,15.349,12.771,5.3666e-4,12.771,0.0024077,10.699,3.9144,28.61,-80.6,9.7918,0.28841,0,-0.0088874,1.187e-5,38147,9911.2,58.824,0.29462,103.43,92.499,1.7351,0.25322,2.045e7,1e3,48.432,0.53619,0.53633,0.34912,0.058738,0.12834,0.044973,0.081448,-1.8425e-4,0,0,0,0,-0.0037868,0.011011,6.2992,201.06,81.191,0.0012495,NaN,14.274,1000.1,339.95,0.05,0.029328
1.9113,115.97,85.874,14.829,86.563,15.362,13.311,5.7669e-4,13.311,0.0024824,10.897,4.0137,28.61,-80.6,9.7918,0.36451,0,-0.0087078,9.6679e-6,38106,9870.5,58.79,0.2945,103.29,92.461,1.7191,0.2555,20626318,1e3,49.322,0.53655,0.53677,0.34907,0.058986,0.12849,0.057095,0.10157,-1.5117e-4,0,0,0,0,-0.0035711,0.011109,6.2992,201.06,81.033,0.0014635,NaN,14.246,999.65,339.93,0.05,0.029601
1.9613,120.29,86.616,14.814,87.324,15.377,13.86,6.1857e-4,13.86,0.002557,11.1,4.1192,28.61,-80.6,9.7918,0.45702,0,-0.0084749,7.8686e-6,38065,9829.7,58.756,0.29439,103.12,92.423,1.6987,0.25776,20800961,1e3,50.219,0.5369,0.53725,0.34903,0.059233,0.12864,0.071972,0.12571,-2.5017e-4,0,0,0,0,-0.0033239,0.011207,6.2992,201.06,80.878,0.0017052,NaN,14.218,999.14,339.92,0.05,0.02987
2.0113,124.64,87.357,14.805,88.086,15.387,14.421,6.624e-4,14.421,0.0026318,11.308,4.1912,28.61,-80.6,9.7918,0.46681,0,-0.0082151,7.3648e-6,38025,9789,58.722,0.29427,103.11,92.385,1.7022,0.26007,2.098e7,1e3,51.135,0.53727,0.53763,0.34899,0.059487,0.12879,0.07356,0.12861,2.1827e-4,0,0,0,0,-0.0030682,0.011306,6.2992,201.06,80.728,0.0019764,NaN,14.19,998.63,339.9,0.05,0.030141
2.0613,129.02,88.097,14.794,88.847,15.398,14.991,7.0829e-4,14.991,0.002707,11.52,4.2706,28.61,-80.6,9.7918,0.49948,0,-0.0079435,6.5771e-6,37984,9748.2,58.687,0.29415,103.05,92.347,1.6991,0.26237,21156968,1e3,52.057,0.53764,0.53805,0.34895,0.059738,0.12895,0.07886,0.13666,-2.3856e-4,0,0,0,0,-0.0028189,0.011404,6.2992,201.06,80.582,0.0022482,NaN,14.161,998.12,339.88,0.05,0.03041
2.1113,133.45,88.837,14.778,89.609,15.413,15.573,7.5637e-4,15.573,0.0027829,11.736,4.3799,28.61,-80.6,9.7918,0.60793,0,-0.0076232,5.4955e-6,37943,9707.5,58.653,0.29403,102.86,92.309,1.6746,0.26461,21329213,1e3,52.976,0.53799,0.5386,0.34891,0.059984,0.1291,0.096587,0.1647,2.0539e-4,0,0,0,0,-0.0025527,0.011502,6.2992,201.06,80.442,0.0025382,NaN,14.133,997.6,339.86,0.05,0.030674
2.1613,137.91,89.576,14.762,90.371,15.427,16.165,8.0673e-4,16.165,0.0028594,11.958,4.4819,28.61,-80.6,9.7918,0.70102,0,-0.007244,5.1811e-6,37902,9666.8,58.618,0.29391,102.69,92.271,1.6547,0.26686,21501659,1e3,53.906,0.53835,0.53915,0.34887,0.06023,0.12926,0.11197,0.18749,-2.5063e-4,0,0,0,0,-0.0022666,0.011601,6.2992,201.06,80.308,0.0028415,NaN,14.104,997.08,339.85,0.05,0.030942
2.2113,142.4,90.314,14.744,91.132,15.443,16.769,8.5953e-4,16.769,0.0029369,12.185,4.5947,28.61,-80.6,9.7917,0.82153,0,-0.0068023,4.3824e-6,37862,9626,58.584,0.29379,102.49,92.233,1.6276,0.26907,21671681,1e3,54.842,0.53871,0.53981,0.34882,0.060473,0.12941,0.13213,0.21703,-3.6983e-4,0,0,0,0,-0.001966,0.011699,6.2992,201.06,80.182,0.0031664,NaN,14.074,996.55,339.83,0.05,0.031213
2.2613,146.94,91.051,14.723,91.894,15.461,17.384,9.149e-4,17.384,0.0030155,12.418,4.7202,28.61,-80.6,9.7917,0.9726,0,-0.0062775,4.0754e-6,37821,9585.3,58.549,0.29367,102.23,92.195,1.5926,0.27126,21838919,1e3,55.788,0.53906,0.54059,0.34878,0.060713,0.12957,0.15776,0.25241,-2.8714e-4,0,0,0,0,-0.0016477,0.011797,6.2992,201.06,80.064,0.003485,NaN,14.045,996.02,339.81,0.05,0.031487
2.3113,151.51,91.787,14.705,92.656,15.477,18.01,9.7298e-4,18.01,0.0030953,12.657,4.8285,28.61,-80.6,9.7917,1.0894,0,-0.0056709,3.8864e-6,37780,9544.5,58.515,0.29355,102.03,92.156,1.5675,0.27346,22007159,1e3,56.743,0.53942,0.54133,0.34874,0.060955,0.12972,0.17787,0.28052,-4.2581e-4,0,0,0,0,-0.0013232,0.011896,6.2992,201.06,79.956,0.0038096,NaN,14.015,995.48,339.79,0.05,0.031752
2.3612,156.12,92.523,14.691,93.418,15.49,18.649,0.0010339,18.649,0.0031765,12.9,4.91,28.61,-80.6,9.7917,1.1557,0,-0.0050065,3.3718e-6,37739,9503.8,58.48,0.29343,101.92,92.118,1.5563,0.27569,22177393,1e3,57.704,0.53978,0.54192,0.3487,0.0612,0.12988,0.18941,0.29552,-1.0482e-4,0,0,0,0,-0.0010148,0.011995,6.2992,201.06,79.86,0.0041349,NaN,13.985,994.94,339.77,0.05,0.03202
2.4112,160.76,93.257,14.682,94.18,15.499,19.301,0.0010979,19.301,0.0032591,13.147,4.9653,28.61,-80.6,9.7917,1.1768,0,-0.0043032,3.2076e-6,37699,9463.1,58.445,0.29331,101.89,92.079,1.5571,0.27794,22349364,1e3,58.666,0.54014,0.54237,0.34865,0.061448,0.13004,0.19309,0.30109,2.2925e-4,0,0,0,0,-7.3772e-4,0.012093,6.2992,201.06,79.776,0.0044323,NaN,13.955,994.4,339.76,0.05,0.032284
2.4612,165.44,93.992,14.681,94.942,15.501,19.964,0.0011649,19.964,0.0033433,13.396,4.9761,28.61,-80.6,9.7917,1.1184,0,-0.0036002,3.2622e-6,37658,9422.3,58.41,0.29319,101.99,92.04,1.5791,0.28025,22525392,1e3,59.629,0.54052,0.54253,0.34861,0.061702,0.13021,0.18294,0.28971,4.6232e-4,0,0,0,0,-5.0795e-4,0.012192,6.2992,201.06,79.705,0.004715,NaN,13.925,993.85,339.74,0.05,0.032543
2.5112,170.16,94.726,14.679,95.704,15.503,20.64,0.0012353,20.64,0.0034291,13.645,4.9859,28.61,-80.6,9.7917,1.0705,0,-0.0029134,2.9537e-6,37617,9381.6,58.375,0.29307,102.07,92.002,1.5984,0.28254,2.27e7,1e3,60.597,0.54089,0.54274,0.34856,0.061954,0.13038,0.17464,0.27972,-4.6877e-4,0,0,0,0,-3.2731e-4,0.01229,6.2992,201.06,79.646,0.0049885,NaN,13.894,993.29,339.72,0.05,0.033007
2.5612,174.91,95.461,14.677,96.467,15.507,21.329,0.0013091,21.329,0.0035166,13.895,5.0053,28.61,-80.6,9.7916,1.0529,0,-0.0022301,2.9619e-6,37576,9340.8,58.34,0.29295,102.1,91.963,1.6096,0.2848,22871705,1e3,61.571,0.54127,0.54306,0.34852,0.062203,0.13054,0.17161,0.27673,2.1696e-4,0,0,0,0,-1.8877e-4,0.012389,6.2992,201.06,79.6,0.0052822,NaN,13.863,992.74,339.7,0.05,0.033284
2.6112,179.71,96.195,14.675,97.229,15.509,22.03,0.0013864,22.03,0.0036057,14.146,5.0158,28.61,-80.6,9.7916,1.0289,0,-0.0015438,2.7558e-6,37536,9300.1,58.305,0.29284,102.14,91.924,1.6225,0.28705,23042909,1e3,62.547,0.54164,0.54335,0.34847,0.062452,0.13071,0.16749,0.2722,7.9041e-5,0,0,0,0,-8.9053e-5,0.012488,6.2992,201.06,79.566,0.0055518,NaN,13.832,992.17,339.68,0.05,0.033549
2.6612,184.53,96.929,14.679,97.992,15.508,22.743,0.0014673,22.743,0.0036965,14.396,5.0025,28.61,-80.6,9.7916,0.96997,0,-8.6783e-4,3.119e-6,37495,9259.4,58.27,0.29272,102.25,91.885,1.6449,0.28933,23215529,1e3,63.528,0.54201,0.54354,0.34843,0.062703,0.13088,0.15739,0.25922,-1.5252e-4,0,0,0,0,-2.7704e-5,0.012587,6.2992,201.06,79.544,0.0058439,NaN,13.801,991.61,339.66,0.05,0.033811
2.7112,189.4,97.664,14.684,98.756,15.505,23.469,0.0015521,23.469,0.0037891,14.646,4.977,28.61,-80.6,9.7916,0.89904,0,-2.2746e-4,3.1623e-6,37454,9218.6,58.235,0.2926,102.37,91.846,1.6708,0.2916,23388156,1e3,64.515,0.54239,0.54371,0.34838,0.062955,0.13105,0.14532,0.24248,-1.6123e-4,0,0,0,0,-1.8738e-6,0.012685,6.2992,201.06,79.535,0.0061691,NaN,13.769,991.04,339.64,0.05,0.034955
2.7612,194.3,98.398,14.682,99.519,15.508,24.208,0.0016408,24.208,0.0038834,14.895,4.9941,28.61,-80.6,9.7916,0.91882,0,4.195e-4,2.6551e-6,37414,9177.9,58.2,0.29248,102.34,91.807,1.6719,0.29379,23553602,1e3,65.501,0.54275,0.54413,0.34834,0.063198,0.13122,0.14869,0.24855,2.1218e-4,0,0,0,0,6.2795e-6,0.012784,6.2992,201.06,79.536,0.0064692,NaN,13.737,990.46,339.62,0.05,0.03523
2.8112,199.24,99.133,14.688,100.28,15.504,24.959,0.0017335,24.959,0.0039794,15.144,4.9641,28.61,-80.6,9.7916,0.86044,0,0.0010654,2.8826e-6,37373,9137.1,58.164,0.29236,102.44,91.767,1.6944,0.29604,23723482,1e3,66.495,0.54313,0.54434,0.34829,0.063447,0.13139,0.1388,0.2356,1.3295e-4,0,0,0,0,3.9894e-5,0.012883,6.2992,201.06,79.55,0.0067434,NaN,13.705,989.88,339.6,0.05,0.0355
2.8612,204.21,99.868,14.698,101.05,15.498,25.722,0.0018304,25.722,0.0040772,15.391,4.9152,28.61,-80.6,9.7915,0.7778,0,0.0016711,3.3742e-6,37332,9096.4,58.129,0.29224,102.59,91.728,1.7238,0.29831,23894237,1e3,67.496,0.54351,0.5445,0.34824,0.063698,0.13157,0.12489,0.21536,1.5863e-4,0,0,0,0,9.6681e-5,0.012982,6.2992,201.06,79.574,0.007044,NaN,13.673,989.3,339.58,0.05,0.035769
2.9112,209.23,100.6,14.707,101.81,15.491,26.498,0.0019316,26.498,0.0041766,15.636,4.8667,28.61,-80.6,9.7915,0.70597,0,0.0022416,3.4992e-6,37291,9055.6,58.093,0.29212,102.71,91.689,1.7504,0.30055,24063432,1e3,68.501,0.54388,0.5447,0.34819,0.063947,0.13174,0.11291,0.19754,4.1504e-4,0,0,0,0,1.7138e-4,0.013081,6.2992,201.06,79.61,0.007361,NaN,13.64,988.71,339.56,0.05,0.036035
2.9612,214.27,101.34,14.725,102.58,15.478,27.286,0.0020372,27.286,0.0042777,15.877,4.7677,28.61,-80.6,9.7915,0.55199,0,0.0027367,3.5238e-6,37251,9014.9,58.058,0.292,102.99,91.649,1.8004,0.30287,24237903,1e3,69.529,0.54427,0.54478,0.34814,0.064204,0.13193,0.087518,0.15751,3.7824e-4,0,0,0,0,2.5159e-4,0.01318,6.2992,201.06,79.655,0.0076703,NaN,13.607,988.12,339.54,0.05,0.037545
3.0112,219.36,102.08,14.746,103.34,15.462,28.086,0.0021473,28.086,0.0043805,16.113,4.6506,28.61,-80.6,9.7915,0.37346,0,0.0031118,3.9837e-6,37210,8974.2,58.022,0.29188,103.32,91.61,1.8584,0.30521,24413843,1e3,70.579,0.54467,0.5449,0.34809,0.064463,0.13211,0.058613,0.10821,3.2898e-4,0,0,0,0,3.2035e-4,0.013279,6.2992,201.06,79.707,0.0079586,NaN,13.574,987.52,339.52,0.05,0.037813
3.0612,224.48,102.82,14.765,104.11,15.446,28.897,0.002262,28.897,0.0044849,16.343,4.5357,28.61,-80.6,9.7915,0.20573,0,0.003356,4.4414e-6,37169,8933.4,57.986,0.29176,103.63,91.57,1.9143,0.30754,24588814,1e3,71.647,0.54506,0.54513,0.34804,0.064722,0.1323,0.031978,0.061314,-2.0411e-4,0,0,0,0,3.6704e-4,0.013378,6.2992,201.06,79.766,0.0082056,NaN,13.541,986.92,339.5,0.05,0.038066
3.1112,229.64,103.55,14.784,104.87,15.431,29.72,0.0023813,29.72,0.0045909,16.567,4.4228,28.61,-80.6,9.7915,0.046281,0,0.0034617,1.3607e-5,37128,8892.7,57.95,0.29164,103.93,91.53,1.9686,0.30986,24763125,1e3,72.732,0.54546,0.54546,0.34799,0.064981,0.13248,0.0071275,0.013207,-4.4602e-4,0,0,0,0,3.8472e-4,0.013477,6.2992,201.06,79.827,0.0084164,NaN,13.507,986.32,339.48,0.05,0.038322
3.1612,234.84,104.29,14.798,105.64,15.419,30.554,0.0025055,30.554,0.0046984,16.786,4.333,28.61,-80.6,9.7915,0.067585,0,-0.0034515,6.0247e-6,37088,8851.9,57.914,0.29152,103.89,91.49,1.9689,0.31214,24933952,1e3,73.816,0.54585,0.54585,0.34794,0.065235,0.13267,0.010422,0.020651,-5.2227e-6,0,0,0,0,-3.7693e-4,0.013576,6.2992,201.06,79.89,0.008641,NaN,13.474,985.71,339.46,0.05,0.038578
3.2112,240.07,105.04,14.812,106.4,15.408,31.398,0.0026344,31.398,0.0048072,17,4.2427,28.61,-80.6,9.7914,0.17846,0,-0.0033356,1.7182e-6,37047,8811.2,57.878,0.29141,103.69,91.45,1.9424,0.31443,25104658,1e3,74.913,0.54624,0.54629,0.34789,0.065489,0.13285,0.027702,0.053863,-6.5559e-5,0,0,0,0,-3.4699e-4,0.013675,6.2992,201.06,79.951,0.0088214,NaN,13.44,985.09,339.44,0.05,0.038998
3.2612,245.34,105.78,14.822,107.17,15.398,32.253,0.0027681,32.253,0.0049174,17.21,4.1703,28.61,-80.6,9.7914,0.25626,0,-0.0031382,8.8197e-7,37006,8770.5,57.842,0.29129,103.54,91.41,1.926,0.31669,25272939,1e3,76.007,0.54662,0.54673,0.34784,0.065741,0.13304,0.039961,0.076784,1.7643e-4,0,0,0,0,-3.028e-4,0.013774,6.2992,201.06,80.009,0.0089286,NaN,13.405,984.48,339.42,0.05,0.039261
3.3112,250.65,106.52,14.832,107.93,15.389,33.119,0.0029067,33.119,0.0050286,17.417,4.1027,28.61,-80.6,9.7914,0.32608,0,-0.002861,-9.0412e-8,36965,8729.7,57.806,0.29117,103.42,91.37,1.9123,0.31894,25440850,1e3,77.109,0.54701,0.54719,0.34779,0.065993,0.13322,0.05106,0.098029,3.9498e-4,0,0,0,0,-2.4816e-4,0.013872,6.2992,201.06,80.064,0.0090215,NaN,13.371,983.85,339.4,0.05,0.039567
3.3612,255.99,107.26,14.836,108.7,15.384,33.995,0.0030501,33.995,0.0051407,17.622,4.0705,28.61,-80.6,9.7914,0.33939,0,-0.002555,-1.4672e-6,36925,8689,57.77,0.29105,103.39,91.33,1.9151,0.32115,25604477,1e3,78.186,0.54739,0.54758,0.34774,0.066239,0.13341,0.053189,0.10195,1.5583e-4,0,0,0,0,-1.9522e-4,0.013971,6.2992,201.06,80.112,0.0091912,NaN,13.336,983.23,339.38,0.05,0.039916
3.4112,261.37,108,14.846,109.46,15.373,34.881,0.0031984,34.881,0.0052537,17.823,3.9907,28.61,-80.6,9.7914,0.43233,0,-0.00219,-1.7215e-6,36884,8648.2,57.734,0.29093,103.23,91.29,1.8949,0.32344,25774886,1e3,79.331,0.54779,0.5481,0.34769,0.066495,0.1336,0.068124,0.12949,1.407e-4,0,0,0,0,-1.4142e-4,0.01407,6.2992,201.06,80.155,0.0094167,NaN,13.301,982.6,339.36,0.05,0.040186
3.4612,266.79,108.75,14.855,110.23,15.362,35.777,0.0033516,35.777,0.0053675,18.021,3.9165,28.61,-80.6,9.7914,0.51758,0,-0.001728,-2.561e-6,36843,8607.5,57.697,0.29081,103.07,91.249,1.8772,0.32574,25945239,1e3,80.488,0.54819,0.54863,0.34764,0.066752,0.13379,0.081962,0.15377,-1.0827e-4,0,0,0,0,-8.6822e-5,0.014169,6.2992,201.06,80.191,0.009709,NaN,13.266,981.96,339.34,0.05,0.040454
3.5112,272.25,109.49,14.858,110.99,15.356,36.683,0.0035099,36.683,0.005482,18.216,3.8796,28.61,-80.6,9.7913,0.54869,0,-0.0012166,-2.6342e-6,36802,8566.8,57.661,0.29069,103.02,91.209,1.8751,0.32799,26111717,1e3,81.617,0.54858,0.54908,0.34759,0.067004,0.13399,0.08705,0.16343,-3.5745e-4,0,0,0,0,-4.2449e-5,0.014268,6.2992,201.06,80.217,0.010005,NaN,13.23,981.32,339.32,0.05,0.040769
3.5612,277.74,110.23,14.864,111.76,15.346,37.599,0.0036732,37.599,0.0055974,18.408,3.8149,28.61,-80.6,9.7913,0.62647,0,-6.3247e-4,-1.8057e-6,36762,8526,57.624,0.29057,102.88,91.168,1.8599,0.33031,26282772,1e3,82.801,0.54898,0.54964,0.34753,0.067263,0.13418,0.099839,0.18551,5.2105e-5,0,0,0,0,-1.1315e-5,0.014366,6.2992,201.06,80.234,0.010243,NaN,13.195,980.68,339.29,0.05,0.044588
3.6112,283.27,110.98,14.864,112.52,15.34,38.524,0.0038417,38.524,0.0057136,18.599,3.793,28.61,-80.6,9.7913,0.64548,0,-2.0247e-6,-2.2023e-6,36721,8485.3,57.588,0.29045,102.85,91.127,1.8613,0.33257,2.645e7,1e3,83.951,0.54938,0.55007,0.34748,0.067517,0.13438,0.10299,0.19156,-9.212e-5,0,0,0,0,0,0.014465,6.2992,201.06,80.24,0.01045,NaN,13.159,980.03,339.27,0.05,0.045012
3.6612,288.84,111.72,14.868,113.29,15.331,39.459,0.0040154,39.459,0.0058305,18.787,3.7373,28.61,-80.6,9.7913,0.7196,0,6.8013e-4,-1.7884e-6,36680,8444.5,57.551,0.29033,102.72,91.087,1.8474,0.33491,26622067,1e3,85.167,0.54979,0.55065,0.34743,0.067779,0.13458,0.11531,0.21274,1.1478e-4,0,0,0,0,1.273e-5,0.014564,6.2992,201.06,80.234,0.010646,NaN,13.123,979.37,339.25,0.05,0.045298
3.7112,294.44,112.46,14.873,114.05,15.32,40.403,0.0041944,40.403,0.0059481,18.972,3.6745,28.61,-80.6,9.7913,0.80843,0,0.0014737,-1.6927e-6,36639,8403.8,57.514,0.29021,102.57,91.046,1.8296,0.33728,26796897,1e3,86.419,0.5502,0.55129,0.34737,0.068045,0.13479,0.1302,0.23812,-4.6388e-4,0,0,0,0,5.8939e-5,0.014663,6.2992,201.06,80.214,0.010819,NaN,13.086,978.72,339.23,0.05,0.045684
3.7612,300.09,113.21,14.86,114.82,15.322,41.356,0.0043787,41.356,0.0060664,19.157,3.737,28.61,-80.6,9.7913,0.73041,0,0.002272,-1.0148e-6,36599,8363.1,57.477,0.29009,102.71,91.005,1.8581,0.33948,26958190,1e3,87.524,0.55059,0.55148,0.34732,0.068293,0.13498,0.11713,0.21793,-4.9682e-4,0,0,0,0,1.3829e-4,0.014761,6.2992,201.06,80.181,0.010895,NaN,13.049,978.05,339.21,0.05,0.045955
3.8112,305.76,113.95,14.847,115.58,15.324,42.319,0.0045684,42.319,0.0061853,19.346,3.7915,28.61,-80.6,9.7912,0.67267,0,0.0030084,1.9554e-7,36558,8322.3,57.44,0.28997,102.81,90.964,1.8811,0.34172,27122042,1e3,88.664,0.55099,0.55175,0.34726,0.068545,0.13518,0.10753,0.20213,5.9624e-5,0,0,0,0,2.3934e-4,0.01486,6.2992,201.06,80.133,0.01089,NaN,13.013,977.39,339.18,0.05,0.046407
3.8612,311.48,114.69,14.839,116.35,15.32,43.291,0.0047635,43.291,0.0063045,19.536,3.8054,28.61,-80.6,9.7912,0.67899,0,0.0037435,1.0516e-6,36517,8281.6,57.403,0.28986,102.8,90.923,1.8863,0.34405,27292393,1e3,89.882,0.5514,0.55217,0.34721,0.068806,0.13539,0.10859,0.2047,2.5729e-4,0,0,0,0,3.6564e-4,0.014958,6.2992,201.06,80.072,0.010787,NaN,12.975,976.72,339.16,0.05,0.046668
3.9112,317.23,115.44,14.826,117.11,15.32,44.272,0.0049638,44.272,0.006424,19.727,3.8588,28.61,-80.6,9.7912,0.63954,0,0.0044692,7.0088e-7,36476,8240.8,57.366,0.28974,102.88,90.882,1.9043,0.34633,2.746e7,1e3,91.072,0.55181,0.5525,0.34715,0.069064,0.13559,0.10206,0.19367,6.971e-5,0,0,0,0,5.1434e-4,0.015057,6.2992,201.06,79.998,0.010697,NaN,12.938,976.04,339.14,0.05,0.046931
3.9612,323.02,116.18,14.81,117.87,15.321,45.263,0.0051694,45.263,0.0065436,19.922,3.9253,28.61,-80.6,9.7912,0.59051,0,0.0051622,4.6218e-7,36436,8200.1,57.329,0.28962,102.97,90.84,1.9251,0.34863,27626607,1e3,92.268,0.55222,0.55281,0.3471,0.069322,0.1358,0.093978,0.18061,-2.6026e-4,0,0,0,0,6.7733e-4,0.015156,6.2992,201.06,79.912,0.010665,NaN,12.9,975.36,339.12,0.05,0.047193
4.0112,328.85,116.92,14.786,118.64,15.327,46.264,0.0053802,46.264,0.0066631,20.121,4.036,28.61,-80.6,9.7912,0.49043,0,0.0057882,1.4602e-6,36395,8159.4,57.292,0.2895,103.15,90.799,1.9605,0.35087,2.779e7,1e3,93.431,0.55262,0.55303,0.34704,0.069575,0.136,0.077612,0.15182,-3.7221e-4,0,0,0,0,8.4081e-4,0.015254,6.2992,201.06,79.813,0.010633,NaN,12.862,974.68,339.09,0.05,0.047465
4.0612,334.72,117.66,14.757,119.4,15.338,47.276,0.0055962,47.276,0.0067824,20.326,4.1826,28.61,-80.6,9.7911,0.34932,0,0.0062737,3.1335e-6,36354,8118.6,57.255,0.28938,103.41,90.757,2.0083,0.35307,27949293,1e3,94.575,0.55302,0.55322,0.34699,0.069824,0.13621,0.05484,0.10933,-1.2301e-4,0,0,0,0,9.7563e-4,0.015353,6.2992,201.06,79.704,0.010571,NaN,12.824,973.99,339.07,0.05,0.050042
4.1112,340.62,118.39,14.733,120.16,15.343,48.297,0.0058175,48.297,0.0069014,20.538,4.2841,28.61,-80.6,9.7911,0.27424,0,0.0066508,4.8363e-6,36314,8077.9,57.217,0.28926,103.55,90.716,2.0372,0.35536,28115137,1e3,95.794,0.55343,0.55356,0.34693,0.070082,0.13642,0.04287,0.086437,4.617e-4,0,0,0,0,0.0010825,0.015451,6.2992,201.06,79.588,0.010522,NaN,12.786,973.3,339.05,0.05,0.050687
4.1612,346.56,119.13,14.704,120.93,15.353,49.329,0.006044,49.329,0.0070201,20.755,4.4159,28.61,-80.599,9.7911,0.16335,0,0.0069251,8.6351e-6,36273,8037.1,57.18,0.28914,103.76,90.674,2.077,0.35761,28277687,1e3,96.997,0.55384,0.55388,0.34687,0.070336,0.13662,0.025374,0.051766,4.358e-4,0,0,0,0,0.0011591,0.01555,6.2992,201.06,79.465,0.01052,NaN,12.747,972.6,339.02,0.05,0.052103
4.2112,352.53,119.87,14.668,121.69,15.367,50.373,0.0062758,50.373,0.0071383,20.981,4.5788,28.61,-80.599,9.7911,0.013908,0,0.0070255,1.2241e-4,36232,7996.4,57.142,0.28902,104.04,90.632,2.1289,0.35981,28436305,1e3,98.187,0.55423,0.55423,0.34682,0.070585,0.13683,0.0021417,0.0032911,4.4682e-4,0,0,0,0,0.0011785,0.015649,6.2992,201.06,79.339,0.010576,NaN,12.709,971.9,339,0.05,0.052376
4.2612,358.54,120.6,14.642,122.45,15.372,51.428,0.0065129,51.428,0.0072561,21.212,4.6802,28.61,-80.599,9.7911,0.051357,0,-0.0069878,3.5516e-5,36191,7955.6,57.105,0.2889,103.97,90.59,2.1246,0.36211,28602250,1e3,99.449,0.55465,0.55466,0.34676,0.070845,0.13705,0.0079267,0.018465,-1.6528e-4,0,0,0,0,-0.0011513,0.015747,6.2992,201.06,79.213,0.010683,NaN,12.669,971.2,338.98,0.05,0.052882
4.3112,364.59,121.33,14.624,123.21,15.37,52.494,0.0067555,52.494,0.0073734,21.448,4.7324,28.61,-80.599,9.7911,0.051338,0,-0.0069199,3.2517e-5,36151,7914.9,57.067,0.28878,103.98,90.549,2.1317,0.36449,28773952,1e3,100.76,0.55508,0.55509,0.3467,0.071114,0.13727,0.0079245,0.01794,-1.2552e-4,0,0,0,0,-0.0011146,0.015846,6.2992,201.06,79.088,0.010901,NaN,12.63,970.49,338.95,0.05,0.053344
4.3612,370.68,122.06,14.596,123.97,15.376,53.572,0.0070036,53.572,0.0074903,21.687,4.8357,28.61,-80.599,9.791,0.11774,0,-0.0068138,1.5029e-5,36110,7874.2,57.029,0.28866,103.85,90.506,2.1188,0.36678,28938777,1e3,102.04,0.5555,0.55553,0.34664,0.071374,0.13749,0.018247,0.039726,-9.0585e-6,0,0,0,0,-0.0010673,0.015945,6.2992,201.06,78.964,0.011204,NaN,12.591,969.78,338.93,0.05,0.053614
4.4112,376.8,122.79,14.56,124.73,15.39,54.663,0.0072575,54.663,0.007607,21.933,4.9865,28.61,-80.599,9.791,0.24328,0,-0.0065521,9.0824e-6,36069,7833.4,56.991,0.28854,103.62,90.464,2.0886,0.36899,29096901,1e3,103.29,0.55591,0.55601,0.34658,0.071625,0.1377,0.037982,0.080356,2.8289e-7,0,0,0,0,-9.7527e-4,0.016043,6.2992,201.06,78.844,0.01161,NaN,12.551,969.06,338.9,0.05,0.053875
4.4612,382.95,123.52,14.538,125.5,15.39,55.766,0.0075174,55.766,0.0077237,22.184,5.0489,28.61,-80.599,9.791,0.25917,0,-0.0062033,6.8279e-6,36028,7792.7,56.953,0.28842,103.59,90.422,2.0911,0.37133,29264703,1e3,104.6,0.55634,0.55645,0.34652,0.07189,0.13792,0.040505,0.085471,-2.981e-4,0,0,0,0,-8.6334e-4,0.016142,6.2992,201.06,78.729,0.012043,NaN,12.511,968.34,338.88,0.05,0.054127
4.5112,389.15,124.25,14.518,126.26,15.389,56.881,0.0077837,56.881,0.0078404,22.437,5.1034,28.61,-80.599,9.791,0.26831,0,-0.0058422,5.6131e-6,35988,7751.9,56.915,0.28831,103.58,90.38,2.0955,0.37367,29432244,1e3,105.93,0.55677,0.55689,0.34646,0.072156,0.13815,0.041958,0.088939,3.8437e-4,0,0,0,0,-7.5631e-4,0.01624,6.2992,201.06,78.62,0.012475,NaN,12.471,967.61,338.86,0.05,0.054466
4.5612,395.38,124.97,14.492,127.02,15.392,58.01,0.0080566,58.01,0.0079575,22.695,5.1866,28.61,-80.599,9.791,0.31519,0,-0.0054193,3.6691e-6,35947,7711.2,56.877,0.28819,103.5,90.337,2.0889,0.37595,29594855,1e3,107.24,0.55719,0.55736,0.3464,0.072415,0.13837,0.049428,0.1038,6.2541e-5,0,0,0,0,-6.4301e-4,0.016339,6.2992,201.06,78.519,0.012868,NaN,12.43,966.88,338.83,0.05,0.054754
4.6112,401.65,125.7,14.474,127.77,15.389,59.151,0.0083365,59.151,0.008075,22.955,5.2278,28.61,-80.599,9.7909,0.31517,0,-0.0049809,2.9532e-6,35906,7670.5,56.839,0.28807,103.5,90.295,2.0961,0.37828,29761090,1e3,108.57,0.55762,0.55779,0.34634,0.07268,0.1386,0.04943,0.10443,-4.88e-4,0,0,0,0,-5.3657e-4,0.016438,6.2992,201.06,78.425,0.013211,NaN,12.389,966.14,338.81,0.05,0.055017
4.6612,407.95,126.42,14.442,128.53,15.399,60.305,0.0086234,60.305,0.0081931,23.22,5.3445,28.61,-80.599,9.7909,0.40689,0,-0.0044566,3.267e-6,35865,7629.7,56.8,0.28795,103.33,90.252,2.0766,0.38047,29916467,1e3,109.85,0.55803,0.55831,0.34628,0.072931,0.13882,0.064158,0.13355,4.174e-4,0,0,0,0,-4.2467e-4,0.016536,6.2992,201.06,78.34,0.01358,NaN,12.348,965.4,338.78,0.05,0.055278
4.7112,414.29,127.14,14.412,129.29,15.408,61.473,0.0089178,61.473,0.0083118,23.49,5.4489,28.61,-80.599,9.7909,0.48681,0,-0.0038053,2.8578e-6,35825,7589,56.762,0.28783,103.19,90.209,2.0608,0.38267,30071324,1e3,111.14,0.55844,0.55884,0.34622,0.07318,0.13904,0.077119,0.15972,2.0103e-4,0,0,0,0,-3.0612e-4,0.016635,6.2992,201.06,78.266,0.01388,NaN,12.307,964.66,338.76,0.05,0.055534
4.7612,420.66,127.86,14.387,130.05,15.411,62.654,0.0092197,62.654,0.0084311,23.764,5.5244,28.61,-80.599,9.7909,0.53822,0,-0.0030422,2.9655e-6,35784,7548.2,56.723,0.28771,103.1,90.167,2.0533,0.38488,30227216,1e3,112.44,0.55885,0.55935,0.34616,0.073433,0.13926,0.085521,0.17612,3.4796e-4,0,0,0,0,-1.9344e-4,0.016733,6.2992,201.06,78.204,0.014181,NaN,12.266,963.91,338.73,0.05,0.055792
4.8112,427.07,128.58,14.374,130.81,15.406,63.849,0.0095293,63.849,0.0085512,24.041,5.543,28.61,-80.599,9.7909,0.5323,0,-0.0022527,2.0285e-6,35743,7507.5,56.685,0.28759,103.11,90.124,2.0622,0.38714,30387224,1e3,113.77,0.55928,0.55976,0.3461,0.073691,0.13948,0.08456,0.17418,2.9435e-4,0,0,0,0,-1.0485e-4,0.016832,6.2992,201.06,78.156,0.014413,NaN,12.224,963.16,338.71,0.05,0.056102
4.8612,433.52,129.3,14.355,131.57,15.406,65.058,0.0098468,65.058,0.0086719,24.32,5.5904,28.61,-80.599,9.7908,0.56434,0,-0.0014207,1.1171e-6,35702,7466.8,56.646,0.28747,103.06,90.081,2.0603,0.38934,30541231,1e3,115.07,0.55969,0.56023,0.34604,0.073942,0.13971,0.089821,0.18469,1.9511e-4,0,0,0,0,-4.1239e-5,0.01693,6.2992,201.06,78.123,0.014571,NaN,12.182,962.41,338.68,0.05,0.05655
4.9112,440,130.02,14.346,132.32,15.398,66.281,0.010172,66.281,0.0087933,24.599,5.5942,28.61,-80.599,9.7908,0.55585,0,-5.6375e-4,1.3502e-6,35662,7426,56.608,0.28735,103.08,90.038,2.07,0.39157,30697508,1e3,116.38,0.56011,0.56064,0.34598,0.074196,0.13993,0.088437,0.18337,1.3747e-4,0,0,0,0,-6.4207e-6,0.017029,6.2992,201.06,78.105,0.014669,NaN,12.14,961.64,338.66,0.05,0.05682
4.9612,446.52,130.74,14.341,133.08,15.387,67.518,0.010506,67.518,0.0089152,24.879,5.5775,28.61,-80.599,9.7908,0.53278,0,2.8377e-4,1.4191e-6,35621,7385.3,56.569,0.28723,103.12,89.994,2.0838,0.39379,30853371,1e3,117.69,0.56053,0.56101,0.34592,0.074451,0.14016,0.084662,0.1765,-3.8318e-4,0,0,0,0,1.6087e-6,0.017127,6.2992,201.06,78.103,0.014783,NaN,12.098,960.88,338.63,0.05,0.057071
5.0112,453.08,131.45,14.339,133.84,15.373,68.769,0.010847,68.769,0.0090375,25.157,5.5415,28.61,-80.599,9.7908,0.49645,0,0.0010981,1.5004e-6,35580,7344.5,56.53,0.28711,103.19,89.951,2.1015,0.39602,31008761,1e3,119.01,0.56095,0.56137,0.34586,0.074706,0.14039,0.078734,0.16583,3.4121e-4,0,0,0,0,2.3823e-5,0.017225,6.2992,201.06,78.115,0.014922,NaN,12.055,960.11,338.6,0.05,0.057325
5.0612,459.67,132.17,14.346,134.6,15.353,70.034,0.011197,70.034,0.0091602,25.433,5.4697,28.61,-80.599,9.7908,0.42962,0,0.0018517,1.1815e-6,35539,7303.8,56.491,0.28699,103.31,89.908,2.1281,0.39826,31165715,1e3,120.33,0.56138,0.5617,0.34579,0.074963,0.14062,0.067881,0.14472,-3.1905e-4,0,0,0,0,6.6991e-5,0.017324,6.2992,201.06,78.142,0.015034,NaN,12.012,959.34,338.58,0.05,0.057589
5.1112,466.29,132.89,14.362,135.35,15.324,71.312,0.011554,71.312,0.0092832,25.703,5.3433,28.61,-80.599,9.7907,0.31224,0,0.0024567,1.9737e-6,35499,7263.1,56.452,0.28687,103.53,89.864,2.1695,0.40057,31326841,1e3,121.69,0.56182,0.56199,0.34573,0.075227,0.14086,0.049007,0.10633,3.2964e-4,0,0,0,0,1.1658e-4,0.017422,6.2992,201.06,78.181,0.015194,NaN,11.969,958.56,338.55,0.05,0.057997
5.1612,472.96,133.61,14.377,136.11,15.297,72.604,0.01192,72.604,0.0094064,25.968,5.2255,28.61,-80.599,9.7907,0.2095,0,0.0029003,6.6736e-7,35458,7222.3,56.413,0.28676,103.72,89.821,2.2071,0.40285,31485295,1e3,123.05,0.56225,0.56233,0.34567,0.075489,0.1411,0.03269,0.071871,-6.8027e-6,0,0,0,0,1.6068e-4,0.01752,6.2992,201.06,78.229,0.015336,NaN,11.926,957.78,338.53,0.05,0.058249
5.2112,479.65,134.33,14.395,136.86,15.267,73.909,0.012293,73.909,0.0095298,26.225,5.085,28.61,-80.599,9.7907,0.086902,0,0.0031465,4.085e-7,35417,7181.6,56.373,0.28664,103.96,89.777,2.2511,0.40515,31645305,1e3,124.44,0.56269,0.56271,0.3456,0.075753,0.14134,0.013465,0.03018,1.7306e-4,0,0,0,0,1.8701e-4,0.017618,6.2992,201.06,78.284,0.01547,NaN,11.882,956.99,338.5,0.05,0.058879
5.2612,486.39,135.05,14.406,137.62,15.243,75.227,0.012674,75.227,0.0096533,26.477,4.9787,28.61,-80.599,9.7907,0.0027156,0,0.0032297,-6.5996e-5,35376,7140.8,56.334,0.28652,104.12,89.733,2.2839,0.40739,31800570,1e3,125.82,0.56312,0.56312,0.34554,0.07601,0.14158,4.1873e-4,9.3593e-4,3.6029e-4,0,0,0,0,1.949e-4,0.017716,6.2992,201.06,78.342,0.01557,NaN,11.838,956.2,338.47,0.05,0.059156
5.3112,493.16,135.77,14.424,138.37,15.212,76.557,0.013064,76.557,0.0097769,26.723,4.8318,28.61,-80.599,9.7907,0.12089,0,-0.0031251,-2.5697e-6,35336,7100.1,56.294,0.2864,103.9,89.689,2.2557,0.4097,3.196e7,1e3,127.24,0.56357,0.56359,0.34547,0.076275,0.14182,0.018773,0.042367,2.0622e-4,0,0,0,0,-1.8045e-4,0.017814,6.2992,201.06,78.399,0.01564,NaN,11.794,955.41,338.45,0.05,0.059419
5.3612,499.97,136.49,14.442,139.13,15.181,77.899,0.013461,77.899,0.0099005,26.96,4.6789,28.61,-80.599,9.7906,0.24741,0,-0.0027878,-1.4079e-6,35295,7059.4,56.255,0.28628,103.66,89.645,2.2256,0.41202,32120924,1e3,128.7,0.56401,0.56412,0.3454,0.076543,0.14207,0.038706,0.086411,4.8787e-4,0,0,0,0,-1.4201e-4,0.017912,6.2992,201.06,78.453,0.015704,NaN,11.75,954.61,338.42,0.05,0.059683
5.4112,506.81,137.21,14.454,139.88,15.155,79.253,0.013865,79.253,0.010024,27.191,4.5563,28.61,-80.599,9.7906,0.34311,0,-0.0022557,-9.2158e-7,35254,7018.6,56.215,0.28616,103.49,89.601,2.205,0.41431,3.228e7,1e3,130.16,0.56446,0.56466,0.34534,0.076806,0.14231,0.053981,0.11889,-6.833e-5,0,0,0,0,-9.1964e-5,0.01801,6.2992,201.06,78.499,0.015762,NaN,11.706,953.85,338.39,0.05,0.059946
5.4612,513.69,137.94,14.466,140.64,15.129,80.618,0.014278,80.618,0.010147,27.416,4.4291,28.61,-80.599,9.7906,0.44416,0,-0.0015371,2.6613e-7,35214,6977.9,56.176,0.28604,103.31,89.557,2.1832,0.41663,32441220,1e3,131.65,0.56491,0.56525,0.34527,0.077074,0.14257,0.070293,0.15333,2.1471e-4,0,0,0,0,-4.2234e-5,0.018107,6.2992,201.06,78.533,0.015756,NaN,11.661,953.08,338.37,0.05,0.06021
5.5112,520.6,138.66,14.47,141.39,15.106,81.994,0.014697,81.994,0.01027,27.635,4.3362,28.61,-80.599,9.7906,0.51575,0,-6.4613e-4,-3.6246e-7,35173,6937.1,56.136,0.28592,103.18,89.512,2.1702,0.41893,3.26e7,1e3,133.13,0.56536,0.56581,0.3452,0.077339,0.14282,0.081966,0.17761,-2.9173e-4,0,0,0,0,-7.3824e-6,0.018205,6.2992,201.06,78.553,0.015735,NaN,11.616,952.31,338.34,0.05,0.060581
5.5612,527.55,139.39,14.464,142.14,15.092,83.381,0.015125,83.381,0.010393,27.851,4.308,28.61,-80.599,9.7906,0.53272,0,3.2085e-4,-8.2808e-7,35132,6896.4,56.096,0.2858,103.16,89.468,2.1728,0.42117,32754939,1e3,134.56,0.56579,0.56628,0.34514,0.077598,0.14306,0.084753,0.184,-2.1947e-4,0,0,0,0,1.8013e-6,0.018302,6.2992,201.06,78.556,0.015774,NaN,11.571,951.53,338.31,0.05,0.061177
5.6112,534.54,140.11,14.456,142.89,15.077,84.779,0.015559,84.779,0.010515,28.065,4.2829,28.61,-80.599,9.7905,0.55306,0,0.0013587,-1.1743e-7,35091,6855.6,56.056,0.28568,103.12,89.423,2.1746,0.42345,32911684,1e3,136.02,0.56624,0.56677,0.34507,0.077861,0.14331,0.0881,0.19158,-2.7514e-4,0,0,0,0,3.1962e-5,0.018399,6.2992,201.06,78.541,0.015842,NaN,11.525,950.75,338.28,0.05,0.061449
5.6612,541.56,140.83,14.43,143.64,15.074,86.188,0.016001,86.188,0.010637,28.282,4.3584,28.61,-80.599,9.7905,0.49014,0,0.0023411,9.7871e-7,35051,6814.9,56.016,0.28556,103.24,89.379,2.2001,0.42562,3.306e7,1e3,137.39,0.56666,0.56708,0.345,0.078112,0.14355,0.077806,0.1708,-3.6993e-4,0,0,0,0,9.3943e-5,0.018496,6.2992,201.06,78.507,0.015883,NaN,11.48,949.96,338.26,0.05,0.061716
5.7112,548.62,141.55,14.414,144.39,15.062,87.607,0.01645,87.607,0.010759,28.5,4.3713,28.61,-80.599,9.7905,0.48997,0,0.003296,1.3304e-6,35010,6774.2,55.976,0.28544,103.24,89.334,2.2077,0.42792,33217632,1e3,138.87,0.56712,0.56753,0.34493,0.078377,0.1438,0.077787,0.17115,-2.4096e-4,0,0,0,0,1.8423e-4,0.018594,6.2992,201.06,78.457,0.015889,NaN,11.434,949.18,338.23,0.05,0.061984
5.7612,555.72,142.27,14.39,145.14,15.055,89.038,0.016907,89.038,0.010879,28.72,4.4257,28.61,-80.599,9.7905,0.45951,0,0.0042333,6.1651e-8,34969,6733.4,55.936,0.28533,103.3,89.289,2.224,0.43019,33373185,1e3,140.33,0.56756,0.56793,0.34487,0.07864,0.14406,0.072832,0.16165,2.5201e-4,0,0,0,0,3.0077e-4,0.018691,6.2992,201.06,78.389,0.015996,NaN,11.388,948.38,338.2,0.05,0.062246
5.8112,562.85,142.99,14.36,145.89,15.052,90.479,0.01737,90.479,0.011,28.943,4.5091,28.61,-80.599,9.7904,0.41,0,0.005104,1.1527e-7,34928,6692.7,55.895,0.28521,103.39,89.244,2.2459,0.43246,33527849,1e3,141.78,0.56801,0.5683,0.3448,0.078903,0.14431,0.064807,0.14522,2.212e-4,0,0,0,0,4.3272e-4,0.018788,6.2992,201.06,78.305,0.016257,NaN,11.341,947.59,338.17,0.05,0.062511
5.8612,570.02,143.71,14.326,146.64,15.05,91.932,0.017842,91.932,0.01112,29.171,4.614,28.61,-80.599,9.7904,0.34775,0,0.0058745,-4.6363e-7,34888,6651.9,55.855,0.28509,103.51,89.199,2.2716,0.43472,33682159,1e3,143.25,0.56846,0.56867,0.34473,0.079166,0.14457,0.054777,0.12427,-4.4709e-4,0,0,0,0,5.6736e-4,0.018885,6.2992,201.06,78.206,0.016596,NaN,11.295,946.79,338.14,0.05,0.062837
5.9112,577.22,144.43,14.286,147.39,15.053,93.397,0.018321,93.397,0.011239,29.405,4.7446,28.61,-80.599,9.7904,0.26845,0,0.0065182,8.0534e-8,34847,6611.2,55.814,0.28497,103.66,89.154,2.3025,0.43698,33835260,1e3,144.7,0.56891,0.56904,0.34466,0.079427,0.14482,0.042098,0.096541,-1.6379e-5,0,0,0,0,6.9143e-4,0.018982,6.2992,201.06,78.094,0.016928,NaN,11.248,945.98,338.12,0.05,0.06311
5.9612,584.46,145.14,14.238,148.14,15.061,94.873,0.018808,94.873,0.011359,29.647,4.9082,28.61,-80.599,9.7904,0.16475,0,0.0069648,1.2208e-6,34806,6570.5,55.774,0.28485,103.85,89.109,2.3408,0.4392,33985728,1e3,146.15,0.56935,0.5694,0.34459,0.079686,0.14508,0.025683,0.059175,2.6651e-4,0,0,0,0,7.8159e-4,0.019079,6.2992,201.06,77.972,0.017304,NaN,11.201,945.17,338.09,0.05,0.063366
6.0112,591.74,145.85,14.199,148.88,15.061,96.361,0.019304,96.361,0.011478,29.895,5.0225,28.61,-80.599,9.7904,0.10711,0,0.0072495,-5.7618e-7,34765,6529.7,55.733,0.28473,103.97,89.064,2.3657,0.44151,34142204,1e3,147.68,0.56981,0.56983,0.34452,0.079954,0.14534,0.016643,0.038066,4.9477e-4,0,0,0,0,8.3809e-4,0.019176,6.2992,201.06,77.844,0.017744,NaN,11.154,944.36,338.06,0.05,0.063629
6.0612,599.05,146.56,14.161,149.63,15.059,97.862,0.019809,97.862,0.011597,30.149,5.1238,28.61,-80.599,9.7903,0.062959,0,0.0074388,-4.8271e-6,34725,6489,55.692,0.28461,104.05,89.018,2.3867,0.44385,3.43e7,1e3,149.23,0.57028,0.57029,0.34445,0.080225,0.14561,0.0097591,0.022579,-1.0193e-4,0,0,0,0,8.7332e-4,0.019272,6.2992,201.06,77.712,0.018198,NaN,11.106,943.54,338.03,0.05,0.063886
6.1112,606.39,147.27,14.114,150.37,15.064,99.376,0.020323,99.376,0.011717,30.409,5.2645,28.61,-80.599,9.7903,0.013916,0,-0.0074876,-2.2367e-5,34684,6448.2,55.651,0.28449,104.15,88.972,2.4092,0.44613,34453950,1e3,150.75,0.57074,0.57074,0.34437,0.08049,0.14587,0.0021511,0.0063687,-3.2125e-4,0,0,0,0,-8.7595e-4,0.019369,6.2992,201.06,77.577,0.018582,NaN,11.058,942.72,338,0.05,0.064146
6.1612,613.77,147.97,14.068,151.12,15.069,100.9,0.020847,100.9,0.011837,30.675,5.3991,28.61,-80.599,9.7903,0.084158,0,-0.0073714,-3.7244e-6,34643,6407.5,55.61,0.28437,104.02,88.927,2.3958,0.44841,34607569,1e3,152.29,0.5712,0.57121,0.3443,0.080756,0.14614,0.013064,0.032023,-2.9614e-4,0,0,0,0,-8.4051e-4,0.019466,6.2992,201.06,77.443,0.018979,NaN,11.01,941.9,337.97,0.05,0.064467
6.2112,621.19,148.68,14.018,151.86,15.077,102.44,0.02138,102.44,0.011958,30.949,5.5497,28.61,-80.599,9.7903,0.16717,0,-0.0070903,-1.494e-6,34602,6366.8,55.569,0.28425,103.87,88.881,2.3787,0.45066,34758265,1e3,153.82,0.57165,0.5717,0.34423,0.081019,0.1464,0.026079,0.062796,1.1986e-4,0,0,0,0,-7.7001e-4,0.019563,6.2992,201.06,77.313,0.019425,NaN,10.962,941.07,337.94,0.05,0.064727
6.2612,628.64,149.38,13.957,152.61,15.097,104,0.021925,104,0.012079,31.232,5.7551,28.61,-80.599,9.7902,0.29511,0,-0.0065524,8.3644e-7,34562,6326,55.528,0.28413,103.63,88.835,2.3487,0.45281,34901008,1e3,155.3,0.57209,0.57224,0.34416,0.08127,0.14666,0.046385,0.10946,2.0588e-4,0,0,0,0,-6.5148e-4,0.019659,6.2992,201.06,77.19,0.019836,NaN,10.914,940.24,337.91,0.05,0.064987
6.3112,636.13,150.07,13.9,153.35,15.114,105.57,0.022481,105.57,0.012201,31.524,5.9351,28.61,-80.599,9.7902,0.40275,0,-0.005737,1.2137e-6,34521,6285.3,55.487,0.28401,103.44,88.789,2.3251,0.45497,35043840,1e3,156.8,0.57253,0.57281,0.34409,0.081521,0.14691,0.063704,0.14834,3.2438e-5,0,0,0,0,-4.9478e-4,0.019756,6.2992,201.06,77.079,0.020184,NaN,10.865,939.4,337.88,0.05,0.065272
6.3612,643.65,150.77,13.855,154.09,15.121,107.15,0.023047,107.15,0.012324,31.824,6.0567,28.61,-80.599,9.7902,0.46682,0,-0.0047124,-8.189e-7,34480,6244.5,55.446,0.28389,103.32,88.743,2.3145,0.45717,35189445,1e3,158.33,0.57297,0.57335,0.34402,0.081778,0.14717,0.074117,0.17157,-2.5832e-4,0,0,0,0,-3.3069e-4,0.019853,6.2992,201.06,76.984,0.020404,NaN,10.816,938.56,337.85,0.05,0.065554
6.4112,651.2,151.46,13.827,154.83,15.114,108.75,0.023626,108.75,0.012447,32.129,6.1044,28.61,-80.599,9.7902,0.47822,0,-0.0035978,-6.7435e-7,34439,6203.8,55.404,0.28378,103.3,88.697,2.319,0.45942,35338956,1e3,159.89,0.57343,0.57383,0.34395,0.082042,0.14744,0.075985,0.17671,-4.843e-4,0,0,0,0,-1.909e-4,0.019949,6.2992,201.06,76.909,0.020473,NaN,10.767,937.72,337.82,0.05,0.065812
6.4612,658.79,152.15,13.807,155.57,15.1,110.36,0.024216,110.36,0.012572,32.435,6.1133,28.61,-80.599,9.7902,0.46594,0,-0.0024657,-4.3991e-7,34399,6163.1,55.363,0.28366,103.33,88.65,2.3304,0.46168,35488468,1e3,161.44,0.57389,0.57427,0.34388,0.082306,0.14771,0.07399,0.17264,-4.5066e-4,0,0,0,0,-8.8805e-5,0.020046,6.2992,201.06,76.855,0.020545,NaN,10.718,936.87,337.79,0.05,0.066056
6.5112,666.42,152.84,13.799,156.31,15.076,111.99,0.024817,111.99,0.012697,32.739,6.0727,28.61,-80.599,9.7901,0.42237,0,-0.0013903,-7.0225e-7,34358,6122.3,55.321,0.28354,103.41,88.604,2.3509,0.46396,35639246,1e3,163,0.57436,0.57467,0.3438,0.082572,0.14798,0.066911,0.15775,-4.0618e-4,0,0,0,0,-2.7962e-5,0.020142,6.2992,201.06,76.82,0.020546,NaN,10.668,936.02,337.76,0.05,0.066318
