# Time (s),Altitude (m),Vertical velocity (m/s),Vertical acceleration (m/s²),Total velocity (m/s),Total acceleration (m/s²),Position East of launch (m),Position North of launch (m),Lateral distance (m),Lateral direction (°),Lateral velocity (m/s),Lateral acceleration (m/s²),Latitude (°),Longitude (°),Gravitational acceleration (m/s²),Angle of attack (°),Roll rate (r/s),Pitch rate (r/s),Yaw rate (r/s),Mass (g),Propellant mass (g),Longitudinal moment of inertia (kg·m²),Rotational moment of inertia (kg·m²),CP location (in),CG location (in),Stability margin calibers (​),Mach number (​),Reynolds number (​),Thrust (N),Drag force (N),Drag coefficient (​),Axial drag coefficient (​),Friction drag coefficient (​),Pressure drag coefficient (​),Base drag coefficient (​),Normal force coefficient (​),Pitch moment coefficient (​),Yaw moment coefficient (​),Side force coefficient (​),Roll moment coefficient (​),Roll forcing coefficient (​),Roll damping coefficient (​),Pitch damping coefficient (​),Coriolis acceleration (m/s²),Reference length (in),Reference area (cm²),Vertical orientation (zenith) (°),Lateral orientation (azimuth) (°),Wind velocity (m/s),Air temperature (°C),Air pressure (mbar),Speed of sound (m/s),Simulation time step (s),Computation time (s)
0,0,0,-5.6763,0,5.7075,0,0,0,0,0,0.5966,28.61,-80.6,9.7922,84,0,0,0,40581,12346,60.972,0.31372,NaN,94.756,NaN,0.016215,1322399,163.58,5.8072e-4,0.57134,0.0015479,0.4091,0.042207,0.12003,NaN,NaN,NaN,NaN,NaN,NaN,NaN,NaN,0,6.2992,201.06,84,0,NaN,15,1013.2,340.39,0.01,0.0022571
0.01,0,0,61.573,0,61.913,0,0,0,0,0,6.4716,28.61,-80.6,9.7922,84,0,0,0,40581,12346,60.972,0.31372,NaN,94.756,NaN,0.01599,1304022,2907.7,5.6579e-4,0.57245,0.0015509,0.41021,0.042207,0.12003,NaN,NaN,NaN,NaN,NaN,NaN,NaN,NaN,0,6.2992,201.06,84,0,NaN,15,1013.2,340.39,0.01,0.0026335
0.02,0.0030793,0.6159,90.45,0.61929,90.949,3.2365e-4,0,3.2365e-4,0,0.064734,9.5067,28.61,-80.6,9.7922,77.53,0,0,0,40570,12334,60.962,0.31362,NaN,94.746,NaN,0.016057,1309496,4084.9,0.0047567,0.57212,0.01293,0.40988,0.042207,0.12003,NaN,NaN,NaN,NaN,NaN,NaN,NaN,NaN,7.942e-5,6.2992,201.06,84,0,NaN,15,1013.2,340.39,0.01,0.0030283
0.03,0.013763,1.5208,89.063,1.5292,89.553,0.0014465,0,0.0014465,0,0.15985,9.3609,28.61,-80.6,9.7922,68.406,0,0,0,40549,12313,60.944,0.31341,NaN,94.727,NaN,0.01662,1355460,4026.2,0.023507,0.5694,0.059638,0.40716,0.042207,0.12004,NaN,NaN,NaN,NaN,NaN,NaN,NaN,NaN,1.9611e-4,6.2992,201.06,84,0,NaN,15,1013.2,340.39,0.01,0.0035113
0.04,0.033426,2.4119,88.815,2.4252,89.304,0.0035132,0,0.0035132,0,0.2535,9.3348,28.61,-80.6,9.7922,60.19,0,0,0,40525,12290,60.923,0.31317,NaN,94.706,NaN,0.017552,1431456,4013.8,0.061027,0.56516,0.13883,0.40292,0.042208,0.12004,NaN,NaN,NaN,NaN,NaN,NaN,NaN,NaN,3.1102e-4,6.2992,201.06,84,0,NaN,15,1013.2,340.39,0.01,0.0038741
0.05,0.061988,3.3005,89.02,3.3187,89.511,0.0065152,0,0.0065152,0,0.3469,9.3564,28.61,-80.6,9.7922,52.953,0,0,0,40502,12266,60.903,0.31293,NaN,94.685,NaN,0.018801,1533279,4019.9,0.11888,0.55992,0.23571,0.39766,0.042209,0.12005,NaN,NaN,NaN,NaN,NaN,NaN,NaN,NaN,4.256e-4,6.2992,201.06,84,0,NaN,15,1013.2,340.39,0.01,0.0041761
0.06,0.099446,4.1912,89.946,4.2143,90.442,0.010452,0,0.010452,0,0.44051,9.4537,28.61,-80.6,9.7922,47.008,0,0,0,40479,12243,60.882,0.31269,NaN,94.664,NaN,0.020464,1668883,4055.4,0.19615,0.55359,0.32829,0.39132,0.04221,0.12005,NaN,NaN,NaN,NaN,NaN,NaN,NaN,NaN,5.4045e-4,6.2992,201.06,84,0,NaN,14.999,1013.2,340.39,0.01,0.0044405
0.07,0.14586,5.0911,91.048,5.1192,91.55,0.01533,0,0.01533,0,0.5351,9.5696,28.61,-80.6,9.7922,41.954,0,0,0,40455,12220,60.861,0.31245,NaN,94.643,NaN,0.022333,1821333,4098,0.29235,0.54722,0.4108,0.38494,0.042212,0.12006,NaN,NaN,NaN,NaN,NaN,NaN,NaN,NaN,6.565e-4,6.2992,201.06,84,0,NaN,14.999,1013.2,340.39,0.01,0.0048758
0.08,0.20132,6.0021,92.152,6.0352,92.659,0.02116,0,0.02116,0,0.63085,9.6855,28.61,-80.6,9.7922,37.662,0,0,0,40432,12196,60.84,0.31221,NaN,94.622,NaN,0.024375,1987818,4140.5,0.40629,0.541,0.47928,0.37871,0.042214,0.12008,NaN,NaN,NaN,NaN,NaN,NaN,NaN,NaN,7.7397e-4,6.2992,201.06,84,0,NaN,14.999,1013.2,340.39,0.01,0.0052265
0.09,0.26595,6.9241,93.089,6.9622,93.602,0.027953,0,0.027953,0,0.72775,9.784,28.61,-80.6,9.7922,34.011,0,0,0,40408,12173,60.82,0.31197,NaN,94.6,NaN,0.026558,2165912,4176.3,0.53663,0.53505,0.53321,0.37274,0.042216,0.12009,NaN,NaN,NaN,NaN,NaN,NaN,NaN,NaN,8.9286e-4,6.2992,201.06,84,0,NaN,14.998,1013.2,340.39,0.01,0.0055851
0.1,0.33985,7.8555,93.039,7.8987,93.552,0.03572,0,0.03572,0,0.82564,9.7788,28.61,-80.6,9.7922,30.896,0,0,0,40385,12149,60.799,0.31173,NaN,94.579,NaN,0.028857,2353385,4172,0.68189,0.52943,0.57389,0.3671,0.042219,0.12011,NaN,NaN,NaN,NaN,NaN,NaN,NaN,NaN,0.001013,6.2992,201.06,84,0,NaN,14.998,1013.2,340.39,0.01,0.0063312
0.11,0.42306,8.7863,93.326,8.8347,93.84,0.044465,0,0.044465,0,0.92348,9.809,28.61,-80.6,9.7922,28.274,0,0,0,40361,12125,60.778,0.31148,NaN,94.557,NaN,0.031237,2547426,4181.4,0.83927,0.52418,0.60284,0.36184,0.042222,0.12013,NaN,NaN,NaN,NaN,NaN,NaN,NaN,NaN,0.001133,6.2992,201.06,84,0,NaN,14.997,1013.2,340.39,0.01,0.0068311
0.12,0.51559,9.7201,93.859,9.7736,94.376,0.054191,0,0.054191,0,1.0216,9.8649,28.61,-80.6,9.7922,26.021,0,0,0,40337,12101,60.757,0.31124,NaN,94.535,NaN,0.03368,2746660,4200.7,1.0083,0.51931,0.62296,0.35693,0.042225,0.12015,NaN,NaN,NaN,NaN,NaN,NaN,NaN,NaN,0.0012534,6.2992,201.06,84,0,NaN,14.997,1013.2,340.39,0.01,0.0072304
0.13,0.61749,10.659,94.391,10.718,94.911,0.064901,0,0.064901,0,1.1203,9.9209,28.61,-80.6,9.7922,24.065,0,0,0,40313,12077,60.735,0.31099,NaN,94.514,NaN,0.036183,2950731,4220,1.1885,0.51476,0.63626,0.35236,0.042228,0.12017,NaN,NaN,NaN,NaN,NaN,NaN,NaN,NaN,0.0013745,6.2992,201.06,84,0,NaN,14.996,1013.2,340.39,0.01,0.0075817
0.14,0.7288,11.604,94.924,11.667,95.447,0.0766,0,0.0766,0,1.2196,9.977,28.61,-80.6,9.7922,22.355,0,0,0,40289,12054,60.714,0.31075,NaN,94.492,NaN,0.038737,3158976,4239.3,1.3881,0.51374,0.64835,0.35132,0.042232,0.1202,NaN,NaN,NaN,NaN,NaN,NaN,NaN,NaN,0.0014963,6.2992,201.06,84,0,NaN,14.995,1013.2,340.39,0.01,0.0079524
0.15,0.84958,12.553,95.458,12.622,95.983,0.089295,0,0.089295,0,1.3194,10.033,28.61,-80.6,9.7922,20.85,0,0,0,40265,12030,60.693,0.3105,NaN,94.47,NaN,0.041336,3370880,4258.5,1.6029,0.51377,0.65752,0.35131,0.042236,0.12022,NaN,NaN,NaN,NaN,NaN,NaN,NaN,NaN,0.0016187,6.2992,201.06,84,0,NaN,14.994,1013.2,340.39,0.01,0.020263
0.16,0.97989,13.508,95.991,13.583,96.52,0.10299,0,0.10299,0,1.4198,10.089,28.61,-80.6,9.7922,19.577,0,0,0,40241,12006,60.672,0.31025,NaN,94.448,NaN,0.043997,3587861,4277.8,1.8315,0.51379,0.66317,0.3513,0.042241,0.12025,NaN,NaN,NaN,NaN,NaN,NaN,NaN,NaN,0.0017419,6.2992,201.06,84,0,NaN,14.994,1013.1,340.39,0.01,0.020878
0.17,1.1198,14.469,96.525,14.548,97.056,0.11769,0,0.11769,0,1.5207,10.145,28.61,-80.6,9.7922,18.445,0,0,0,40218,11982,60.65,0.31001,NaN,94.426,NaN,0.046693,3807622,4297.1,2.0729,0.51382,0.66644,0.35129,0.042245,0.12028,NaN,NaN,NaN,NaN,NaN,NaN,NaN,NaN,0.0018657,6.2992,201.06,84,0,NaN,14.993,1013.1,340.38,0.01,0.021289
0.18,1.2693,15.435,96.905,15.52,97.439,0.13341,0,0.13341,0,1.6222,10.185,28.61,-80.6,9.7922,17.43,0,0,0,40194,11958,60.629,0.30976,NaN,94.405,NaN,0.049419,4029928,4310.2,2.3271,0.51385,0.66787,0.35128,0.042251,0.12032,NaN,NaN,NaN,NaN,NaN,NaN,NaN,NaN,0.0019903,6.2992,201.06,84,0,NaN,14.992,1013.1,340.38,0.01,0.021621
0.19,1.4285,16.404,96.667,16.494,97.2,0.15014,0,0.15014,0,1.7241,10.16,28.61,-80.6,9.7922,16.519,0,0,0,40170,11934,60.607,0.30952,NaN,94.383,NaN,0.052171,4254235,4298.3,2.5926,0.51388,0.66769,0.35127,0.042258,0.12035,NaN,NaN,NaN,NaN,NaN,NaN,NaN,NaN,0.0021153,6.2992,201.06,84,0,NaN,14.991,1013.1,340.38,0.01,0.022045
0.2,1.5974,17.371,96.807,17.467,97.34,0.16789,0,0.16789,0,1.8258,10.175,28.61,-80.6,9.7922,15.701,0,0,0,40146,11910,60.586,0.30927,NaN,94.361,NaN,0.054927,4478950,4301.6,2.8645,0.51392,0.66553,0.35126,0.042266,0.12039,NaN,NaN,NaN,NaN,NaN,NaN,NaN,NaN,0.00224,6.2992,201.06,84,0,NaN,14.99,1013.1,340.38,0.01,0.022413
0.21,1.7759,18.34,97.162,18.441,97.698,0.18666,0,0.18666,0,1.9276,10.212,28.61,-80.6,9.7922,15.039,0,0,0,40122,11886,60.565,0.30902,NaN,94.339,NaN,0.057728,4707282,4313.7,3.1495,0.51396,0.66246,0.35125,0.042275,0.12043,NaN,NaN,NaN,NaN,NaN,NaN,NaN,NaN,0.0023649,6.2992,201.06,84,0,NaN,14.988,1013,340.38,0.01,0.022785
0.22,1.9642,19.312,97.518,19.418,98.056,0.20644,0,0.20644,0,2.0298,10.25,28.61,-80.6,9.7922,14.435,0,0,0,40098,11862,60.543,0.30878,NaN,94.316,NaN,0.060547,4937004,4325.8,3.4449,0.514,0.65873,0.35124,0.042284,0.12048,NaN,NaN,NaN,NaN,NaN,NaN,NaN,NaN,0.0024903,6.2992,201.06,84,0,NaN,14.987,1013,340.38,0.01,0.023146
0.23,2.1622,20.288,97.874,20.399,98.414,0.22725,0,0.22725,0,2.1323,10.287,28.61,-80.6,9.7922,13.884,0,0,0,40074,11838,60.522,0.30853,NaN,94.294,NaN,0.063381,5168047,4337.9,3.7513,0.51404,0.65461,0.35123,0.042293,0.12052,NaN,NaN,NaN,NaN,NaN,NaN,NaN,NaN,0.0026161,6.2992,201.06,84,0,NaN,14.986,1013,340.38,0.01,0.023482
0.24,2.3699,21.267,98.231,21.384,98.772,0.24909,0,0.24909,0,2.2352,10.324,28.61,-80.6,9.7922,13.377,0,0,0,40050,11814,60.5,0.30828,NaN,94.272,NaN,0.066231,5400352,4349.9,4.0691,0.51409,0.65028,0.35121,0.042303,0.12057,NaN,NaN,NaN,NaN,NaN,NaN,NaN,NaN,0.0027423,6.2992,201.06,84,0,NaN,14.985,1013,340.38,0.01,0.023811
0.25,2.5875,22.25,98.587,22.372,99.13,0.27196,0,0.27196,0,2.3385,10.362,28.61,-80.6,9.7922,12.91,0,0,0,40026,11791,60.478,0.30804,NaN,94.25,NaN,0.069097,5633870,4362,4.3987,0.51413,0.64589,0.3512,0.042313,0.12062,NaN,NaN,NaN,NaN,NaN,NaN,NaN,NaN,0.0028691,6.2992,201.06,84,0,NaN,14.983,1012.9,340.38,0.01,0.024145
0.26,2.815,23.236,98.944,23.364,99.489,0.29586,0,0.29586,0,2.4422,10.399,28.61,-80.6,9.7922,12.337,0,0,0,40002,11767,60.457,0.30779,NaN,94.228,NaN,0.071917,5863745,4374.1,4.7215,0.51418,0.63999,0.35119,0.042323,0.12067,NaN,NaN,NaN,NaN,NaN,NaN,NaN,NaN,0.0029963,6.2992,201.06,84,0,NaN,14.982,1012.9,340.38,0.01,0.024473
0.27,3.0523,24.226,99.301,24.359,99.848,0.32081,0,0.32081,0,2.5463,10.437,28.61,-80.6,9.7922,11.806,0,0,0,39978,11743,60.435,0.30754,NaN,94.206,NaN,0.074755,6094991,4386.2,5.0544,0.51423,0.6341,0.35117,0.042334,0.12073,NaN,NaN,NaN,NaN,NaN,NaN,NaN,NaN,0.0031239,6.2992,201.06,84,0,NaN,14.98,1012.9,340.38,0.01,0.024808
0.28,3.2995,25.219,99.659,25.358,100.21,0.34679,0,0.34679,0,2.6507,10.475,28.61,-80.6,9.7922,11.313,0,0,0,39954,11719,60.414,0.3073,NaN,94.184,NaN,0.077609,6327553,4398.3,5.3979,0.51428,0.62832,0.35116,0.042345,0.12078,NaN,NaN,NaN,NaN,NaN,NaN,NaN,NaN,0.003252,6.2992,201.06,84,0,NaN,14.979,1012.9,340.38,0.01,0.025141
0.29,3.5567,26.217,100.02,26.361,100.57,0.37382,0,0.37382,0,2.7555,10.512,28.61,-80.6,9.7922,10.853,0,0,0,39930,11695,60.392,0.30705,NaN,94.161,NaN,0.080479,6561384,4410.3,5.7524,0.51434,0.6227,0.35114,0.042356,0.12084,NaN,NaN,NaN,NaN,NaN,NaN,NaN,NaN,0.0033806,6.2992,201.06,84,0,NaN,14.977,1012.8,340.37,0.01,0.025483
0.3,3.8238,27.217,100.37,27.367,100.92,0.4019,0,0.4019,0,2.8606,10.549,28.61,-80.6,9.7922,10.423,0,0,0,39907,11671,60.37,0.3068,NaN,94.139,NaN,0.083364,6796441,4422.2,6.1184,0.51439,0.61729,0.35112,0.042367,0.1209,NaN,NaN,NaN,NaN,NaN,NaN,NaN,NaN,0.0035096,6.2992,201.06,84,0,NaN,14.975,1012.8,340.37,0.01,0.025836
0.31,4.101,28.221,100.71,28.377,101.27,0.43104,0,0.43104,0,2.9662,10.585,28.61,-80.6,9.7922,10.014,0,0,0,39883,11647,60.348,0.30656,NaN,94.117,NaN,0.086261,7032429,4433.7,6.4948,0.51445,0.61202,0.35111,0.042379,0.12097,NaN,NaN,NaN,NaN,NaN,NaN,NaN,NaN,0.0036391,6.2992,201.06,84,0,NaN,14.973,1012.8,340.37,0.01,0.026198
0.32,4.3883,29.229,101.06,29.39,101.61,0.46123,0,0.46123,0,3.0721,10.622,28.61,-80.6,9.7922,9.6303,0,0,0,39859,11623,60.327,0.30631,NaN,94.094,NaN,0.089171,7269557,4445.3,6.8834,0.51451,0.60699,0.35109,0.042392,0.12103,NaN,NaN,NaN,NaN,NaN,NaN,NaN,NaN,0.0037691,6.2992,201.06,84,0,NaN,14.971,1012.7,340.37,0.01,0.026607
0.33,4.6856,30.24,101.4,30.407,101.96,0.49248,0,0.49248,0,3.1784,10.658,28.61,-80.6,9.7922,9.27,0,0,0,39835,11599,60.305,0.30606,NaN,94.072,NaN,0.092096,7507796,4456.9,7.2843,0.51458,0.60222,0.35107,0.042404,0.1211,NaN,NaN,NaN,NaN,NaN,NaN,NaN,NaN,0.0038994,6.2992,201.06,84,0,NaN,14.97,1012.7,340.37,0.01,0.026992
0.34,4.9931,31.255,101.63,31.427,102.22,0.5248,0,0.5248,0,3.285,11.03,28.61,-80.6,9.7922,8.9309,0,0,0,39811,11575,60.283,0.30581,92.82,94.05,-0.19515,0.095034,7747118,4462.1,7.6981,0.51464,0.5977,0.35105,0.042417,0.12117,2.0807,-0.40595,2.5701e-4,0,0,0,0,0,0.0040303,6.2992,201.06,84,0,NaN,14.968,1012.7,340.37,0.015,0.027383
0.355,5.4734,32.779,101.14,32.96,101.74,0.57531,2.6224e-8,0.57531,2.6117e-6,3.4503,10.962,28.61,-80.6,9.7922,8.4857,0,-2.774e-5,-9.8057e-9,39781,11545,60.256,0.30551,93.182,94.022,-0.13332,0.099467,8108133,4442.7,8.3486,0.51474,0.59176,0.35102,0.042438,0.12129,1.9437,-0.25941,3.0483e-4,0,0,0,0,-2.3851e-7,0.0042269,6.2992,201.06,84,1.7169e-7,NaN,14.964,1012.6,340.37,0.0225,0.027755
0.3775,6.2365,35.057,101.4,35.251,101.99,0.65572,1.6781e-7,0.65572,1.4663e-5,3.6968,10.958,28.61,-80.6,9.7922,7.9399,0,-5.1821e-5,1.1006e-8,39736,11500,60.215,0.30505,93.644,93.98,-0.053254,0.10612,8650133,4451.1,9.3972,0.51551,0.58521,0.35097,0.043075,0.12146,1.7804,-0.09465,1.1128e-6,0,0,0,0,-7.3122e-7,0.0045208,6.2992,201.06,84,4.9802e-7,NaN,14.959,1012.5,340.36,0.03375,0.028051
0.41125,7.4775,38.485,101.82,38.699,102.41,0.78673,6.2663e-7,0.78673,4.5636e-5,4.0665,10.957,28.61,-80.6,9.7922,7.2261,0,-4.8993e-5,-4.4803e-8,39669,11434,60.154,0.30436,94.283,93.917,0.058107,0.11615,9466608,4461.6,11.098,0.51677,0.57699,0.35089,0.044118,0.12175,1.5747,0.091539,-1.0826e-4,0,0,0,0,-5.4561e-7,0.004963,6.2992,201.06,84.001,2.893e-6,NaN,14.951,1012.4,340.36,0.05,0.02855
0.46125,9.5293,43.588,102.31,43.832,102.89,1.0037,1.9047e-6,1.0037,1.0872e-4,4.6139,10.933,28.61,-80.6,9.7921,6.4109,0,4.388e-5,-1.8315e-7,39571,11335,60.063,0.30335,95.065,93.824,0.19697,0.13113,10685517,4470.6,13.93,0.51868,0.56838,0.35076,0.045682,0.12224,1.3507,0.26652,-3.5817e-4,0,0,0,0,3.434e-7,0.0056212,6.2992,201.06,84.001,2.0653e-5,NaN,14.938,1012.1,340.35,0.05,0.029298
0.51125,11.837,48.715,102.14,48.988,102.71,1.2481,3.9832e-6,1.2481,1.8286e-4,5.159,10.817,28.61,-80.6,9.7921,5.8912,0,2.3191e-4,-1.1553e-7,39453,11218,59.955,0.30214,95.596,93.713,0.29902,0.14628,11917210,4453.6,17.194,0.52067,0.56394,0.35062,0.047272,0.12278,1.2141,0.36294,-3.9109e-4,0,0,0,0,7.7093e-6,0.0062825,6.2992,201.06,83.999,4.1045e-5,NaN,14.923,1011.9,340.34,0.05,0.029671
0.56125,14.4,53.834,100.15,54.135,100.71,1.5196,6.962e-6,1.5196,2.6251e-4,5.7001,10.57,28.61,-80.6,9.7921,5.2395,0,5.3235e-4,-7.7436e-8,39337,11102,59.847,0.30095,96.298,93.602,0.42809,0.16128,13136481,4365.3,20.682,0.52269,0.55819,0.35045,0.048855,0.12338,1.0494,0.44961,-1.8982e-4,0,0,0,0,3.3418e-5,0.0069426,6.2992,201.06,83.992,5.7102e-5,NaN,14.906,1011.6,340.33,0.05,0.030081
0.61125,17.218,58.852,98.458,59.181,99,1.8178,1.0933e-5,1.8178,3.446e-4,6.2284,10.347,28.61,-80.6,9.7921,4.7851,0,9.4688e-4,-3.8467e-8,39224,10988,59.741,0.29979,96.817,93.493,0.52762,0.17605,14336492,4289.7,24.502,0.52473,0.55513,0.35028,0.050423,0.12403,0.93908,0.49552,2.8778e-4,0,0,0,0,8.8729e-5,0.0075897,6.2992,201.06,83.979,6.128e-5,NaN,14.888,1011.2,340.32,0.05,0.030482
0.66125,20.284,63.785,86.527,64.141,87.003,2.1422,1.5978e-5,2.1422,4.2735e-4,6.7468,9.0894,28.61,-80.6,9.7921,4.3058,0,0.001475,4.1589e-8,39114,10878,59.637,0.29867,97.388,93.387,0.6352,0.19053,15511452,3812.5,28.529,0.52678,0.55206,0.35009,0.051966,0.12472,0.82667,0.52536,1.26e-4,0,0,0,0,1.8384e-4,0.0082258,6.2992,201.06,83.957,6.751e-5,NaN,14.868,1010.9,340.31,0.05,0.031146
0.71125,23.581,68.12,26.361,68.499,26.501,2.4909,2.2173e-5,2.4909,5.1002e-4,7.203,2.7194,28.61,-80.6,9.7921,3.9181,0,0.0021079,-2.9006e-7,39012,10777,59.542,0.29766,97.871,93.289,0.72742,0.20326,16542903,1446.1,32.335,0.52862,0.55001,0.34992,0.053329,0.12537,0.73872,0.53665,-3.7567e-4,0,0,0,0,3.2994e-4,0.0087847,6.2992,201.06,83.925,9.8533e-5,NaN,14.847,1010.5,340.3,0.05,0.031547
0.76125,27.02,69.44,9.6029,69.826,9.6491,2.8544,2.9572e-5,2.8544,5.9359e-4,7.3394,0.94298,28.61,-80.6,9.7921,3.812,0,0.0028035,-5.4975e-7,38946,10710,59.48,0.29705,98.007,93.225,0.75915,0.20717,16855844,788.58,33.549,0.52919,0.54956,0.34986,0.053749,0.12558,0.71513,0.54236,3.8013e-4,0,0,0,0,5.6184e-4,0.0089549,6.2992,201.06,83.881,1.6722e-4,NaN,14.824,1010.1,340.28,0.05,0.032117
0.81125,30.504,69.92,10.823,70.309,10.879,3.2226,3.819e-5,3.2226,6.79e-4,7.3878,1.1057,28.61,-80.6,9.7921,3.7343,0,0.003518,-6.4262e-7,38915,10680,59.454,0.29687,98.106,93.196,0.77938,0.2086,16966913,836.25,33.966,0.5294,0.54902,0.34984,0.053903,0.12566,0.69796,0.54356,2.8512e-4,0,0,0,0,8.7271e-4,0.0090168,6.2992,201.06,83.824,2.9589e-4,NaN,14.802,1009.7,340.27,0.05,0.032548
0.86125,34.014,70.461,12.1,70.853,12.161,3.5934,4.8039e-5,3.5934,7.6598e-4,7.4417,1.2136,28.61,-80.6,9.7921,3.8405,0,0.004249,-5.2348e-7,38895,10659,59.438,0.29681,97.972,93.178,0.76108,0.21033,17102998,886.25,34.602,0.52965,0.55032,0.34981,0.05409,0.12575,0.72151,0.54758,-3.108e-4,0,0,0,0,0.0012522,0.0090865,6.2992,201.06,83.754,4.1853e-4,NaN,14.779,1009.3,340.25,0.05,0.03311
0.91125,37.552,71.066,13.37,71.461,13.448,3.967,5.9136e-5,3.967,8.5411e-4,7.5047,1.4458,28.61,-80.6,9.7921,3.624,0,0.0049908,-5.8092e-7,38875,10639,59.421,0.29675,98.249,93.16,0.80791,0.21206,17238135,936.25,35.042,0.52991,0.5485,0.34979,0.054275,0.12585,0.6738,0.54268,2.3591e-4,0,0,0,0,0.0016997,0.0091645,6.2992,201.06,83.671,5.2166e-4,NaN,14.756,1008.8,340.24,0.05,0.033563
0.96125,41.122,71.735,14.609,72.134,14.7,4.3441,7.1502e-5,4.3441,9.4307e-4,7.5785,1.6329,28.61,-80.6,9.7921,3.5429,0,0.0057394,-9.3729e-7,38854,10619,59.405,0.29669,98.355,93.142,0.82765,0.21408,17396407,984.98,35.667,0.53021,0.54805,0.34976,0.054492,0.12596,0.65614,0.5404,1.231e-4,0,0,0,0,0.002206,0.0092508,6.2992,201.06,83.575,6.6965e-4,NaN,14.733,1008.4,340.23,0.05,0.034243
1.0113,44.727,72.465,14.989,72.869,15.083,4.725,8.5169e-5,4.725,0.0010328,7.6599,1.6803,28.61,-80.6,9.792,3.5941,0,0.0065072,-1.2902e-6,38832,10596,59.387,0.29663,98.291,93.122,0.82057,0.21637,17577554,1e3,36.476,0.53055,0.54888,0.34972,0.05474,0.12609,0.66731,0.54488,-2.0704e-4,0,0,0,0,0.0027761,0.0093451,6.2992,201.06,83.465,8.6212e-4,NaN,14.709,1008,340.21,0.05,0.034977
1.0613,48.369,73.215,14.985,73.624,15.089,5.1102,1.0018e-4,5.1102,0.0011232,7.7461,1.7718,28.61,-80.6,9.792,3.4307,0,0.0072902,-1.0633e-6,38799,10563,59.36,0.29653,98.505,93.092,0.85924,0.21859,17752328,1e3,37.134,0.53088,0.54772,0.34969,0.054979,0.12621,0.63195,0.53947,3.0514e-4,0,0,0,0,0.0034142,0.0094419,6.2992,201.06,83.34,0.0010679,NaN,14.686,1007.6,340.2,0.05,0.035348
1.1113,52.048,73.965,14.983,74.379,15.102,5.4997,1.1658e-4,5.4997,0.0012146,7.8377,1.8886,28.61,-80.6,9.792,3.2221,0,0.0080774,-1.2191e-6,38758,10522,59.327,0.29641,98.783,93.056,0.90922,0.22079,17925179,1e3,37.765,0.53121,0.54621,0.34966,0.055217,0.12634,0.58748,0.53019,-1.03e-4,0,0,0,0,0.0041086,0.0095388,6.2992,201.06,83.202,0.0012577,NaN,14.662,1007.1,340.18,0.05,0.035674
1.1613,55.765,74.714,14.984,75.134,15.112,5.894,1.3442e-4,5.894,0.0013067,7.9344,1.9657,28.61,-80.6,9.792,3.1357,0,0.0088701,-1.4496e-6,38717,10482,59.294,0.29629,98.901,93.019,0.93372,0.22309,18105438,1e3,38.509,0.53155,0.54583,0.34962,0.055465,0.12647,0.56933,0.52626,4.8481e-4,0,0,0,0,0.0048537,0.0096357,6.2992,201.06,83.05,0.0014745,NaN,14.638,1006.7,340.17,0.05,0.036283
1.2113,59.52,75.464,14.985,75.89,15.121,6.2932,1.5376e-4,6.2932,0.0013999,8.0335,2.0205,28.61,-80.6,9.792,3.1237,0,0.0096831,-1.8703e-6,38676,10441,59.261,0.29617,98.919,92.983,0.94237,0.22544,18290758,1e3,39.329,0.53191,0.54609,0.34958,0.055719,0.12661,0.56684,0.52817,1.0983e-4,0,0,0,0,0.0056643,0.0097328,6.2992,201.06,82.883,0.0017285,NaN,14.613,1006.3,340.15,0.05,0.036662
1.2613,63.312,76.214,14.979,76.647,15.135,6.6975,1.7466e-4,6.6975,0.0014942,8.1386,2.1656,28.61,-80.6,9.792,2.9017,0,0.010496,-1.8988e-6,38636,10400,59.228,0.29605,99.225,92.946,0.99674,0.22766,18464751,1e3,39.981,0.53224,0.54461,0.34955,0.05596,0.12674,0.52077,0.51247,-4.1679e-4,0,0,0,0,0.0065263,0.0098299,6.2992,201.06,82.701,0.0019992,NaN,14.588,1005.8,340.14,0.05,0.037121
1.3113,67.141,76.963,14.976,77.404,15.146,7.1071,1.9719e-4,7.1071,0.0015897,8.2488,2.2593,28.61,-80.6,9.792,2.828,0,0.011315,-1.7139e-6,38595,10359,59.194,0.29594,99.329,92.909,1.0191,0.23,18648089,1e3,40.771,0.5326,0.54439,0.34951,0.056213,0.12688,0.50568,0.50836,-1.6642e-4,0,0,0,0,0.0074316,0.0099271,6.2992,201.06,82.505,0.0022159,NaN,14.564,1005.4,340.12,0.05,0.037651
1.3613,71.008,77.712,14.964,78.161,15.165,7.5225,2.2144e-4,7.5225,0.0016866,8.3666,2.4626,28.61,-80.6,9.792,2.4993,0,0.012118,-1.5427e-6,38554,10319,59.161,0.29582,99.797,92.872,1.0994,0.23216,18817020,1e3,41.362,0.53293,0.54228,0.34947,0.056447,0.12701,0.43951,0.47502,-2.8881e-4,0,0,0,0,0.0083676,0.010024,6.2992,201.06,82.294,0.0023973,NaN,14.538,1004.9,340.11,0.05,0.038073
1.4113,74.912,78.46,14.946,78.919,15.188,7.944,2.4745e-4,7.944,0.0017847,8.4961,2.6972,28.61,-80.6,9.7919,2.1079,0,0.012861,-1.6279e-6,38514,10278,59.128,0.2957,100.38,92.835,1.1972,0.23429,18982675,1e3,41.927,0.53325,0.54002,0.34944,0.056677,0.12714,0.36325,0.42571,2.5266e-4,0,0,0,0,0.0092557,0.010122,6.2992,201.06,82.069,0.0025579,NaN,14.513,1004.5,340.09,0.05,0.038872
1.4613,78.854,79.207,14.933,79.677,15.206,8.3722,2.753e-4,8.3722,0.001884,8.6347,2.8676,28.61,-80.6,9.7919,1.8972,0,0.013563,-1.4593e-6,38473,10237,59.094,0.29558,100.7,92.798,1.2543,0.23655,19159368,1e3,42.651,0.5336,0.53914,0.3494,0.056923,0.12727,0.32334,0.39534,-3.3995e-4,0,0,0,0,0.010098,0.010219,6.2992,201.06,81.831,0.0027135,NaN,14.487,1004,340.08,0.05,0.039252
1.5113,82.833,79.954,14.908,80.435,15.233,8.8077,3.0506e-4,8.8077,0.0019844,8.7851,3.1332,28.61,-80.6,9.7919,1.4543,0,0.014177,-1.3576e-6,38432,10196,59.061,0.29546,101.4,92.761,1.3716,0.23865,19322603,1e3,43.238,0.53392,0.53724,0.34937,0.057151,0.1274,0.24204,0.32163,4.9833e-4,0,0,0,0,0.010841,0.010317,6.2992,201.06,81.581,0.0028255,NaN,14.462,1003.5,340.06,0.05,0.039573
1.5613,86.849,80.699,14.884,81.194,15.258,9.2509,3.3677e-4,9.2509,0.0020858,8.9471,3.3579,28.61,-80.6,9.7919,1.1294,0,0.014691,-1.1572e-6,38391,10156,59.027,0.29534,101.94,92.724,1.4627,0.24084,19492902,1e3,43.936,0.53426,0.53629,0.34933,0.057389,0.12754,0.18465,0.25907,-1.3501e-4,0,0,0,0,0.011432,0.010414,6.2992,201.06,81.321,0.0029305,NaN,14.435,1003.1,340.05,0.05,0.039885
1.6113,90.903,81.443,14.858,81.952,15.285,9.7026,3.7052e-4,9.7026,0.002188,9.1217,3.5906,28.61,-80.6,9.7919,0.79236,0,0.015073,-1.0512e-6,38351,10115,58.993,0.29522,102.52,92.687,1.5605,0.24302,19662424,1e3,44.658,0.5346,0.53561,0.34929,0.057626,0.12768,0.12714,0.187,-4.6409e-4,0,0,0,0,0.01182,0.010512,6.2992,201.06,81.053,0.0029952,NaN,14.409,1002.6,340.03,0.05,0.040236
1.6613,94.994,82.186,14.843,82.711,15.299,10.163,4.0635e-4,10.163,0.0022909,9.3035,3.7097,28.61,-80.6,9.7919,0.77521,0,0.015424,-4.2579e-7,38310,10074,58.96,0.2951,102.55,92.649,1.5714,0.24544,19851109,1e3,45.558,0.53497,0.53594,0.34925,0.057889,0.12783,0.12427,0.18294,3.4115e-4,0,0,0,0,0.012136,0.01061,6.2992,201.06,80.779,0.0030188,NaN,14.383,1002.1,340.01,0.05,0.040553
1.7113,99.122,82.928,14.814,83.47,15.326,10.633,4.4432e-4,10.633,0.0023942,9.4952,3.9265,28.61,-80.6,9.7919,0.50141,0,0.015688,4.5141e-7,38269,10033,58.926,0.29498,103.04,92.612,1.6548,0.24767,20024347,1e3,46.35,0.53532,0.53573,0.34921,0.058132,0.12797,0.079143,0.11878,2.7474e-4,0,0,0,0,0.012331,0.010708,6.2992,201.06,80.498,0.0030181,NaN,14.356,1001.6,340,0.05,0.040858
1.7613,103.29,83.669,14.796,84.228,15.341,11.113,4.8445e-4,11.113,0.0024977,9.694,4.052,28.61,-80.6,9.7919,0.48335,0,0.015926,1.2227e-6,38228,9992.7,58.892,0.29486,103.07,92.574,1.6662,0.2501,20213585,1e3,47.273,0.5357,0.53608,0.34917,0.058398,0.12813,0.076219,0.1141,9.2353e-5,0,0,0,0,0.012463,0.010805,6.2992,201.06,80.214,0.0029921,NaN,14.329,1001.1,339.98,0.05,0.0412
1.8113,107.49,84.408,14.757,84.987,15.374,11.603,5.2678e-4,11.603,0.0026013,9.9034,4.3102,28.61,-80.6,9.7918,0.1105,0,0.016048,9.693e-6,38188,9951.9,58.858,0.29474,103.76,92.537,1.7818,0.25226,2.038e7,1e3,48.065,0.53604,0.53606,0.34913,0.058633,0.12827,0.017052,0.018032,4.0066e-4,0,0,0,0,0.01244,0.010903,6.2992,201.06,79.926,0.0029324,NaN,14.301,1000.6,339.97,0.05,0.041516
1.8613,111.73,85.145,14.725,85.745,15.4,12.103,5.7134e-4,12.103,0.0027047,10.124,4.5075,28.61,-80.6,9.7918,0.09277,0,-0.016023,1.5105e-5,38147,9911.2,58.824,0.29462,103.8,92.499,1.7934,0.25454,20557095,1e3,48.947,0.5364,0.53641,0.34909,0.058882,0.12842,0.014302,0.03791,4.9245e-4,0,0,0,0,-0.012181,0.011001,6.2992,201.06,79.637,0.0028937,NaN,14.274,1000.1,339.95,0.05,0.042533
1.9113,116,85.881,14.694,86.503,15.424,12.615,6.1816e-4,12.615,0.0028075,10.354,4.6887,28.61,-80.6,9.7918,0.24537,0,-0.015915,6.9274e-6,38106,9870.5,58.79,0.2945,103.51,92.461,1.7542,0.25687,20736895,1e3,49.862,0.53676,0.53686,0.34905,0.059136,0.12858,0.038169,0.078474,4.3126e-4,0,0,0,0,-0.011802,0.011099,6.2992,201.06,79.35,0.0028415,NaN,14.246,999.64,339.93,0.05,0.04289
1.9613,120.32,86.615,14.649,87.261,15.459,13.139,6.6725e-4,13.139,0.0029097,10.594,4.9393,28.61,-80.6,9.7918,0.56966,0,-0.015669,3.7836e-6,38065,9829.7,58.756,0.29439,102.92,92.423,1.6666,0.25904,20904548,1e3,50.757,0.53711,0.53764,0.34901,0.059374,0.12872,0.090295,0.16188,1.3944e-4,0,0,0,0,-0.01125,0.011197,6.2992,201.06,79.065,0.0027791,NaN,14.218,999.14,339.91,0.05,0.043298
2.0113,124.66,87.347,14.604,88.018,15.493,13.675,7.1865e-4,13.675,0.003011,10.848,5.1735,28.61,-80.6,9.7918,0.84023,0,-0.015259,2.5308e-6,38025,9789,58.722,0.29427,102.45,92.385,1.5972,0.26125,21074634,1e3,51.692,0.53746,0.5386,0.34897,0.059616,0.12887,0.13525,0.22674,4.9372e-4,0,0,0,0,-0.01049,0.011295,6.2992,201.06,78.786,0.0027195,NaN,14.19,998.63,339.9,0.05,0.043685
2.0613,129.05,88.077,14.566,88.775,15.52,14.224,7.7236e-4,14.224,0.0031112,11.111,5.3565,28.61,-80.6,9.7918,0.98438,0,-0.014756,2.6852e-6,37984,9748.2,58.687,0.29415,102.2,92.347,1.5642,0.26355,21252157,1e3,52.657,0.53783,0.53939,0.34893,0.059868,0.12903,0.15975,0.25942,-3.1799e-4,0,0,0,0,-0.0096407,0.011393,6.2992,201.06,78.516,0.0026343,NaN,14.161,998.11,339.88,0.05,0.044121
2.1113,133.47,88.804,14.514,89.531,15.559,14.786,8.284e-4,14.786,0.00321,11.385,5.6041,28.61,-80.6,9.7918,1.2765,0,-0.014126,2.5685e-6,37943,9707.5,58.653,0.29403,101.71,92.309,1.4927,0.26572,21418171,1e3,53.634,0.53817,0.54076,0.34889,0.060105,0.12918,0.21054,0.32256,3.2534e-4,0,0,0,0,-0.0086926,0.011491,6.2992,201.06,78.256,0.0025934,NaN,14.132,997.6,339.86,0.05,0.044462
2.1613,137.93,89.529,14.477,90.287,15.586,15.363,8.8679e-4,15.363,0.0033074,11.67,5.7736,28.61,-80.6,9.7918,1.3951,0,-0.01339,2.2098e-6,37902,9666.8,58.618,0.29391,101.52,92.271,1.4682,0.26801,21594704,1e3,54.622,0.53854,0.54162,0.34884,0.060357,0.12934,0.2316,0.34788,1.1902e-4,0,0,0,0,-0.0076772,0.011588,6.2992,201.06,78.008,0.0025541,NaN,14.103,997.07,339.85,0.05,0.044795
2.2113,142.42,90.253,14.45,91.042,15.604,15.953,9.4756e-4,15.953,0.0034031,11.961,5.8906,28.61,-80.6,9.7917,1.4091,0,-0.012623,2.9025e-6,37862,9626,58.584,0.29379,101.5,92.233,1.4709,0.27039,21777527,1e3,55.612,0.53892,0.54207,0.3488,0.060617,0.1295,0.23413,0.35149,-3.2953e-6,0,0,0,0,-0.0067047,0.011686,6.2992,201.06,77.774,0.002538,NaN,14.074,996.55,339.83,0.05,0.045111
2.2613,146.96,90.975,14.402,91.797,15.639,16.559,0.0010107,16.559,0.0034973,12.261,6.0956,28.61,-80.6,9.7917,1.618,0,-0.011787,2.7295e-6,37821,9585.3,58.549,0.29367,101.16,92.195,1.4239,0.27258,21944820,1e3,56.622,0.53927,0.54339,0.34876,0.060858,0.12966,0.27192,0.39284,7.1451e-5,0,0,0,0,-0.0057534,0.011784,6.2992,201.06,77.554,0.0025663,NaN,14.045,996.01,339.81,0.05,0.045431
2.3113,151.52,91.694,14.352,92.552,15.677,17.18,0.0010764,17.18,0.0035898,12.572,6.3074,28.61,-80.6,9.7917,1.8439,0,-0.010832,2.3748e-6,37780,9544.5,58.515,0.29355,100.81,92.156,1.374,0.27472,22108879,1e3,57.649,0.53962,0.54492,0.34872,0.061094,0.12981,0.31366,0.43575,-1.4246e-4,0,0,0,0,-0.0047832,0.011882,6.2992,201.06,77.351,0.0025978,NaN,14.015,995.48,339.79,0.05,0.045732
2.3612,156.13,92.411,14.321,93.306,15.699,17.816,0.0011445,17.816,0.0036807,12.89,6.4306,28.61,-80.6,9.7917,1.9018,0,-0.0098046,2.3587e-6,37739,9503.8,58.48,0.29343,100.72,92.118,1.3662,0.27701,22283446,1e3,58.654,0.53999,0.54562,0.34867,0.061345,0.12998,0.32452,0.44736,-4.7293e-4,0,0,0,0,-0.0038552,0.01198,6.2992,201.06,77.165,0.0026334,NaN,13.985,994.94,339.77,0.05,0.046044
2.4112,160.76,93.127,14.293,94.06,15.72,18.469,0.0012152,18.469,0.0037701,13.215,6.5448,28.61,-80.6,9.7917,1.9557,0,-0.0087369,2.8379e-6,37699,9463.1,58.445,0.29331,100.64,92.079,1.3595,0.27927,22456603,1e3,59.661,0.54036,0.5463,0.34863,0.061595,0.13014,0.33469,0.45753,2.0517e-4,0,0,0,0,-0.003012,0.012078,6.2992,201.06,76.998,0.0027086,NaN,13.955,994.4,339.76,0.05,0.046381
2.4612,165.44,93.841,14.262,94.814,15.743,19.138,0.0012886,19.138,0.0038579,13.545,6.667,28.61,-80.6,9.7917,2.0381,0,-0.0076129,2.6686e-6,37658,9422.3,58.41,0.29319,100.52,92.04,1.346,0.28149,22625657,1e3,60.674,0.54072,0.54716,0.34858,0.061839,0.1303,0.35034,0.47397,-4.4226e-4,0,0,0,0,-0.0022513,0.012176,6.2992,201.06,76.851,0.0028105,NaN,13.925,993.85,339.74,0.05,0.046815
2.5112,170.15,94.555,14.248,95.568,15.752,19.823,0.0013647,19.823,0.0039445,13.88,6.7162,28.61,-80.6,9.7917,1.9997,0,-0.0064594,2.673e-6,37617,9381.6,58.375,0.29307,100.58,92.002,1.3617,0.28381,22802280,1e3,61.66,0.5411,0.54731,0.34854,0.062095,0.13047,0.34306,0.46879,1.7567e-4,0,0,0,0,-0.0015945,0.012274,6.2992,201.06,76.724,0.0029291,NaN,13.894,993.29,339.72,0.05,0.047237
2.5612,174.89,95.267,14.247,96.322,15.752,20.526,0.0014437,20.526,0.0040299,14.216,6.7195,28.61,-80.6,9.7916,1.8949,0,-0.0053173,2.9595e-6,37576,9340.8,58.34,0.29295,100.74,91.963,1.3937,0.28618,22982741,1e3,62.632,0.54149,0.5471,0.34849,0.062356,0.13065,0.32331,0.45177,-4.906e-4,0,0,0,0,-0.0010628,0.012372,6.2992,201.06,76.618,0.0030628,NaN,13.863,992.74,339.7,0.05,0.047647
2.6112,179.67,95.98,14.246,97.077,15.752,21.245,0.0015256,21.245,0.0041143,14.552,6.7204,28.61,-80.6,9.7916,1.8035,0,-0.0041965,3.9834e-6,37536,9300.1,58.305,0.29284,100.89,91.924,1.4227,0.28852,23160757,1e3,63.611,0.54188,0.54698,0.34844,0.062614,0.13082,0.30624,0.43626,3.5769e-4,0,0,0,0,-6.5138e-4,0.012471,6.2992,201.06,76.532,0.0032678,NaN,13.832,992.18,339.68,0.05,0.048012
2.6612,184.49,96.693,14.247,97.832,15.75,21.981,0.0016105,21.981,0.0041981,14.888,6.7154,28.61,-80.6,9.7916,1.7188,0,-0.0030986,3.4979e-6,37495,9259.4,58.27,0.29272,101.02,91.885,1.4503,0.29083,23336756,1e3,64.592,0.54226,0.54691,0.3484,0.06287,0.131,0.29056,0.4213,1.6468e-4,0,0,0,0,-3.4954e-4,0.012569,6.2992,201.06,76.467,0.0035026,NaN,13.801,991.61,339.66,0.05,0.048365
2.7112,189.34,97.406,14.24,98.588,15.757,22.734,0.0016988,22.734,0.0042814,15.225,6.7466,28.61,-80.6,9.7916,1.7149,0,-0.0020039,3.3941e-6,37454,9218.6,58.235,0.2926,101.03,91.846,1.4577,0.29305,23504182,1e3,65.583,0.54263,0.54727,0.34835,0.063115,0.13116,0.28986,0.42269,-3.7113e-4,0,0,0,0,-1.44e-4,0.012667,6.2992,201.06,76.421,0.003741,NaN,13.769,991.04,339.64,0.05,0.04871
2.7612,194.23,98.117,14.224,99.344,15.77,23.503,0.0017904,23.503,0.0043646,15.564,6.8096,28.61,-80.6,9.7916,1.7808,0,-8.6162e-4,3.4524e-6,37414,9177.9,58.2,0.29248,100.93,91.807,1.4479,0.29516,23663513,1e3,66.58,0.54298,0.54797,0.34831,0.063349,0.13133,0.30208,0.4374,3.7821e-4,0,0,0,0,-2.6245e-5,0.012766,6.2992,201.06,76.395,0.0039919,NaN,13.737,990.47,339.62,0.05,0.049054
2.8112,199.16,98.829,14.23,100.1,15.767,24.29,0.0018856,24.29,0.0044477,15.904,6.7918,28.61,-80.6,9.7916,1.7217,0,3.0083e-4,3.029e-6,37373,9137.1,58.164,0.29236,101.02,91.767,1.4691,0.29739,23831637,1e3,67.557,0.54335,0.54803,0.34826,0.063596,0.1315,0.29115,0.4277,-2.8501e-4,0,0,0,0,3.1519e-6,0.012864,6.2992,201.06,76.39,0.0042268,NaN,13.705,989.89,339.6,0.05,0.049406
2.8612,204.11,99.542,14.249,100.86,15.753,25.094,0.0019845,25.094,0.0045311,16.243,6.7174,28.61,-80.6,9.7915,1.5828,0,0.0014374,3.2235e-6,37332,9096.4,58.129,0.29224,101.24,91.728,1.5106,0.29969,24005047,1e3,68.525,0.54374,0.54772,0.34821,0.063851,0.13168,0.2657,0.40134,-3.1546e-4,0,0,0,0,7.0867e-5,0.012963,6.2992,201.06,76.406,0.0044859,NaN,13.673,989.31,339.58,0.05,0.049756
2.9112,209.11,100.26,14.285,101.62,15.726,25.914,0.0020873,25.914,0.0046149,16.575,6.5754,28.61,-80.6,9.7915,1.3451,0,0.0024723,3.5856e-6,37291,9055.6,58.093,0.29212,101.63,91.689,1.5783,0.30208,24186121,1e3,69.498,0.54414,0.54705,0.34816,0.064116,0.13186,0.22291,0.35146,-2.8302e-5,0,0,0,0,2.0637e-4,0.013062,6.2992,201.06,76.441,0.0047633,NaN,13.641,988.72,339.57,0.05,0.050106
2.9612,214.14,100.97,14.307,102.38,15.71,26.751,0.0021941,26.751,0.0046992,16.902,6.4893,28.61,-80.6,9.7915,1.2183,0,0.0034253,3.0194e-6,37251,9014.9,58.058,0.292,101.84,91.649,1.6181,0.30434,24355893,1e3,70.482,0.54452,0.54692,0.34811,0.064367,0.13204,0.20052,0.32438,3.7875e-4,0,0,0,0,3.9033e-4,0.013161,6.2992,201.06,76.494,0.0050484,NaN,13.608,988.13,339.55,0.05,0.050453
3.0112,219.21,101.69,14.342,103.14,15.685,27.604,0.0023051,27.604,0.0047844,17.223,6.3517,28.61,-80.6,9.7915,1.0179,0,0.0042866,2.0575e-6,37210,8974.2,58.022,0.29188,102.18,91.61,1.6782,0.30667,24531315,1e3,71.482,0.54492,0.5466,0.34806,0.064626,0.13223,0.16571,0.27796,-1.1101e-4,0,0,0,0,6.0212e-4,0.013259,6.2992,201.06,76.564,0.0052775,NaN,13.575,987.54,339.53,0.05,0.050804
3.0612,224.31,102.41,14.38,103.9,15.657,28.473,0.0024204,28.473,0.0048704,17.537,6.1921,28.61,-80.6,9.7915,0.79232,0,0.0050026,1.7494e-6,37169,8933.4,57.986,0.29176,102.57,91.57,1.7465,0.30903,24708350,1e3,72.506,0.54532,0.54635,0.34801,0.064888,0.13241,0.12737,0.22115,-4.3033e-4,0,0,0,0,8.077e-4,0.013358,6.2992,201.06,76.648,0.0054721,NaN,13.542,986.94,339.51,0.05,0.051138
3.1112,229.45,103.13,14.411,104.66,15.634,29.358,0.0025401,29.358,0.0049573,17.843,6.0608,28.61,-80.6,9.7915,0.62611,0,0.0056019,2.2237e-6,37128,8892.7,57.95,0.29164,102.87,91.53,1.7996,0.31131,24878953,1e3,73.534,0.5457,0.54635,0.34796,0.065141,0.1326,0.099717,0.17853,-1.8176e-4,0,0,0,0,9.9815e-4,0.013458,6.2992,201.06,76.743,0.0056784,NaN,13.509,986.34,339.49,0.05,0.051466
3.1612,234.62,103.85,14.453,105.42,15.603,30.258,0.0026643,30.258,0.0050451,18.141,5.8773,28.61,-80.6,9.7915,0.37874,0,0.0060147,2.2533e-6,37088,8851.9,57.914,0.29152,103.31,91.49,1.8771,0.31368,25057085,1e3,74.613,0.54611,0.54635,0.34791,0.065406,0.13279,0.059476,0.11036,-2.9415e-4,0,0,0,0,0.0011335,0.013557,6.2992,201.06,76.848,0.0059135,NaN,13.475,985.73,339.46,0.05,0.051802
3.2112,239.83,104.57,14.47,106.18,15.592,31.172,0.0027931,31.172,0.0051339,18.434,5.8065,28.61,-80.6,9.7914,0.33298,0,0.0063409,2.2555e-6,37047,8811.2,57.878,0.29141,103.4,91.45,1.8971,0.3158,25214831,1e3,75.622,0.54647,0.54666,0.34786,0.065642,0.13297,0.052155,0.097529,4.2197e-4,0,0,0,0,0.001243,0.013656,6.2992,201.06,76.959,0.0061744,NaN,13.441,985.12,339.44,0.05,0.052186
3.2612,245.08,105.3,14.503,106.95,15.568,32.101,0.0029267,32.101,0.0052237,18.721,5.6599,28.61,-80.6,9.7914,0.16222,0,0.0065641,1.4024e-6,37006,8770.5,57.842,0.29129,103.72,91.41,1.9541,0.31808,25384592,1e3,76.703,0.54686,0.54691,0.34781,0.065896,0.13315,0.025161,0.047591,7.4074e-5,0,0,0,0,0.0013132,0.013755,6.2992,201.06,77.076,0.0063876,NaN,13.407,984.51,339.42,0.05,0.052549
3.3112,250.36,106.02,14.533,107.71,15.545,33.044,0.003065,33.044,0.0053145,19,5.5149,28.61,-80.6,9.7914,0.0015058,0,-0.0066329,-1.074e-4,36965,8729.7,57.806,0.29117,104.03,91.37,2.0092,0.32035,25553633,1e3,77.802,0.54725,0.54725,0.34776,0.06615,0.13334,2.3138e-4,0.0014831,3.4658e-4,0,0,0,0,-0.0013221,0.013854,6.2992,201.06,77.195,0.0065853,NaN,13.373,983.89,339.4,0.05,0.05404
3.3612,255.68,106.75,14.56,108.48,15.525,34.001,0.0032082,34.001,0.0054063,19.273,5.3892,28.61,-80.6,9.7914,0.12818,0,-0.0065656,-3.077e-6,36925,8689,57.77,0.29105,103.79,91.33,1.9777,0.32258,25719080,1e3,78.898,0.54764,0.54767,0.34771,0.066399,0.13353,0.019844,0.04042,-2.294e-4,0,0,0,0,-0.0012778,0.013954,6.2992,201.06,77.314,0.0067406,NaN,13.338,983.26,339.38,0.05,0.054428
3.4112,261.04,107.48,14.589,109.24,15.502,34.971,0.0033564,34.971,0.005499,19.539,5.2387,28.61,-80.6,9.7914,0.29075,0,-0.0063741,-2.3898e-6,36884,8648.2,57.734,0.29093,103.49,91.29,1.9363,0.32486,25888556,1e3,80.041,0.54803,0.54818,0.34766,0.066654,0.13372,0.045445,0.089214,-3.8436e-4,0,0,0,0,-0.0011876,0.014053,6.2992,201.06,77.43,0.0068689,NaN,13.303,982.63,339.36,0.05,0.054778
3.4612,266.43,108.21,14.633,110.01,15.465,35.955,0.0035094,35.955,0.0055925,19.795,5.0037,28.61,-80.6,9.7914,0.57961,0,-0.0059336,-1.4505e-6,36843,8607.5,57.697,0.29081,102.96,91.249,1.8598,0.32732,26072185,1e3,81.333,0.54846,0.54902,0.3476,0.066929,0.13393,0.092117,0.17195,-3.5497e-4,0,0,0,0,-0.0010138,0.014152,6.2992,201.06,77.541,0.0069761,NaN,13.268,982,339.34,0.05,0.057025
3.5112,271.86,108.94,14.653,110.77,15.449,36.951,0.0036674,36.951,0.0056867,20.042,4.8975,28.61,-80.6,9.7913,0.66646,0,-0.0053137,-2.4409e-6,36802,8566.8,57.661,0.29069,102.81,91.209,1.842,0.32954,26235956,1e3,82.47,0.54885,0.54959,0.34755,0.067178,0.13412,0.10645,0.19645,2.5112e-4,0,0,0,0,-8.0222e-4,0.014251,6.2992,201.06,77.643,0.0070924,NaN,13.233,981.37,339.32,0.05,0.057364
3.5612,277.32,109.68,14.657,111.54,15.445,37.959,0.0038303,37.959,0.0057816,20.286,4.8709,28.61,-80.6,9.7913,0.64017,0,-0.0046726,-2.2572e-6,36762,8526,57.624,0.29057,102.86,91.168,1.8562,0.33163,26388821,1e3,83.508,0.54921,0.5499,0.3475,0.067411,0.1343,0.10211,0.18971,-2.8312e-4,0,0,0,0,-6.1265e-4,0.01435,6.2992,201.06,77.733,0.0072724,NaN,13.197,980.72,339.3,0.05,0.057704
3.6112,282.83,110.41,14.668,112.3,15.435,38.979,0.0039983,38.979,0.0058771,20.529,4.8065,28.61,-80.6,9.7913,0.6765,0,-0.0040156,-1.7712e-6,36721,8485.3,57.588,0.29045,102.8,91.127,1.8528,0.33381,26549340,1e3,84.626,0.54959,0.55036,0.34745,0.067656,0.13449,0.10813,0.20095,-3.8976e-4,0,0,0,0,-4.4663e-4,0.01445,6.2992,201.06,77.811,0.007404,NaN,13.162,980.08,339.27,0.05,0.058009
3.6612,288.36,111.14,14.684,113.07,15.419,40.012,0.0041712,40.012,0.0059731,20.767,4.7032,28.61,-80.6,9.7913,0.77419,0,-0.0032884,-2.3391e-6,36680,8444.5,57.551,0.29033,102.63,91.087,1.8324,0.33609,26717584,1e3,85.83,0.55,0.55099,0.3474,0.067912,0.13468,0.12444,0.22794,-4.3529e-4,0,0,0,0,-2.9549e-4,0.014549,6.2992,201.06,77.877,0.0075293,NaN,13.126,979.43,339.25,0.05,0.058313
3.7112,293.94,111.88,14.709,113.83,15.394,41.056,0.0043492,41.056,0.0060696,20.998,4.5421,28.61,-80.6,9.7913,0.95543,0,-0.0024059,-3.1785e-6,36639,8403.8,57.514,0.29021,102.32,91.046,1.7895,0.33852,26896496,1e3,87.161,0.55042,0.55193,0.34734,0.068184,0.1349,0.15515,0.27771,-4.9784e-5,0,0,0,0,-1.5593e-4,0.014648,6.2992,201.06,77.928,0.007726,NaN,13.089,978.78,339.23,0.05,0.05862
3.7612,299.55,112.62,14.729,114.6,15.373,42.111,0.0045323,42.111,0.0061665,21.221,4.4044,28.61,-80.6,9.7913,1.1066,0,-0.0013509,-3.0708e-6,36599,8363.1,57.477,0.29009,102.06,91.005,1.7557,0.34093,27074378,1e3,88.497,0.55085,0.55286,0.34728,0.068455,0.13511,0.18123,0.31859,1.8802e-4,0,0,0,0,-4.8475e-5,0.014747,6.2992,201.06,77.962,0.0079913,NaN,13.053,978.12,339.21,0.05,0.060739
3.8112,305.2,113.35,14.74,115.36,15.358,43.178,0.0047206,43.178,0.0062641,21.439,4.3122,28.61,-80.6,9.7912,1.2035,0,-1.6416e-4,-3.3869e-6,36558,8322.3,57.44,0.28997,101.9,90.964,1.7368,0.3433,27248676,1e3,89.798,0.55127,0.55364,0.34723,0.068722,0.13532,0.19817,0.34421,-2.8636e-4,0,0,0,0,-7.0608e-7,0.014846,6.2992,201.06,77.976,0.0082666,NaN,13.016,977.45,339.19,0.05,0.061291
3.8612,310.89,114.09,14.741,116.13,15.35,44.255,0.0049142,44.255,0.0063622,21.654,4.2808,28.61,-80.6,9.7912,1.2314,0,0.0011131,-3.6583e-6,36517,8281.6,57.403,0.28986,101.86,90.923,1.7364,0.34561,27417721,1e3,91.033,0.55168,0.55416,0.34717,0.068982,0.13553,0.20309,0.35214,-1.5827e-4,0,0,0,0,3.2033e-5,0.014945,6.2992,201.06,77.968,0.0085583,NaN,12.979,976.79,339.16,0.05,0.061631
3.9112,316.61,114.83,14.724,116.89,15.354,45.343,0.0051133,45.343,0.0064611,21.87,4.3555,28.61,-80.6,9.7912,1.1373,0,0.0023554,-3.2762e-6,36476,8240.8,57.366,0.28974,102.02,90.882,1.7682,0.34777,27575194,1e3,92.119,0.55207,0.55419,0.34712,0.069226,0.13572,0.18661,0.32993,3.6745e-5,0,0,0,0,1.4168e-4,0.015044,6.2992,201.06,77.936,0.0088389,NaN,12.942,976.12,339.14,0.05,0.061954
3.9612,322.37,115.56,14.712,117.66,15.352,46.442,0.005318,46.442,0.0065608,22.088,4.3856,28.61,-80.6,9.7912,1.1119,0,0.0035863,-3.3996e-6,36436,8200.1,57.329,0.28962,102.06,90.84,1.7819,0.35007,27742558,1e3,93.327,0.55248,0.55451,0.34706,0.069484,0.13593,0.18222,0.32448,3.4335e-4,0,0,0,0,3.2422e-4,0.015143,6.2992,201.06,77.883,0.0091154,NaN,12.905,975.44,339.12,0.05,0.062265
4.0112,328.17,116.3,14.684,118.42,15.362,47.552,0.0055284,47.552,0.0066612,22.311,4.5124,28.61,-80.6,9.7912,0.97807,0,0.0047289,-4.3805e-6,36395,8159.4,57.292,0.2895,102.29,90.799,1.8248,0.35223,27899481,1e3,94.409,0.55287,0.55445,0.34701,0.069729,0.13613,0.15911,0.28989,-1.9546e-5,0,0,0,0,5.5687e-4,0.015241,6.2992,201.06,77.808,0.0094271,NaN,12.867,974.76,339.1,0.05,0.062625
4.0612,334,117.03,14.674,119.18,15.356,48.673,0.0057448,48.673,0.0067625,22.537,4.5242,28.61,-80.6,9.7912,0.99884,0,0.0058469,-5.7924e-6,36354,8118.6,57.255,0.28938,102.26,90.757,1.8262,0.35465,28075974,1e3,95.729,0.5533,0.55495,0.34695,0.070002,0.13635,0.16269,0.29669,3.528e-4,0,0,0,0,8.3986e-4,0.01534,6.2992,201.06,77.713,0.0097996,NaN,12.829,974.08,339.07,0.05,0.062975
4.1112,339.87,117.77,14.661,119.95,15.351,49.806,0.0059674,49.806,0.0068649,22.764,4.5512,28.61,-80.599,9.7911,1.0107,0,0.0070074,-6.8991e-6,36314,8077.9,57.217,0.28926,102.24,90.716,1.83,0.35709,28253736,1e3,97.064,0.55374,0.55543,0.34689,0.070277,0.13658,0.16475,0.30003,-1.6018e-5,0,0,0,0,0.0011901,0.015439,6.2992,201.06,77.597,0.01023,NaN,12.791,973.39,339.05,0.05,0.06352
4.1612,345.78,118.5,14.629,120.71,15.359,50.95,0.0061965,50.95,0.0069683,22.994,4.6767,28.61,-80.599,9.7911,0.91395,0,0.0081496,-7.2146e-6,36273,8037.1,57.18,0.28914,102.41,90.674,1.8633,0.35939,28420872,1e3,98.272,0.55416,0.55555,0.34683,0.070538,0.13679,0.14819,0.27447,1.2485e-4,0,0,0,0,0.0015893,0.015538,6.2992,201.06,77.461,0.010638,NaN,12.752,972.7,339.03,0.05,0.063868
4.2112,351.72,119.23,14.574,121.47,15.385,52.105,0.0064324,52.105,0.0070731,23.234,4.9301,28.61,-80.599,9.7911,0.67196,0,0.009103,-9.4892e-6,36232,7996.4,57.142,0.28902,102.84,90.632,1.9373,0.3615,28572250,1e3,99.314,0.55454,0.5553,0.34678,0.070777,0.13699,0.10749,0.20592,4.1151e-5,0,0,0,0,0.0019601,0.015637,6.2992,201.06,77.305,0.011048,NaN,12.714,972,339,0.05,0.064222
4.2612,357.7,119.96,14.512,122.24,15.416,53.273,0.0066753,53.273,0.0071793,23.487,5.2012,28.61,-80.599,9.7911,0.4145,0,0.0097894,-1.2397e-5,36191,7955.6,57.105,0.2889,103.3,90.59,2.0177,0.36361,28722564,1e3,100.38,0.55492,0.55522,0.34672,0.071015,0.13719,0.065342,0.1295,2.3431e-4,0,0,0,0,0.002241,0.015736,6.2992,201.06,77.134,0.01145,NaN,12.675,971.3,338.98,0.05,0.064601
4.3112,363.72,120.68,14.44,123,15.455,54.454,0.0069256,54.454,0.007287,23.756,5.5086,28.61,-80.599,9.7911,0.11318,0,0.010097,-3.5703e-5,36151,7914.9,57.067,0.28878,103.86,90.549,2.1133,0.36564,28867618,1e3,101.46,0.5553,0.55532,0.34667,0.071245,0.13738,0.017534,0.034564,9.937e-5,0,0,0,0,0.0023578,0.015835,6.2992,201.06,76.955,0.011832,NaN,12.636,970.59,338.96,0.05,0.065072
4.3612,369.77,121.4,14.401,123.76,15.466,55.649,0.0071835,55.649,0.0073961,24.035,5.6404,28.61,-80.599,9.791,0.038521,0,0.010185,-1.0826e-4,36110,7874.2,57.029,0.28866,104.01,90.506,2.1429,0.36802,29038969,1e3,102.78,0.55573,0.55573,0.34661,0.071515,0.13761,0.0059424,0.010131,-2.2601e-4,0,0,0,0,0.0023687,0.015934,6.2992,201.06,76.772,0.012203,NaN,12.597,969.88,338.93,0.05,0.065712
4.4112,375.86,122.12,14.355,124.52,15.481,56.858,0.0074495,56.858,0.0075069,24.32,5.7966,28.61,-80.599,9.791,0.065587,0,-0.010183,-6.1287e-5,36069,7833.4,56.991,0.28854,103.96,90.464,2.1418,0.37035,29206386,1e3,104.09,0.55616,0.55617,0.34655,0.071779,0.13783,0.010135,0.024209,1.812e-4,0,0,0,0,-0.0023384,0.016033,6.2992,201.06,76.589,0.012497,NaN,12.557,969.17,338.91,0.05,0.066649
4.4612,381.98,122.84,14.281,125.28,15.522,58.081,0.0077237,58.081,0.0076193,24.617,6.0801,28.61,-80.599,9.791,0.32437,0,-0.0098863,-9.5071e-6,36028,7792.7,56.953,0.28842,103.47,90.422,2.0721,0.37243,29353839,1e3,105.29,0.55654,0.55672,0.34649,0.072015,0.13803,0.050887,0.10718,-4.7608e-4,0,0,0,0,-0.0021799,0.016132,6.2992,201.06,76.408,0.012722,NaN,12.517,968.45,338.88,0.05,0.067101
4.5112,388.14,123.55,14.231,126.04,15.541,59.32,0.0080064,59.32,0.0077332,24.926,6.2428,28.61,-80.599,9.791,0.43124,0,-0.0093473,-6.0744e-6,35988,7751.9,56.915,0.28831,103.28,90.38,2.0482,0.37472,29517750,1e3,106.61,0.55696,0.55728,0.34643,0.072276,0.13825,0.068077,0.14098,-2.7152e-4,0,0,0,0,-0.0019252,0.016231,6.2992,201.06,76.234,0.012929,NaN,12.477,967.73,338.86,0.05,0.067948
4.5612,394.34,124.26,14.194,126.8,15.549,60.574,0.0082978,60.574,0.0078487,25.241,6.3502,28.61,-80.599,9.791,0.47501,0,-0.008711,-4.4202e-6,35947,7711.2,56.877,0.28819,103.21,90.337,2.0428,0.37709,29687504,1e3,107.98,0.5574,0.55779,0.34637,0.072545,0.13849,0.075183,0.15505,-4.0301e-4,0,0,0,0,-0.0016513,0.01633,6.2992,201.06,76.072,0.013148,NaN,12.437,967,338.84,0.05,0.068314
4.6112,400.57,124.97,14.16,127.56,15.555,61.844,0.0085981,61.844,0.0079658,25.561,6.4374,28.61,-80.599,9.7909,0.50009,0,-0.0079999,-4.5728e-6,35906,7670.5,56.839,0.28807,103.16,90.295,2.0428,0.37947,29857655,1e3,109.36,0.55784,0.55827,0.34631,0.072816,0.13872,0.079272,0.16338,-3.302e-4,0,0,0,0,-0.0013755,0.016429,6.2992,201.06,75.921,0.013347,NaN,12.396,966.27,338.81,0.05,0.068635
4.6612,406.83,125.68,14.149,128.32,15.541,63.13,0.0089076,63.13,0.0080844,25.883,6.4277,28.61,-80.599,9.7909,0.4196,0,-0.0073401,-6.1435e-6,35865,7629.7,56.8,0.28795,103.31,90.252,2.0732,0.382,3.004e7,1e3,110.81,0.55832,0.55862,0.34624,0.073104,0.13897,0.066216,0.13811,5.2169e-5,0,0,0,0,-0.0011428,0.016528,6.2992,201.06,75.783,0.013483,NaN,12.356,965.54,338.79,0.05,0.07015
4.7112,413.14,126.39,14.122,129.08,15.54,64.432,0.0092263,64.432,0.0082044,26.205,6.4851,28.61,-80.599,9.7909,0.42251,0,-0.0067333,-6.226e-6,35825,7589,56.762,0.28783,103.31,90.209,2.0796,0.38438,30209367,1e3,112.2,0.55876,0.55907,0.34618,0.073376,0.13921,0.066692,0.13953,-2.906e-4,0,0,0,0,-9.4993e-4,0.016627,6.2992,201.06,75.657,0.013537,NaN,12.315,964.8,338.76,0.05,0.070625
4.7612,419.47,127.09,14.081,129.83,15.554,65.751,0.0095544,65.751,0.0083258,26.533,6.6077,28.61,-80.599,9.7909,0.50388,0,-0.0060267,-3.3343e-6,35784,7548.2,56.723,0.28771,103.16,90.167,2.0634,0.38661,30366855,1e3,113.53,0.55918,0.55961,0.34612,0.073631,0.13943,0.079915,0.16613,-1.5877e-5,0,0,0,0,-7.5236e-4,0.016726,6.2992,201.06,75.542,0.013579,NaN,12.273,964.05,338.74,0.05,0.07148
4.8112,425.84,127.8,14.055,130.59,15.555,67.086,0.0098918,67.086,0.0084483,26.864,6.6651,28.61,-80.599,9.7909,0.51727,0,-0.0052749,-2.7206e-6,35743,7507.5,56.685,0.28759,103.14,90.124,2.0668,0.38893,30531061,1e3,114.9,0.55961,0.56007,0.34605,0.073895,0.13966,0.082108,0.16982,3.3978e-4,0,0,0,0,-5.6958e-4,0.016825,6.2992,201.06,75.44,0.013634,NaN,12.232,963.31,338.71,0.05,0.071911
4.8612,432.25,128.5,14.005,131.35,15.578,68.437,0.010239,68.437,0.0085718,27.202,6.8209,28.61,-80.599,9.7908,0.64324,0,-0.004382,-2.3894e-6,35702,7466.8,56.646,0.28747,102.92,90.081,2.0383,0.39103,30677630,1e3,116.19,0.56001,0.56071,0.346,0.074135,0.13988,0.10285,0.21036,-4.159e-4,0,0,0,0,-3.8893e-4,0.016924,6.2992,201.06,75.353,0.01363,NaN,12.19,962.55,338.69,0.05,0.073311
4.9112,438.69,129.2,13.982,132.1,15.578,69.806,0.010595,69.806,0.0086961,27.545,6.8669,28.61,-80.599,9.7908,0.65659,0,-0.003367,-1.4131e-6,35662,7426,56.608,0.28735,102.9,90.038,2.0418,0.39329,30836229,1e3,117.53,0.56043,0.56117,0.34593,0.074393,0.14011,0.10507,0.21525,7.654e-5,0,0,0,0,-2.2702e-4,0.017022,6.2992,201.06,75.283,0.013595,NaN,12.148,961.8,338.66,0.05,0.073711
4.9612,445.17,129.9,13.986,132.86,15.555,71.192,0.01096,71.192,0.0088211,27.887,6.8083,28.61,-80.599,9.7908,0.56733,0,-0.0024242,-2.0468e-6,35621,7385.3,56.569,0.28723,103.06,89.994,2.0744,0.39569,31006179,1e3,118.94,0.56089,0.56144,0.34587,0.074669,0.14035,0.090337,0.18797,-3.2639e-4,0,0,0,0,-1.1628e-4,0.017121,6.2992,201.06,75.231,0.013523,NaN,12.106,961.04,338.64,0.05,0.074082
5.0112,451.68,130.6,13.973,133.62,15.548,72.594,0.011335,72.594,0.0089465,28.228,6.8181,28.61,-80.599,9.7908,0.55832,0,-0.0015204,-1.5639e-6,35580,7344.5,56.53,0.28711,103.08,89.951,2.0842,0.39793,31162758,1e3,120.28,0.56131,0.56185,0.3458,0.074925,0.14059,0.088865,0.18507,4.1589e-4,0,0,0,0,-4.5229e-5,0.01722,6.2992,201.06,75.195,0.013435,NaN,12.064,960.27,338.61,0.05,0.074544
5.0612,458.23,131.3,13.972,134.37,15.531,74.014,0.011719,74.014,0.0090721,28.568,6.7815,28.61,-80.599,9.7908,0.50834,0,-6.6262e-4,-1.2421e-6,35539,7303.8,56.491,0.28699,103.17,89.908,2.1058,0.40022,31322569,1e3,121.64,0.56175,0.56219,0.34574,0.075187,0.14082,0.080688,0.17036,2.1081e-4,0,0,0,0,-8.4948e-6,0.017319,6.2992,201.06,75.176,0.013329,NaN,12.021,959.51,338.58,0.05,0.07599
5.1112,464.81,132,13.966,135.13,15.521,75.451,0.012112,75.451,0.0091977,28.907,6.7716,28.61,-80.599,9.7907,0.49302,0,1.5891e-4,-8.5965e-7,35499,7263.1,56.452,0.28687,103.2,89.864,2.1175,0.40241,31475211,1e3,122.97,0.56217,0.56259,0.34568,0.075439,0.14105,0.078195,0.16591,1.4901e-5,0,0,0,0,4.8333e-7,0.017418,6.2992,201.06,75.171,0.013239,NaN,11.979,958.74,338.56,0.05,0.076426
5.1612,471.43,132.7,13.954,135.88,15.516,76.905,0.012514,76.905,0.0093232,29.246,6.784,28.61,-80.599,9.7907,0.50703,0,9.8827e-4,-4.166e-7,35458,7222.3,56.413,0.28676,103.18,89.821,2.1209,0.40453,31621276,1e3,124.26,0.56257,0.56301,0.34562,0.075682,0.14127,0.08049,0.17077,2.6957e-4,0,0,0,0,1.8501e-5,0.017516,6.2992,201.06,75.182,0.013208,NaN,11.936,957.96,338.53,0.05,0.076897
5.2112,478.08,133.39,13.946,136.64,15.508,78.376,0.012924,78.376,0.0094483,29.586,6.7835,28.61,-80.599,9.7907,0.51408,0,0.0018743,-1.6635e-6,35417,7181.6,56.373,0.28664,103.17,89.777,2.1262,0.40663,31765672,1e3,125.54,0.56298,0.56343,0.34556,0.075923,0.1415,0.081648,0.17393,-4.0568e-4,0,0,0,0,6.5869e-5,0.017615,6.2992,201.06,75.207,0.013158,NaN,11.892,957.18,338.51,0.05,0.077259
5.2612,484.77,134.09,13.973,137.39,15.471,79.864,0.013343,79.864,0.0095729,29.921,6.6412,28.61,-80.599,9.7907,0.38561,0,0.0026433,-1.8529e-6,35376,7140.8,56.334,0.28652,103.41,89.733,2.1706,0.40895,31927004,1e3,126.93,0.56342,0.56368,0.34549,0.07619,0.14174,0.060802,0.1322,-8.8836e-6,0,0,0,0,1.2955e-4,0.017714,6.2992,201.06,75.248,0.013132,NaN,11.849,956.39,338.48,0.05,0.077675
5.3112,491.49,134.79,13.995,138.14,15.438,81.368,0.013771,81.368,0.0096969,30.25,6.5155,28.61,-80.599,9.7907,0.28008,0,0.0032355,-1.8709e-6,35336,7100.1,56.294,0.2864,103.6,89.689,2.2088,0.41121,32083461,1e3,128.3,0.56386,0.56399,0.34543,0.07645,0.14198,0.043899,0.096807,6.412e-5,0,0,0,0,1.92e-4,0.017812,6.2992,201.06,75.301,0.013176,NaN,11.805,955.61,338.45,0.05,0.079144
5.3612,498.25,135.49,14.028,138.9,15.396,82.888,0.014207,82.888,0.0098202,30.572,6.3459,28.61,-80.599,9.7906,0.13547,0,0.0036105,-4.955e-6,35295,7059.4,56.255,0.28628,103.88,89.645,2.2591,0.41354,32244466,1e3,129.73,0.56431,0.56434,0.34536,0.076717,0.14223,0.021058,0.047235,8.3938e-6,0,0,0,0,2.3645e-4,0.017911,6.2992,201.06,75.363,0.013289,NaN,11.761,954.81,338.43,0.05,0.079881
5.4112,505.04,136.2,14.062,139.65,15.353,84.425,0.014651,84.425,0.0099429,30.885,6.1607,28.61,-80.599,9.7906,0.021732,0,-0.003717,-4.6567e-5,35254,7018.6,56.215,0.28616,104.09,89.601,2.3008,0.41588,32407923,1e3,131.2,0.56476,0.56476,0.34529,0.076988,0.14248,0.003356,0.0079058,3.7172e-4,0,0,0,0,-2.4781e-4,0.01801,6.2992,201.06,75.43,0.013477,NaN,11.717,954.04,338.4,0.05,0.08684
5.4612,511.87,136.9,14.092,140.41,15.313,85.977,0.015103,85.977,0.010065,31.188,5.9925,28.61,-80.599,9.7906,0.15818,0,-0.0035197,-9.0928e-6,35214,6977.9,56.176,0.28604,103.84,89.557,2.2673,0.4182,32569118,1e3,132.68,0.56521,0.56526,0.34522,0.077255,0.14274,0.024625,0.055622,-1.5691e-4,0,0,0,0,-2.1978e-4,0.018108,6.2992,201.06,75.495,0.013757,NaN,11.673,953.28,338.37,0.05,0.089104
5.5112,518.73,137.61,14.095,141.16,15.296,87.544,0.015564,87.544,0.010187,31.487,5.943,28.61,-80.599,9.7906,0.17769,0,-0.0032189,-7.8463e-6,35173,6937.1,56.136,0.28592,103.8,89.512,2.2689,0.42031,32713555,1e3,134.01,0.56563,0.56568,0.34516,0.077499,0.14297,0.027697,0.062742,-4.2741e-4,0,0,0,0,-1.8201e-4,0.018206,6.2992,201.06,75.556,0.014074,NaN,11.628,952.52,338.35,0.05,0.091054
5.5612,525.63,138.31,14.118,141.92,15.261,89.125,0.016034,89.125,0.010308,31.781,5.7946,28.61,-80.599,9.7906,0.29258,0,-0.0027732,-6.0019e-6,35132,6896.4,56.096,0.2858,103.59,89.468,2.2425,0.42262,32873099,1e3,135.51,0.56608,0.56623,0.34509,0.077765,0.14322,0.045915,0.10268,-2.2473e-4,0,0,0,0,-1.3364e-4,0.018305,6.2992,201.06,75.61,0.014394,NaN,11.583,951.74,338.32,0.05,0.091487
5.6112,532.56,139.02,14.144,142.67,15.222,90.722,0.016512,90.722,0.010429,32.066,5.626,28.61,-80.599,9.7905,0.42544,0,-0.0020813,-6.1062e-6,35091,6855.6,56.056,0.28568,103.35,89.423,2.2115,0.42499,33037075,1e3,137.07,0.56654,0.56685,0.34502,0.078038,0.14348,0.067283,0.1489,-3.7584e-4,0,0,0,0,-7.4452e-5,0.018403,6.2992,201.06,75.654,0.014747,NaN,11.538,950.97,338.29,0.05,0.091864
5.6612,539.53,139.73,14.164,143.42,15.188,92.332,0.017,92.332,0.010549,32.344,5.4841,28.61,-80.599,9.7905,0.5347,0,-0.0011494,-5.735e-6,35051,6814.9,56.016,0.28556,103.16,89.379,2.1877,0.42734,3.32e7,1e3,138.64,0.567,0.5675,0.34495,0.078311,0.14374,0.085102,0.18588,-3.143e-4,0,0,0,0,-2.2459e-5,0.018501,6.2992,201.06,75.684,0.015165,NaN,11.493,950.19,338.26,0.05,0.092254
5.7112,546.54,140.44,14.176,144.17,15.159,93.956,0.017497,93.956,0.01067,32.616,5.3711,28.61,-80.599,9.7905,0.62148,0,-2.7195e-5,-4.5154e-6,35010,6774.2,55.976,0.28544,103.01,89.334,2.1707,0.4297,33362169,1e3,140.21,0.56747,0.56813,0.34488,0.078584,0.144,0.099413,0.21578,4.0156e-4,0,0,0,0,-1.2438e-8,0.018598,6.2992,201.06,75.695,0.015544,NaN,11.448,949.41,338.24,0.05,0.092606
5.7612,553.58,141.14,14.183,144.92,15.131,95.593,0.018003,95.593,0.01079,32.882,5.2732,28.61,-80.599,9.7905,0.7001,0,0.0012774,-3.9544e-6,34969,6733.4,55.936,0.28533,102.87,89.289,2.1562,0.43209,33526620,1e3,141.82,0.56794,0.56878,0.34481,0.07886,0.14427,0.1125,0.24251,3.7084e-4,0,0,0,0,2.7144e-5,0.018696,6.2992,201.06,75.684,0.015871,NaN,11.402,948.62,338.21,0.05,0.092956
5.8112,560.65,141.85,14.175,145.67,15.113,97.244,0.018519,97.244,0.010911,33.145,5.2393,28.61,-80.599,9.7905,0.73084,0,0.0026936,-3.1627e-6,34928,6692.7,55.895,0.28521,102.82,89.244,2.1552,0.43443,33687297,1e3,143.37,0.5684,0.56932,0.34474,0.079132,0.14453,0.11766,0.25386,4.3659e-4,0,0,0,0,1.1942e-4,0.018794,6.2992,201.06,75.648,0.016126,NaN,11.356,947.83,338.18,0.05,0.093299
5.8612,567.76,142.56,14.153,146.42,15.103,98.908,0.019044,98.908,0.011032,33.406,5.2693,28.61,-80.599,9.7904,0.71653,0,0.0041834,-2.5907e-6,34888,6651.9,55.855,0.28509,102.85,89.199,2.1669,0.43673,33844720,1e3,144.89,0.56886,0.56974,0.34467,0.079399,0.1448,0.11527,0.24913,-1.6957e-4,0,0,0,0,2.8507e-4,0.018891,6.2992,201.06,75.586,0.016299,NaN,11.31,947.04,338.15,0.05,0.093665
5.9112,574.91,143.27,14.078,147.17,15.132,100.58,0.01958,100.58,0.011153,33.677,5.5468,28.61,-80.599,9.7904,0.50447,0,0.0054328,-3.1918e-6,34847,6611.2,55.814,0.28497,103.23,89.154,2.2344,0.43868,33973720,1e3,146.04,0.56925,0.56969,0.34461,0.079624,0.14502,0.080194,0.179,-1.2079e-4,0,0,0,0,4.766e-4,0.018989,6.2992,201.06,75.499,0.016438,NaN,11.263,946.24,338.12,0.05,0.09401
5.9612,582.09,143.97,14.006,147.92,15.159,102.28,0.020126,102.28,0.011275,33.961,5.7988,28.61,-80.599,9.7904,0.31932,0,0.0062779,-3.0506e-6,34806,6570.5,55.774,0.28485,103.57,89.109,2.2955,0.4407,34108781,1e3,147.3,0.56965,0.56983,0.34454,0.07986,0.14525,0.050231,0.11514,2.7796e-5,0,0,0,0,6.3068e-4,0.019086,6.2992,201.06,75.393,0.016595,NaN,11.216,945.44,338.1,0.05,0.094464
6.0112,589.3,144.67,13.962,148.67,15.162,103.98,0.020682,103.98,0.011396,34.254,5.912,28.61,-80.599,9.7904,0.25737,0,0.0068728,-2.6346e-6,34765,6529.7,55.733,0.28473,103.69,89.064,2.3214,0.443,34264445,1e3,148.82,0.57011,0.57023,0.34447,0.080126,0.14551,0.040345,0.093231,1.8156e-4,0,0,0,0,7.4818e-4,0.019184,6.2992,201.06,75.274,0.016748,NaN,11.17,944.63,338.07,0.05,0.094805
6.0612,596.56,145.37,13.935,149.42,15.148,105.7,0.021249,105.7,0.011518,34.55,5.9387,28.61,-80.599,9.7903,0.27304,0,0.0074727,-4.5438e-6,34725,6489,55.692,0.28461,103.66,89.018,2.3245,0.44547,34433850,1e3,150.49,0.57061,0.57074,0.3444,0.080415,0.1458,0.042847,0.098917,-3.7719e-4,0,0,0,0,8.7482e-4,0.019282,6.2992,201.06,75.145,0.016918,NaN,11.122,943.82,338.04,0.05,0.095173
6.1112,603.84,146.07,13.877,150.17,15.16,107.44,0.021826,107.44,0.01164,34.851,6.104,28.61,-80.599,9.7903,0.17537,0,0.0079704,-3.6525e-6,34684,6448.2,55.651,0.28449,103.85,88.972,2.3611,0.44773,34585951,1e3,151.99,0.57106,0.57112,0.34432,0.080678,0.14606,0.027368,0.064047,4.8082e-6,0,0,0,0,9.8539e-4,0.019379,6.2992,201.06,75.006,0.017061,NaN,11.075,943.01,338.01,0.05,0.095514
6.1612,611.16,146.76,13.811,150.91,15.178,109.19,0.022414,109.19,0.011762,35.161,6.2962,28.61,-80.599,9.7903,0.057856,0,0.0082271,-5.4747e-6,34643,6407.5,55.61,0.28437,104.07,88.927,2.404,0.44996,34734953,1e3,153.48,0.57151,0.57152,0.34425,0.080936,0.14632,0.0089682,0.020137,1.7746e-4,0,0,0,0,0.0010397,0.019477,6.2992,201.06,74.86,0.017163,NaN,11.027,942.19,337.98,0.05,0.095851
6.2112,618.52,147.45,13.738,151.66,15.203,110.95,0.023012,110.95,0.011884,35.481,6.511,28.61,-80.599,9.7903,0.077115,0,-0.0082162,1.8554e-6,34602,6366.8,55.569,0.28425,104.04,88.881,2.406,0.45214,3.488e7,1e3,154.95,0.57195,0.57196,0.34419,0.081191,0.14658,0.011968,0.030109,-1.5149e-4,0,0,0,0,-0.0010272,0.019574,6.2992,201.06,74.711,0.017259,NaN,10.98,941.37,337.95,0.05,0.096341
6.2612,625.91,148.13,13.664,152.4,15.229,112.73,0.023622,112.73,0.012006,35.814,6.7254,28.61,-80.599,9.7903,0.20906,0,-0.0078114,2.6995e-6,34562,6326,55.528,0.28413,103.79,88.835,2.3744,0.4543,35024470,1e3,156.44,0.57239,0.57247,0.34412,0.081444,0.14683,0.0327,0.078206,3.3411e-4,0,0,0,0,-9.1976e-4,0.019671,6.2992,201.06,74.567,0.017331,NaN,10.932,940.54,337.92,0.05,0.096802
6.3112,633.33,148.82,13.663,153.14,15.188,114.53,0.024244,114.53,0.012128,36.147,6.6329,28.61,-80.599,9.7902,0.089486,0,-0.0074778,2.1627e-6,34521,6285.3,55.487,0.28401,104.02,88.789,2.4179,0.457,35209109,1e3,158.3,0.57294,0.57295,0.34403,0.081759,0.14715,0.013902,0.034712,-9.7245e-5,0,0,0,0,-8.331e-4,0.019769,6.2992,201.06,74.43,0.01737,NaN,10.883,939.71,337.89,0.05,0.097152
6.3612,640.79,149.5,13.623,153.89,15.182,116.35,0.024876,116.35,0.01225,36.48,6.7025,28.61,-80.599,9.7902,0.10547,0,-0.0072636,2.1272e-6,34480,6244.5,55.446,0.28389,103.99,88.743,2.421,0.4594,3.537e7,1e3,159.96,0.57343,0.57345,0.34395,0.082039,0.14744,0.016402,0.040461,4.6642e-4,0,0,0,0,-7.78e-4,0.019866,6.2992,201.06,74.297,0.017437,NaN,10.835,938.88,337.86,0.05,0.097491
6.4112,648.28,150.18,13.565,154.63,15.194,118.18,0.02552,118.18,0.012372,36.82,6.844,28.61,-80.599,9.7902,0.18048,0,-0.0068766,1.4742e-6,34439,6203.8,55.404,0.28378,103.86,88.697,2.4065,0.46165,35519333,1e3,161.52,0.57389,0.57394,0.34388,0.082302,0.14771,0.028192,0.068444,-3.7716e-4,0,0,0,0,-6.9065e-4,0.019963,6.2992,201.06,74.169,0.017398,NaN,10.786,938.04,337.84,0.05,0.097819
6.4612,655.81,150.86,13.554,155.37,15.162,120.03,0.026175,120.03,0.012495,37.161,6.796,28.61,-80.599,9.7902,0.10596,0,-0.0065222,5.4898e-6,34399,6163.1,55.363,0.28366,104,88.65,2.4366,0.46422,35693029,1e3,163.32,0.57441,0.57443,0.3438,0.082603,0.14801,0.016483,0.040596,3.0287e-4,0,0,0,0,-6.1455e-4,0.02006,6.2992,201.06,74.049,0.017354,NaN,10.737,937.2,337.81,0.05,0.098149
6.5112,663.37,151.53,13.53,156.11,15.143,121.9,0.026842,121.9,0.012617,37.5,6.7999,28.61,-80.599,9.7901,0.07522,0,-0.0063227,9.1084e-6,34358,6122.3,55.321,0.28354,104.06,88.604,2.4538,0.46668,35858280,1e3,165.05,0.57492,0.57493,0.34372,0.082891,0.14831,0.011681,0.029195,-4.7328e-4,0,0,0,0,-5.7154e-4,0.020157,6.2992,201.06,73.934,0.017285,NaN,10.688,936.36,337.78,0.05,0.0985
