# Time (s),Altitude (m),Vertical velocity (m/s),Vertical acceleration (m/s²),Total velocity (m/s),Total acceleration (m/s²),Position East of launch (m),Position North of launch (m),Lateral distance (m),Lateral direction (°),Lateral velocity (m/s),Lateral acceleration (m/s²),Latitude (°),Longitude (°),Gravitational acceleration (m/s²),Angle of attack (°),Roll rate (r/s),Pitch rate (r/s),Yaw rate (r/s),Mass (g),Propellant mass (g),Longitudinal moment of inertia (kg·m²),Rotational moment of inertia (kg·m²),CP location (in),CG location (in),Stability margin calibers (​),Mach number (​),Reynolds number (​),Thrust (N),Drag force (N),Drag coefficient (​),Axial drag coefficient (​),Friction drag coefficient (​),Pressure drag coefficient (​),Base drag coefficient (​),Normal force coefficient (​),Pitch moment coefficient (​),Yaw moment coefficient (​),Side force coefficient (​),Roll moment coefficient (​),Roll forcing coefficient (​),Roll damping coefficient (​),Pitch damping coefficient (​),Coriolis acceleration (m/s²),Reference length (in),Reference area (cm²),Vertical orientation (zenith) (°),Lateral orientation (azimuth) (°),Wind velocity (m/s),Air temperature (°C),Air pressure (mbar),Speed of sound (m/s),Simulation time step (s),Computation time (s)
0,0,0,-5.6763,0,5.7075,0,0,0,0,0,0.5966,28.61,-80.6,9.7922,84,0,0,0,40581,12346,60.972,0.31372,NaN,94.756,NaN,0.0063746,519873,163.58,1.0311e-4,0.65636,0.0017783,0.49415,0.042202,0.12001,NaN,NaN,NaN,NaN,NaN,NaN,NaN,NaN,0,6.2992,201.06,84,0,NaN,15,1013.2,340.39,0.01,0.0056162
0.01,0,0,61.573,0,61.913,0,0,0,0,0,6.4716,28.61,-80.6,9.7922,84,0,0,0,40581,12346,60.972,0.31372,NaN,94.756,NaN,0.0064302,524412,2907.7,1.0477e-4,0.65545,0.0017758,0.49324,0.042202,0.12001,NaN,NaN,NaN,NaN,NaN,NaN,NaN,NaN,0,6.2992,201.06,84,0,NaN,15,1013.2,340.39,0.01,0.0067754
0.02,0.0030793,0.6159,90.45,0.61929,90.949,3.2365e-4,0,3.2365e-4,0,0.064734,9.5067,28.61,-80.6,9.7922,68.835,0,0,0,40570,12334,60.962,0.31362,NaN,94.746,NaN,0.0069169,564103,4084.9,0.0043863,0.64791,0.064253,0.4857,0.042202,0.12001,NaN,NaN,NaN,NaN,NaN,NaN,NaN,NaN,7.942e-5,6.2992,201.06,84,0,NaN,15,1013.2,340.39,0.01,0.0069733
0.03,0.013763,1.5208,89.063,1.5292,89.553,0.0014465,0,0.0014465,0,0.15985,9.3609,28.61,-80.6,9.7922,51.492,0,0,0,40549,12313,60.944,0.31341,NaN,94.727,NaN,0.0083137,678020,4026.2,0.028646,0.62965,0.29046,0.46744,0.042203,0.12001,NaN,NaN,NaN,NaN,NaN,NaN,NaN,NaN,1.9611e-4,6.2992,201.06,84,0,NaN,15,1013.2,340.39,0.01,0.0071587
0.04,0.033426,2.4119,88.814,2.4252,89.304,0.0035132,0,0.0035132,0,0.2535,9.3348,28.61,-80.6,9.7922,40.017,0,0,0,40525,12290,60.923,0.31317,NaN,94.706,NaN,0.010204,832142,4013.8,0.073645,0.61051,0.49575,0.4483,0.042203,0.12001,NaN,NaN,NaN,NaN,NaN,NaN,NaN,NaN,3.1102e-4,6.2992,201.06,84,0,NaN,15,1013.2,340.39,0.01,0.0075177
0.05,0.061988,3.3005,89.02,3.3187,89.51,0.0065152,0,0.0065152,0,0.3469,9.3564,28.61,-80.6,9.7922,32.352,0,0,0,40502,12266,60.903,0.31293,NaN,94.685,NaN,0.012364,1008368,4019.9,0.13521,0.59361,0.61982,0.43139,0.042205,0.12002,NaN,NaN,NaN,NaN,NaN,NaN,NaN,NaN,4.256e-4,6.2992,201.06,84,0,NaN,15,1013.2,340.39,0.01,0.007683
0.06,0.099446,4.1912,89.946,4.2143,90.441,0.010452,0,0.010452,0,0.44051,9.4537,28.61,-80.6,9.7922,27.095,0,0,0,40479,12243,60.882,0.31269,NaN,94.664,NaN,0.014697,1198633,4055.4,0.21011,0.57921,0.68168,0.41698,0.042206,0.12003,NaN,NaN,NaN,NaN,NaN,NaN,NaN,NaN,5.4045e-4,6.2992,201.06,84,0,NaN,14.999,1013.2,340.39,0.01,0.0080697
0.07,0.14586,5.0911,91.048,5.1192,91.55,0.01533,0,0.01533,0,0.5351,9.5696,28.61,-80.6,9.7922,23.265,0,0,0,40455,12220,60.861,0.31245,NaN,94.643,NaN,0.017145,1398247,4098,0.297,0.56698,0.7081,0.40473,0.042208,0.12004,NaN,NaN,NaN,NaN,NaN,NaN,NaN,NaN,6.565e-4,6.2992,201.06,84,0,NaN,14.999,1013.2,340.39,0.01,0.0083698
0.08,0.20132,6.0021,92.152,6.0352,92.66,0.02116,0,0.02116,0,0.63085,9.6856,28.61,-80.6,9.7922,20.369,0,0,0,40432,12196,60.84,0.31221,NaN,94.622,NaN,0.019681,1605028,4140.5,0.39501,0.55648,0.71474,0.39422,0.04221,0.12005,NaN,NaN,NaN,NaN,NaN,NaN,NaN,NaN,7.7396e-4,6.2992,201.06,84,0,NaN,14.999,1013.2,340.39,0.01,0.0086006
0.09,0.26595,6.9241,93.09,6.9622,93.603,0.027953,0,0.027953,0,0.72775,9.7841,28.61,-80.6,9.7922,18.111,0,0,0,40408,12173,60.82,0.31197,NaN,94.6,NaN,0.022286,1817496,4176.3,0.50359,0.54737,0.71061,0.38509,0.042212,0.12006,NaN,NaN,NaN,NaN,NaN,NaN,NaN,NaN,8.9286e-4,6.2992,201.06,84,0,NaN,14.998,1013.2,340.39,0.01,0.0087941
0.1,0.33985,7.8555,93.041,7.8987,93.553,0.03572,0,0.03572,0,0.82564,9.779,28.61,-80.6,9.7922,16.311,0,0,0,40385,12149,60.799,0.31173,NaN,94.579,NaN,0.024946,2034359,4172,0.62189,0.53938,0.70042,0.37709,0.042215,0.12008,NaN,NaN,NaN,NaN,NaN,NaN,NaN,NaN,0.001013,6.2992,201.06,84,0,NaN,14.998,1013.2,340.39,0.01,0.0089589
0.11,0.42306,8.7864,93.329,8.8348,93.843,0.044465,0,0.044465,0,0.92348,9.8093,28.61,-80.6,9.7922,14.493,0,0,0,40361,12125,60.778,0.31148,NaN,94.557,NaN,0.027557,2247293,4181.4,0.7399,0.53254,0.6829,0.37022,0.042217,0.1201,NaN,NaN,NaN,NaN,NaN,NaN,NaN,NaN,0.001133,6.2992,201.06,84,0,NaN,14.997,1013.2,340.39,0.01,0.0091216
0.12,0.51559,9.7202,93.862,9.7737,94.379,0.054191,0,0.054191,0,1.0216,9.8653,28.61,-80.6,9.7922,12.987,0,0,0,40337,12101,60.757,0.31124,NaN,94.535,NaN,0.030199,2462772,4200.7,0.86152,0.52641,0.66208,0.36407,0.04222,0.12012,NaN,NaN,NaN,NaN,NaN,NaN,NaN,NaN,0.0012534,6.2992,201.06,84,0,NaN,14.997,1013.2,340.39,0.01,0.0092807
0.13,0.61749,10.659,94.396,10.718,94.916,0.064901,0,0.064901,0,1.1203,9.9215,28.61,-80.6,9.7922,11.718,0,0,0,40313,12077,60.735,0.31099,NaN,94.514,NaN,0.032875,2680931,4220,0.98879,0.52086,0.64125,0.3585,0.042224,0.12014,NaN,NaN,NaN,NaN,NaN,NaN,NaN,NaN,0.0013745,6.2992,201.06,84,0,NaN,14.996,1013.2,340.39,0.01,0.0094388
0.14,0.7288,11.604,94.931,11.668,95.454,0.0766,0,0.0766,0,1.2196,9.9776,28.61,-80.6,9.7922,10.637,0,0,0,40289,12054,60.714,0.31075,NaN,94.492,NaN,0.035579,2901466,4239.3,1.1229,0.51582,0.62175,0.35343,0.042228,0.12016,NaN,NaN,NaN,NaN,NaN,NaN,NaN,NaN,0.0014963,6.2992,201.06,84,0,NaN,14.995,1013.2,340.39,0.01,0.009641
0.15,0.84959,12.554,95.466,12.623,95.992,0.089295,0,0.089295,0,1.3194,10.034,28.61,-80.6,9.7922,9.7039,0,0,0,40265,12030,60.693,0.3105,NaN,94.47,NaN,0.03831,3124152,4258.5,1.2712,0.51374,0.60706,0.35132,0.042231,0.12019,NaN,NaN,NaN,NaN,NaN,NaN,NaN,NaN,0.0016188,6.2992,201.06,84,0,NaN,14.994,1013.2,340.39,0.01,0.009988
0.16,0.9799,13.509,96.001,13.583,96.529,0.10299,0,0.10299,0,1.4198,10.09,28.61,-80.6,9.7922,9.0208,0,0,0,40241,12006,60.672,0.31025,NaN,94.448,NaN,0.041091,3350831,4277.8,1.4403,0.51376,0.5979,0.35131,0.042236,0.12022,NaN,NaN,NaN,NaN,NaN,NaN,NaN,NaN,0.0017419,6.2992,201.06,84,0,NaN,14.994,1013.1,340.39,0.01,0.010424
0.17,1.1198,14.469,96.536,14.549,97.068,0.11769,0,0.11769,0,1.5208,10.146,28.61,-80.6,9.7922,8.4213,0,0,0,40218,11982,60.65,0.31001,NaN,94.426,NaN,0.043891,3579194,4297.1,1.621,0.51379,0.58979,0.3513,0.04224,0.12025,NaN,NaN,NaN,NaN,NaN,NaN,NaN,NaN,0.0018658,6.2992,201.06,84,0,NaN,14.993,1013.1,340.38,0.01,0.010757
0.18,1.2693,15.435,96.918,15.52,97.452,0.13341,0,0.13341,0,1.6223,10.186,28.61,-80.6,9.7922,7.8911,0,0,0,40194,11958,60.629,0.30976,NaN,94.405,NaN,0.046712,3809172,4310.2,1.8137,0.51382,0.58263,0.35129,0.042245,0.12028,NaN,NaN,NaN,NaN,NaN,NaN,NaN,NaN,0.0019903,6.2992,201.06,84,0,NaN,14.992,1013.1,340.38,0.01,0.011123
0.19,1.4285,16.405,96.681,16.495,97.214,0.15014,0,0.15014,0,1.7242,10.162,28.61,-80.6,9.7922,7.4197,0,0,0,40170,11934,60.607,0.30952,NaN,94.383,NaN,0.049548,4040343,4298.3,2.0185,0.51385,0.57631,0.35128,0.042251,0.12032,NaN,NaN,NaN,NaN,NaN,NaN,NaN,NaN,0.0021154,6.2992,201.06,84,0,NaN,14.991,1013.1,340.38,0.01,0.011438
0.2,1.5974,17.372,96.822,17.468,97.356,0.16789,0,0.16789,0,1.8259,10.176,28.61,-80.6,9.7922,7.0002,0,0,0,40146,11910,60.586,0.30927,NaN,94.361,NaN,0.052379,4271184,4301.6,2.2341,0.51389,0.57078,0.35127,0.042259,0.12036,NaN,NaN,NaN,NaN,NaN,NaN,NaN,NaN,0.0022401,6.2992,201.06,84,0,NaN,14.99,1013.1,340.38,0.01,0.011746
0.21,1.776,18.341,97.179,18.442,97.715,0.18666,0,0.18666,0,1.9277,10.214,28.61,-80.6,9.7922,6.6391,0,0,0,40122,11886,60.565,0.30902,NaN,94.339,NaN,0.055221,4502835,4313.7,2.4626,0.51392,0.5661,0.35126,0.042267,0.1204,NaN,NaN,NaN,NaN,NaN,NaN,NaN,NaN,0.002365,6.2992,201.06,84,0,NaN,14.988,1013,340.38,0.01,0.012057
0.22,1.9642,19.313,97.537,19.419,98.074,0.20645,0,0.20645,0,2.0299,10.252,28.61,-80.6,9.7922,6.3121,0,0,0,40098,11862,60.543,0.30878,NaN,94.316,NaN,0.058075,4735493,4325.8,2.7038,0.51396,0.56195,0.35125,0.042276,0.12044,NaN,NaN,NaN,NaN,NaN,NaN,NaN,NaN,0.0024904,6.2992,201.06,84,0,NaN,14.987,1013,340.38,0.01,0.012362
0.23,2.1622,20.289,97.894,20.401,98.433,0.22726,0,0.22726,0,2.1325,10.289,28.61,-80.6,9.7922,6.0148,0,0,0,40074,11838,60.522,0.30853,NaN,94.294,NaN,0.060942,4969137,4337.9,2.9576,0.51401,0.55826,0.35124,0.042285,0.12048,NaN,NaN,NaN,NaN,NaN,NaN,NaN,NaN,0.0026162,6.2992,201.06,84,0,NaN,14.986,1013,340.38,0.01,0.012666
0.24,2.37,21.268,98.252,21.386,98.793,0.2491,0,0.2491,0,2.2354,10.327,28.61,-80.6,9.7922,5.7432,0,0,0,40050,11814,60.5,0.30828,NaN,94.272,NaN,0.06382,5203748,4349.9,3.2244,0.51405,0.55496,0.35122,0.042295,0.12053,NaN,NaN,NaN,NaN,NaN,NaN,NaN,NaN,0.0027425,6.2992,201.06,84,0,NaN,14.985,1013,340.38,0.01,0.012972
0.25,2.5876,22.251,98.609,22.374,99.153,0.27197,0,0.27197,0,2.3387,10.364,28.61,-80.6,9.7922,5.4942,0,0,0,40026,11791,60.478,0.30804,NaN,94.25,NaN,0.06671,5439313,4362,3.5042,0.51409,0.55201,0.35121,0.042305,0.12058,NaN,NaN,NaN,NaN,NaN,NaN,NaN,NaN,0.0028693,6.2992,201.06,84,0,NaN,14.983,1012.9,340.38,0.01,0.013802
0.26,2.8151,23.238,98.967,23.366,99.512,0.29588,0,0.29588,0,2.4424,10.402,28.61,-80.6,9.7922,5.2936,0,0,0,40002,11767,60.457,0.30779,NaN,94.228,NaN,0.069619,5676380,4374.1,3.8004,0.51414,0.5497,0.3512,0.042315,0.12063,NaN,NaN,NaN,NaN,NaN,NaN,NaN,NaN,0.0029965,6.2992,201.06,84,0,NaN,14.982,1012.9,340.38,0.01,0.01414
0.27,3.0524,24.228,99.325,24.362,99.872,0.32082,0,0.32082,0,2.5465,10.439,28.61,-80.6,9.7922,5.1083,0,0,0,39978,11743,60.435,0.30754,NaN,94.206,NaN,0.07254,5914357,4386.2,4.1101,0.51419,0.54761,0.35118,0.042325,0.12068,NaN,NaN,NaN,NaN,NaN,NaN,NaN,NaN,0.0031242,6.2992,201.06,84,0,NaN,14.98,1012.9,340.38,0.01,0.014469
0.28,3.2996,25.222,99.683,25.361,100.23,0.34681,0,0.34681,0,2.6509,10.477,28.61,-80.6,9.7922,4.9367,0,0,0,39954,11719,60.414,0.3073,NaN,94.184,NaN,0.075471,6153237,4398.3,4.4335,0.51424,0.54572,0.35117,0.042336,0.12074,NaN,NaN,NaN,NaN,NaN,NaN,NaN,NaN,0.0032523,6.2992,201.06,84,0,NaN,14.979,1012.9,340.38,0.01,0.014842
0.29,3.5569,26.219,100.04,26.364,100.59,0.37384,0,0.37384,0,2.7558,10.515,28.61,-80.6,9.7922,4.7773,0,0,0,39930,11695,60.392,0.30705,NaN,94.161,NaN,0.078414,6393013,4410.3,4.7708,0.5143,0.544,0.35115,0.042348,0.1208,NaN,NaN,NaN,NaN,NaN,NaN,NaN,NaN,0.003381,6.2992,201.06,84,0,NaN,14.977,1012.8,340.37,0.01,0.015155
0.3,3.824,27.22,100.39,27.37,100.95,0.40192,0,0.40192,0,2.861,10.552,28.61,-80.6,9.7922,4.6288,0,0,0,39907,11671,60.37,0.3068,NaN,94.139,NaN,0.081367,6633679,4422.2,5.1221,0.51436,0.54245,0.35114,0.042359,0.12086,NaN,NaN,NaN,NaN,NaN,NaN,NaN,NaN,0.00351,6.2992,201.06,84,0,NaN,14.975,1012.8,340.37,0.01,0.015476
0.31,4.1013,28.225,100.74,28.38,101.29,0.43106,0,0.43106,0,2.9665,10.588,28.61,-80.6,9.7922,4.4816,0,0,0,39883,11647,60.348,0.30656,NaN,94.117,NaN,0.08433,6875028,4433.7,5.4864,0.51441,0.54093,0.35112,0.042371,0.12092,NaN,NaN,NaN,NaN,NaN,NaN,NaN,NaN,0.0036395,6.2992,201.06,84,0,NaN,14.973,1012.8,340.37,0.01,0.01581
0.32,4.3886,29.232,101.08,29.394,101.64,0.46126,0,0.46126,0,3.0725,10.624,28.61,-80.6,9.7922,4.344,0,0,0,39859,11623,60.327,0.30631,NaN,94.094,NaN,0.087303,7117234,4445.3,5.8649,0.51447,0.53956,0.3511,0.042384,0.12099,NaN,NaN,NaN,NaN,NaN,NaN,NaN,NaN,0.0037695,6.2992,201.06,84,0,NaN,14.971,1012.7,340.37,0.01,0.016121
0.33,4.6859,30.244,101.43,30.41,101.99,0.49251,0,0.49251,0,3.1788,10.661,28.61,-80.6,9.7922,4.2149,0,0,0,39835,11599,60.305,0.30606,NaN,94.072,NaN,0.090287,7360292,4456.9,6.2578,0.51454,0.5383,0.35108,0.042396,0.12106,NaN,NaN,NaN,NaN,NaN,NaN,NaN,NaN,0.0038999,6.2992,201.06,84,0,NaN,14.97,1012.7,340.37,0.01,0.016438
0.34,4.9935,31.259,101.61,31.431,102.25,0.52483,0,0.52483,0,3.2854,11.461,28.61,-80.6,9.7922,4.0936,0,0,0,39811,11575,60.283,0.30581,97.605,94.05,0.56449,0.093281,7604199,4462.1,6.6652,0.5146,0.53715,0.35106,0.04241,0.12113,0.7772,0.43835,-1.2514e-4,0,0,0,0,0,0.0040308,6.2992,201.06,84,0,NaN,14.968,1012.7,340.37,0.015,0.01682
0.355,5.4738,32.783,101.12,32.965,101.76,0.5754,2.6248e-8,0.5754,2.6136e-6,3.4572,11.4,28.61,-80.6,9.7922,3.914,0,3.6567e-5,1.4352e-8,39781,11545,60.256,0.30551,97.829,94.022,0.60447,0.097776,7970283,4442.7,7.3001,0.5147,0.53549,0.35103,0.04243,0.12124,0.7368,0.44552,-1.5577e-4,0,0,0,0,4.289e-7,0.0042275,6.2992,201.06,84,-5.27e-7,NaN,14.964,1012.6,340.37,0.0225,0.017609
0.3775,6.237,35.06,101.38,35.256,102.02,0.65608,1.6805e-7,0.65608,1.4676e-5,3.7139,11.419,28.61,-80.6,9.7922,3.5867,0,9.9033e-5,5.8042e-8,39736,11500,60.215,0.30505,98.247,93.98,0.67748,0.10447,8515101,4451.1,8.2945,0.51531,0.53305,0.35098,0.042903,0.12142,0.66466,0.44983,2.3449e-4,0,0,0,0,2.7559e-6,0.0045215,6.2992,201.06,83.999,-3.1427e-6,NaN,14.959,1012.5,340.36,0.03375,0.018079
0.41125,7.4781,38.488,101.8,38.705,102.44,0.78793,6.279e-7,0.78793,4.5659e-5,4.0997,11.447,28.61,-80.6,9.7922,3.2549,0,2.0938e-4,5.6875e-8,39669,11434,60.154,0.30436,98.686,93.917,0.75717,0.11457,9337764,4461.6,9.9452,0.51657,0.53143,0.35091,0.043953,0.12171,0.59349,0.4491,-3.2346e-4,0,0,0,0,1.0242e-5,0.0049639,6.2992,201.06,83.998,-9.0022e-6,NaN,14.951,1012.4,340.36,0.05,0.018415
0.46125,9.53,43.589,102.28,43.839,102.92,1.0072,1.9074e-6,1.0072,1.085e-4,4.6722,11.458,28.61,-80.6,9.7921,3.0241,0,4.1375e-4,6.4522e-8,39571,11335,60.063,0.30335,99.004,93.824,0.82238,0.12968,10567208,4470.6,12.74,0.51849,0.53151,0.35078,0.04553,0.12219,0.54519,0.44823,-3.8624e-4,0,0,0,0,3.1218e-5,0.0056224,6.2992,201.06,83.992,-1.6975e-5,NaN,14.938,1012.1,340.35,0.05,0.018722
0.51125,11.838,48.715,102.11,48.997,102.74,1.2552,3.9795e-6,1.2552,1.8165e-4,5.2461,11.434,28.61,-80.6,9.7921,2.6417,0,6.6661e-4,1.957e-7,39453,11218,59.955,0.30214,99.544,93.713,0.92575,0.14479,11795876,4453.6,15.85,0.52047,0.53061,0.35063,0.047115,0.12273,0.46722,0.43239,5.5408e-6,0,0,0,0,6.5013e-5,0.006284,6.2992,201.06,83.982,-4.1353e-5,NaN,14.923,1011.9,340.34,0.05,0.019243
0.56125,14.401,53.832,100.12,54.146,100.74,1.5318,6.9258e-6,1.5318,2.5905e-4,5.8191,11.226,28.61,-80.6,9.7921,2.3498,0,9.6582e-4,1.2787e-7,39337,11102,59.847,0.30095,99.973,93.602,1.0114,0.15988,13022902,4365.3,19.323,0.5225,0.53066,0.35047,0.048708,0.12332,0.4095,0.41403,-4.7914e-4,0,0,0,0,1.1192e-4,0.0069445,6.2992,201.06,83.968,-6.4022e-5,NaN,14.906,1011.6,340.33,0.05,0.019571
0.61125,17.218,58.849,98.42,59.194,99.038,1.8368,1.0821e-5,1.8368,3.3754e-4,6.3816,11.05,28.61,-80.6,9.7921,2.1649,0,0.001314,2.2386e-7,39224,10988,59.741,0.29979,100.25,93.493,1.0734,0.17472,14227522,4289.7,23.106,0.52454,0.53155,0.3503,0.05028,0.12397,0.37375,0.40075,4.9148e-4,0,0,0,0,1.735e-4,0.007592,6.2992,201.06,83.947,-9.0139e-5,NaN,14.888,1011.2,340.32,0.05,0.019899
0.66125,20.284,63.78,86.487,64.156,87.04,2.1697,1.5744e-5,2.1697,4.1574e-4,6.9354,9.7898,28.61,-80.6,9.7921,2.0329,0,0.0017148,2.2326e-7,39114,10878,59.637,0.29867,100.46,93.387,1.1232,0.18931,15412074,3812.5,27.184,0.5266,0.53284,0.35011,0.051836,0.12466,0.34861,0.39126,1.4423e-4,0,0,0,0,2.5168e-4,0.0082285,6.2992,201.06,83.92,-1.0502e-4,NaN,14.868,1010.9,340.31,0.05,0.020217
0.71125,23.581,68.112,26.325,68.516,26.54,2.5288,2.1766e-5,2.5288,4.9317e-4,7.4262,3.3678,28.61,-80.6,9.7921,1.9275,0,0.0021686,2.2243e-7,39012,10777,59.542,0.29766,100.63,93.289,1.1655,0.20214,16451967,1446.1,31.056,0.52845,0.53411,0.34993,0.053209,0.12531,0.32878,0.38306,-1.1806e-4,0,0,0,0,3.5309e-4,0.0087877,6.2992,201.06,83.885,-1.1731e-4,NaN,14.847,1010.5,340.3,0.05,0.020528
0.76125,27.02,69.43,9.5678,69.844,9.6971,2.9043,2.8964e-5,2.9043,5.7139e-4,7.5953,1.5788,28.61,-80.6,9.7921,1.8878,0,0.0026526,1.1954e-7,38946,10710,59.48,0.29705,100.69,93.225,1.1858,0.20607,16766120,788.58,32.281,0.52903,0.53446,0.34988,0.053631,0.12552,0.32136,0.38099,-3.6744e-4,0,0,0,0,5.0839e-4,0.0089582,6.2992,201.06,83.842,-1.2593e-4,NaN,14.824,1010.1,340.28,0.05,0.020847
0.81125,30.503,69.909,10.789,70.329,10.924,3.286,3.7375e-5,3.286,6.5168e-4,7.6741,1.7134,28.61,-80.6,9.7921,1.9169,0,0.0031551,1.2092e-7,38915,10680,59.454,0.29687,100.65,93.196,1.1832,0.20754,16880681,836.25,32.754,0.52924,0.53484,0.34985,0.053789,0.1256,0.32682,0.38623,-4.6406e-4,0,0,0,0,7.0916e-4,0.0090205,6.2992,201.06,83.79,-1.1049e-4,NaN,14.802,1009.7,340.27,0.05,0.021201
0.86125,34.012,70.449,12.061,70.875,12.209,3.6719,4.7009e-5,3.6719,7.3353e-4,7.7609,1.8971,28.61,-80.6,9.7921,1.8178,0,0.0036561,2.7161e-7,38895,10659,59.438,0.29681,100.8,93.178,1.2106,0.20913,17004834,886.25,33.225,0.52948,0.53454,0.34983,0.05396,0.12569,0.30832,0.37253,4.8796e-4,0,0,0,0,9.379e-4,0.0090906,6.2992,201.06,83.728,-9.1031e-5,NaN,14.779,1009.3,340.25,0.05,0.021874
0.91125,37.55,71.052,13.333,71.485,13.494,4.0623,5.7871e-5,4.0623,8.1622e-4,7.8567,2.0795,28.61,-80.6,9.7921,1.7429,0,0.0041496,4.6599e-7,38875,10639,59.421,0.29675,100.92,93.16,1.2322,0.21092,17145614,936.25,33.776,0.52974,0.53441,0.3498,0.054153,0.12578,0.29444,0.36165,3.1128e-4,0,0,0,0,0.0011878,0.0091689,6.2992,201.06,83.658,-7.1052e-5,NaN,14.756,1008.8,340.24,0.05,0.02213
0.96125,41.119,71.718,14.57,72.159,14.747,4.4578,6.9965e-5,4.4578,8.9926e-4,7.962,2.2734,28.61,-80.6,9.7921,1.64,0,0.0046351,6.9577e-7,38854,10619,59.405,0.29669,101.09,93.142,1.2611,0.2129,17300778,984.98,34.383,0.53003,0.53419,0.34978,0.054366,0.12589,0.27554,0.3463,-4.2749e-4,0,0,0,0,0.0014547,0.0092555,6.2992,201.06,83.579,-7.2664e-5,NaN,14.733,1008.4,340.23,0.05,0.02238
1.0113,44.723,72.447,14.944,72.896,15.134,4.8588,8.3294e-5,4.8588,9.8223e-4,8.0776,2.3925,28.61,-80.6,9.792,1.4836,0,0.0050989,9.7259e-7,38832,10596,59.387,0.29663,101.34,93.122,1.3042,0.21503,17468785,1e3,35.034,0.53035,0.53377,0.34974,0.054596,0.12601,0.24718,0.32086,3.1516e-4,0,0,0,0,0.0017258,0.0093502,6.2992,201.06,83.491,-9.4031e-5,NaN,14.709,1008,340.21,0.05,0.022578
1.0613,48.364,73.194,14.94,73.652,15.141,5.2657,9.7861e-5,5.2657,0.0010648,8.1988,2.4542,28.61,-80.6,9.792,1.3894,0,0.0055439,9.891e-7,38799,10563,59.36,0.29653,101.49,93.092,1.3334,0.21726,17644212,1e3,35.744,0.53068,0.5337,0.34971,0.054836,0.12614,0.23031,0.30545,2.2799e-4,0,0,0,0,0.0019986,0.0094474,6.2992,201.06,83.395,-1.0562e-4,NaN,14.686,1007.6,340.2,0.05,0.022873
1.1113,52.042,73.942,14.941,74.409,15.152,5.6787,1.1367e-4,5.6787,0.0011469,8.3231,2.5186,28.61,-80.6,9.792,1.3015,0,0.0059773,8.1123e-7,38758,10522,59.327,0.29641,101.64,93.056,1.3623,0.2195,1.782e7,1e3,36.466,0.53102,0.53367,0.34968,0.055077,0.12626,0.21472,0.28985,1.8162e-5,0,0,0,0,0.0022765,0.0095446,6.2992,201.06,83.292,-7.8474e-5,NaN,14.662,1007.1,340.18,0.05,0.023051
1.1613,55.758,74.689,14.941,75.166,15.164,6.098,1.3073e-4,6.098,0.0012283,8.4509,2.5916,28.61,-80.6,9.792,1.1994,0,0.0063933,1.0006e-6,38717,10482,59.294,0.29629,101.81,93.019,1.3951,0.22173,17995591,1e3,37.192,0.53135,0.53362,0.34964,0.055318,0.12639,0.19678,0.27164,8.9709e-6,0,0,0,0,0.0025524,0.0096419,6.2992,201.06,83.18,-6.4095e-6,NaN,14.638,1006.7,340.17,0.05,0.023217
1.2113,59.511,75.437,14.941,75.923,15.174,6.5238,1.4907e-4,6.5238,0.0013092,8.5821,2.6479,28.61,-80.6,9.792,1.1622,0,0.0067985,1.2388e-6,38676,10441,59.261,0.29617,101.87,92.983,1.4111,0.22401,18174165,1e3,37.957,0.53169,0.53383,0.3496,0.055564,0.12652,0.19029,0.26606,2.3139e-4,0,0,0,0,0.0028281,0.0097393,6.2992,201.06,83.062,5.553e-5,NaN,14.613,1006.3,340.15,0.05,0.023456
1.2613,63.302,76.184,14.941,76.681,15.183,6.9563,1.6871e-4,6.9563,0.0013896,8.7156,2.7002,28.61,-80.6,9.792,1.1479,0,0.0072122,1.3091e-6,38636,10400,59.228,0.29605,101.9,92.946,1.421,0.2263,18354095,1e3,38.742,0.53204,0.53412,0.34957,0.055812,0.12666,0.1878,0.2637,-4.7083e-4,0,0,0,0,0.0031189,0.0098367,6.2992,201.06,82.936,1.2645e-4,NaN,14.589,1005.8,340.14,0.05,0.023641
1.3113,67.13,76.932,14.936,77.439,15.198,7.3955,1.8966e-4,7.3955,0.0014694,8.8533,2.806,28.61,-80.6,9.792,0.98166,0,0.0076026,1.7111e-6,38595,10359,59.194,0.29594,102.18,92.909,1.4717,0.22851,18527227,1e3,39.47,0.53237,0.53391,0.34953,0.056051,0.12679,0.15914,0.2306,4.4698e-4,0,0,0,0,0.0033992,0.0099342,6.2992,201.06,82.802,1.9915e-4,NaN,14.564,1005.4,340.12,0.05,0.023808
1.3613,70.995,77.679,14.93,78.198,15.212,7.8417,2.1196e-4,7.8417,0.0015487,8.9963,2.9144,28.61,-80.6,9.792,0.81972,0,0.0079474,2.3317e-6,38554,10319,59.161,0.29582,102.46,92.872,1.522,0.23073,18700619,1e3,40.212,0.53271,0.53379,0.3495,0.056291,0.12692,0.13169,0.19684,-7.8952e-5,0,0,0,0,0.0036438,0.010032,6.2992,201.06,82.662,2.7979e-4,NaN,14.539,1004.9,340.11,0.05,0.023982
1.4113,74.898,78.425,14.923,78.957,15.227,8.2952,2.3564e-4,8.2952,0.0016276,9.1449,3.0238,28.61,-80.6,9.7919,0.66526,0,0.0082387,2.9236e-6,38514,10278,59.128,0.2957,102.73,92.835,1.5712,0.23295,18874374,1e3,40.97,0.53305,0.53376,0.34946,0.056532,0.12705,0.10595,0.16244,4.1896e-5,0,0,0,0,0.0038418,0.010129,6.2992,201.06,82.516,3.6915e-4,NaN,14.513,1004.5,340.09,0.05,0.024144
1.4613,78.837,79.172,14.918,79.716,15.239,8.7563,2.6072e-4,8.7563,0.001706,9.2983,3.1123,28.61,-80.6,9.7919,0.58332,0,0.0084965,3.6373e-6,38473,10237,59.094,0.29558,102.88,92.798,1.6004,0.23522,19051588,1e3,41.767,0.5334,0.53395,0.34942,0.056778,0.12719,0.092476,0.14446,4.0873e-4,0,0,0,0,0.0040079,0.010227,6.2992,201.06,82.366,4.6818e-4,NaN,14.488,1004,340.08,0.05,0.024305
1.5113,82.815,79.918,14.91,80.476,15.253,9.2251,2.8724e-4,9.2251,0.001784,9.4565,3.215,28.61,-80.6,9.7919,0.46706,0,0.0087197,4.8088e-6,38432,10196,59.061,0.29546,103.09,92.761,1.6398,0.23747,19227184,1e3,42.562,0.53374,0.5341,0.34939,0.057023,0.12733,0.073556,0.11644,-1.5509e-4,0,0,0,0,0.004142,0.010325,6.2992,201.06,82.211,5.8098e-4,NaN,14.462,1003.5,340.06,0.05,0.024538
1.5613,86.829,80.664,14.902,81.235,15.267,9.702,3.1525e-4,9.702,0.0018617,9.62,3.3173,28.61,-80.6,9.7919,0.35943,0,0.0088967,6.801e-6,38391,10156,59.027,0.29534,103.29,92.724,1.6771,0.23973,19403161,1e3,43.371,0.53409,0.5343,0.34935,0.057268,0.12747,0.056258,0.089779,4.9418e-4,0,0,0,0,0.0042314,0.010423,6.2992,201.06,82.052,6.8859e-4,NaN,14.436,1003.1,340.05,0.05,0.024948
1.6113,90.881,81.409,14.894,81.995,15.279,10.187,3.4479e-4,10.187,0.0019392,9.788,3.4084,28.61,-80.6,9.7919,0.29105,0,0.0090447,8.2061e-6,38351,10115,58.993,0.29522,103.42,92.687,1.7032,0.24201,19581063,1e3,44.204,0.53444,0.53458,0.34931,0.057516,0.12761,0.045378,0.072921,-4.3299e-4,0,0,0,0,0.0042915,0.01052,6.2992,201.06,81.891,8.1476e-4,NaN,14.409,1002.6,340.03,0.05,0.02527
1.6613,94.97,82.154,14.881,82.756,15.296,10.681,3.759e-4,10.681,0.0020164,9.9616,3.5385,28.61,-80.6,9.7919,0.1129,0,0.009138,2.2909e-5,38310,10074,58.96,0.2951,103.75,92.649,1.7623,0.24423,19753306,1e3,45.015,0.53478,0.53481,0.34927,0.057758,0.12775,0.017421,0.026781,2.5669e-4,0,0,0,0,0.0043019,0.010618,6.2992,201.06,81.727,9.6901e-4,NaN,14.383,1002.1,340.01,0.05,0.025531
1.7113,99.096,82.898,14.864,83.516,15.315,11.183,4.0865e-4,11.183,0.0020936,10.142,3.6858,28.61,-80.6,9.7919,0.11092,0,-0.0091256,2.5698e-5,38269,10033,58.926,0.29498,103.76,92.612,1.769,0.24642,19922889,1e3,45.831,0.53512,0.53514,0.34923,0.057996,0.12789,0.017115,0.034231,-4.0511e-4,0,0,0,0,-0.0042148,0.010716,6.2992,201.06,81.562,0.0011848,NaN,14.356,1001.6,340,0.05,0.025701
1.7613,103.26,83.641,14.852,84.277,15.329,11.695,4.4311e-4,11.695,0.0021708,10.33,3.796,28.61,-80.6,9.7919,0.22035,0,-0.0090326,1.3086e-5,38228,9992.7,58.892,0.29486,103.55,92.574,1.7427,0.24867,20097917,1e3,46.687,0.53548,0.53556,0.3492,0.058242,0.12804,0.03422,0.064098,2.6568e-4,0,0,0,0,-0.0040551,0.010814,6.2992,201.06,81.399,0.0014467,NaN,14.329,1001.1,339.98,0.05,0.025865
1.8113,107.46,84.384,14.839,85.038,15.344,12.217,4.7938e-4,12.217,0.0022483,10.522,3.9024,28.61,-80.6,9.7918,0.31703,0,-0.0088885,9.0016e-6,38188,9951.9,58.858,0.29474,103.37,92.537,1.7205,0.25093,20273246,1e3,47.556,0.53583,0.536,0.34916,0.058488,0.12819,0.049515,0.089527,-3.5191e-4,0,0,0,0,-0.0038566,0.010912,6.2992,201.06,81.237,0.0016717,NaN,14.302,1000.6,339.97,0.05,0.026027
1.8613,111.7,85.126,14.825,85.798,15.359,12.748,5.1754e-4,12.748,0.0023261,10.72,4.0174,28.61,-80.6,9.7918,0.43552,0,-0.008685,6.3578e-6,38147,9911.2,58.824,0.29462,103.16,92.499,1.6923,0.25318,20446988,1e3,48.432,0.53618,0.53649,0.34912,0.058733,0.12833,0.068492,0.11926,-3.9343e-4,0,0,0,0,-0.0036174,0.011011,6.2992,201.06,81.079,0.0018846,NaN,14.274,1000.1,339.95,0.05,0.02619
1.9113,115.97,85.867,14.811,86.559,15.374,13.289,5.5767e-4,13.289,0.0024045,10.924,4.1247,28.61,-80.6,9.7918,0.53321,0,-0.0084246,5.4579e-6,38106,9870.5,58.79,0.2945,102.98,92.461,1.6705,0.25543,20621326,1e3,49.32,0.53654,0.537,0.34908,0.05898,0.12848,0.084333,0.1439,-2.0123e-4,0,0,0,0,-0.0033443,0.011109,6.2992,201.06,80.925,0.0020698,NaN,14.246,999.65,339.93,0.05,0.02635
1.9613,120.29,86.608,14.797,87.321,15.389,13.84,5.9986e-4,13.84,0.0024834,11.133,4.2271,28.61,-80.6,9.7918,0.61995,0,-0.0081099,5.0102e-6,38065,9829.7,58.756,0.29439,102.83,92.423,1.6522,0.25769,20795699,1e3,50.219,0.53689,0.53752,0.34903,0.059226,0.12863,0.098545,0.16573,-4.7977e-4,0,0,0,0,-0.0030453,0.011207,6.2992,201.06,80.776,0.0022866,NaN,14.218,999.14,339.92,0.05,0.02651
2.0113,124.63,87.348,14.785,88.082,15.401,14.402,6.4421e-4,14.402,0.0025629,11.346,4.3135,28.61,-80.6,9.7918,0.6699,0,-0.0077625,4.5155e-6,38025,9789,58.722,0.29427,102.74,92.385,1.6444,0.25997,20971551,1e3,51.129,0.53726,0.53799,0.34899,0.059476,0.12879,0.10679,0.17843,3.5555e-4,0,0,0,0,-0.0027416,0.011305,6.2992,201.06,80.633,0.002538,NaN,14.19,998.63,339.9,0.05,0.026689
2.0613,129.02,88.087,14.768,88.843,15.417,14.975,6.908e-4,14.975,0.0026431,11.565,4.4261,28.61,-80.6,9.7918,0.78743,0,-0.0073569,4.1661e-6,37984,9748.2,58.687,0.29415,102.54,92.347,1.618,0.2622,21142956,1e3,52.043,0.53761,0.53862,0.34895,0.059719,0.12894,0.12638,0.20665,1.5557e-4,0,0,0,0,-0.0024211,0.011404,6.2992,201.06,80.497,0.0027682,NaN,14.161,998.12,339.88,0.05,0.026854
2.1113,133.44,88.826,14.757,89.605,15.428,15.559,7.3976e-4,15.559,0.0027242,11.788,4.4983,28.61,-80.6,9.7918,0.81345,0,-0.0069122,3.7672e-6,37943,9707.5,58.653,0.29403,102.5,92.309,1.6171,0.26448,21318853,1e3,52.968,0.53797,0.53905,0.34891,0.05997,0.12909,0.13075,0.21383,1.1004e-4,0,0,0,0,-0.0021007,0.011502,6.2992,201.06,80.369,0.0030186,NaN,14.133,997.6,339.86,0.05,0.02703
2.1613,137.9,89.564,14.745,90.366,15.44,16.154,7.9118e-4,16.154,0.0028063,12.015,4.5789,28.61,-80.6,9.7918,0.86562,0,-0.0064418,3.5927e-6,37902,9666.8,58.618,0.29391,102.41,92.271,1.6091,0.26674,21492582,1e3,53.9,0.53834,0.53955,0.34887,0.060218,0.12925,0.13955,0.22604,-6.4648e-5,0,0,0,0,-0.0017939,0.0116,6.2992,201.06,80.248,0.0032693,NaN,14.104,997.08,339.85,0.05,0.027227
2.2113,142.4,90.301,14.727,91.128,15.457,16.76,8.4518e-4,16.76,0.0028893,12.247,4.6934,28.61,-80.6,9.7917,0.99976,0,-0.0059107,3.0692e-6,37862,9626,58.584,0.29379,102.18,92.233,1.5789,0.26894,21660639,1e3,54.836,0.53869,0.5403,0.34883,0.060458,0.1294,0.1624,0.25762,4.4688e-4,0,0,0,0,-0.0014859,0.011699,6.2992,201.06,80.137,0.003519,NaN,14.074,996.55,339.83,0.05,0.027419
2.2613,146.93,91.037,14.711,91.889,15.471,17.378,9.0188e-4,17.378,0.0029735,12.484,4.7909,28.61,-80.6,9.7917,1.1007,0,-0.005307,2.8516e-6,37821,9585.3,58.549,0.29367,102.01,92.195,1.5581,0.27114,2.183e7,1e3,55.782,0.53904,0.54099,0.34878,0.0607,0.12956,0.17982,0.28124,3.5389e-5,0,0,0,0,-0.0011786,0.011797,6.2992,201.06,80.036,0.0037317,NaN,14.045,996.02,339.81,0.05,0.027593
2.3113,151.5,91.773,14.701,92.651,15.481,18.009,9.6138e-4,18.009,0.0030587,12.726,4.8508,28.61,-80.6,9.7917,1.1281,0,-0.0046601,2.5792e-6,37780,9544.5,58.515,0.29355,101.97,92.156,1.5572,0.2734,22002045,1e3,56.73,0.53941,0.54145,0.34874,0.060948,0.12972,0.18458,0.28865,-1.829e-4,0,0,0,0,-8.9398e-4,0.011896,6.2992,201.06,79.946,0.0039359,NaN,14.015,995.48,339.79,0.05,0.027754
2.3612,156.11,92.509,14.697,93.413,15.486,18.651,0.0010238,18.651,0.003145,12.969,4.8813,28.61,-80.6,9.7917,1.1037,0,-0.0040002,2.5527e-6,37739,9503.8,58.48,0.29343,102.01,92.118,1.5701,0.27568,22176712,1e3,57.68,0.53978,0.54174,0.3487,0.061199,0.12988,0.18036,0.28392,4.7697e-4,0,0,0,0,-6.479e-4,0.011994,6.2992,201.06,79.868,0.0041442,NaN,13.985,994.94,339.77,0.05,0.027913
2.4112,160.75,93.244,14.696,94.175,15.489,19.306,0.0010892,19.306,0.0032325,13.214,4.8929,28.61,-80.6,9.7917,1.0513,0,-0.003347,2.5261e-6,37699,9463.1,58.445,0.29331,102.1,92.079,1.5906,0.27798,22352336,1e3,58.635,0.54015,0.54193,0.34865,0.061452,0.13005,0.17131,0.2727,7.4624e-5,0,0,0,0,-4.4617e-4,0.012093,6.2992,201.06,79.802,0.0043504,NaN,13.955,994.4,339.76,0.05,0.028074
2.4612,165.43,93.979,14.697,94.938,15.49,19.972,0.0011577,19.972,0.0033211,13.458,4.8938,28.61,-80.6,9.7917,0.9888,0,-0.0027182,2.3104e-6,37658,9422.3,58.41,0.29319,102.21,92.04,1.6139,0.28028,22527900,1e3,59.595,0.54053,0.54211,0.34861,0.061705,0.13021,0.16058,0.2593,3.3257e-4,0,0,0,0,-2.8949e-4,0.012192,6.2992,201.06,79.748,0.0045553,NaN,13.925,993.85,339.74,0.05,0.028234
2.5112,170.15,94.714,14.69,95.7,15.498,20.651,0.0012294,20.651,0.0034107,13.704,4.9383,28.61,-80.6,9.7917,1.0252,0,-0.0020805,2.1608e-6,37617,9381.6,58.375,0.29307,102.15,92.002,1.6105,0.28249,22696268,1e3,60.56,0.54089,0.54259,0.34856,0.061949,0.13037,0.16683,0.26914,1.7617e-4,0,0,0,0,-1.6697e-4,0.01229,6.2992,201.06,79.705,0.0047521,NaN,13.894,993.29,339.72,0.05,0.028394
2.5612,174.91,95.449,14.682,96.463,15.505,21.343,0.0013043,21.343,0.0035015,13.952,4.9842,28.61,-80.6,9.7916,1.0729,0,-0.0014026,2.3626e-6,37576,9340.8,58.34,0.29295,102.07,91.963,1.6041,0.28469,22862838,1e3,61.528,0.54125,0.54311,0.34852,0.062191,0.13054,0.17508,0.28068,-4.5511e-4,0,0,0,0,-7.4727e-5,0.012389,6.2992,201.06,79.673,0.0049593,NaN,13.863,992.74,339.7,0.05,0.028552
2.6112,179.7,96.183,14.683,97.226,15.506,22.047,0.0013827,22.047,0.0035934,14.202,4.9843,28.61,-80.6,9.7916,1.0409,0,-7.0237e-4,3.1175e-6,37536,9300.1,58.305,0.29284,102.12,91.924,1.6192,0.28693,23033565,1e3,62.499,0.54162,0.54337,0.34848,0.062439,0.1307,0.16956,0.27462,-2.556e-4,0,0,0,0,-1.8449e-5,0.012488,6.2992,201.06,79.654,0.0052266,NaN,13.832,992.17,339.68,0.05,0.02871
2.6612,184.52,96.918,14.695,97.99,15.498,22.763,0.0014645,22.763,0.0036863,14.45,4.9238,28.61,-80.6,9.7916,0.90356,0,-5.0913e-5,2.9081e-6,37495,9259.4,58.27,0.29272,102.36,91.885,1.663,0.28926,23210506,1e3,63.477,0.542,0.54333,0.34843,0.062696,0.13088,0.14607,0.24321,-1.4093e-4,0,0,0,0,-9.5396e-8,0.012586,6.2992,201.06,79.648,0.0055337,NaN,13.801,991.61,339.66,0.05,0.028869
2.7112,189.39,97.654,14.702,98.753,15.495,23.492,0.00155,23.492,0.0037805,14.695,4.8914,28.61,-80.6,9.7916,0.83182,0,5.5797e-4,3.0308e-6,37454,9218.6,58.235,0.2926,102.49,91.846,1.6892,0.29153,23382351,1e3,64.46,0.54238,0.54351,0.34838,0.062947,0.13105,0.13395,0.22639,-5.6994e-6,0,0,0,0,1.1281e-5,0.012685,6.2992,201.06,79.652,0.0058379,NaN,13.769,991.04,339.64,0.05,0.029033
2.7612,194.29,98.39,14.715,99.517,15.486,24.232,0.0016393,24.232,0.0038759,14.938,4.8263,28.61,-80.6,9.7916,0.70824,0,0.0011064,3.3091e-6,37414,9177.9,58.2,0.29248,102.7,91.807,1.7301,0.29384,23557099,1e3,65.455,0.54276,0.54359,0.34833,0.063202,0.13122,0.11326,0.19577,3.6832e-4,0,0,0,0,4.3668e-5,0.012784,6.2992,201.06,79.667,0.0061656,NaN,13.737,990.46,339.62,0.05,0.030266
2.8112,199.23,99.126,14.724,100.28,15.481,24.985,0.0017324,24.985,0.0039727,15.179,4.7818,28.61,-80.6,9.7916,0.63344,0,0.0016055,2.7655e-6,37373,9137.1,58.164,0.29236,102.84,91.767,1.7576,0.2961,23727836,1e3,66.453,0.54314,0.5438,0.34829,0.063453,0.1314,0.10088,0.17738,-4.7708e-4,0,0,0,0,9.0564e-5,0.012883,6.2992,201.06,79.692,0.0064638,NaN,13.705,989.88,339.6,0.05,0.03068
2.8612,204.2,99.863,14.736,101.05,15.472,25.75,0.0018295,25.75,0.0040708,15.416,4.7161,28.61,-80.6,9.7915,0.52766,0,0.0020448,3.4739e-6,37332,9096.4,58.129,0.29224,103.03,91.728,1.7942,0.29838,2.39e7,1e3,67.465,0.54352,0.54398,0.34824,0.063706,0.13157,0.083532,0.15002,1.7272e-4,0,0,0,0,1.4468e-4,0.012982,6.2992,201.06,79.725,0.0067727,NaN,13.673,989.3,339.58,0.05,0.031175
2.9112,209.21,100.6,14.747,101.81,15.464,26.527,0.0019308,26.527,0.0041703,15.651,4.6525,28.61,-80.6,9.7915,0.4339,0,0.0024275,3.4231e-6,37291,9055.6,58.093,0.29212,103.2,91.689,1.8277,0.30065,24071143,1e3,68.483,0.5439,0.54421,0.34819,0.063957,0.13175,0.068326,0.12506,4.6236e-4,0,0,0,0,2.0086e-4,0.013081,6.2992,201.06,79.765,0.0071046,NaN,13.64,988.71,339.56,0.05,0.031519
2.9612,214.26,101.34,14.767,102.58,15.449,27.315,0.0020363,27.315,0.0042712,15.88,4.54,28.61,-80.6,9.7915,0.25577,0,0.0027039,3.9285e-6,37251,9014.9,58.058,0.292,103.53,91.649,1.8862,0.303,24247952,1e3,69.538,0.54429,0.5444,0.34814,0.064218,0.13193,0.039867,0.075396,-3.4864e-4,0,0,0,0,2.4539e-4,0.01318,6.2992,201.06,79.811,0.007411,NaN,13.607,988.12,339.54,0.05,0.031869
3.0112,219.35,102.08,14.784,103.34,15.436,28.115,0.0021461,28.115,0.0043736,16.105,4.4379,28.61,-80.6,9.7915,0.10245,0,0.0028532,7.1394e-6,37210,8974.2,58.022,0.29188,103.82,91.61,1.9384,0.30532,24422870,1e3,70.606,0.54469,0.5447,0.34809,0.064476,0.13212,0.015828,0.030736,4.9599e-4,0,0,0,0,2.6913e-4,0.013279,6.2992,201.06,79.862,0.0077857,NaN,13.574,987.52,339.52,0.05,0.032084
3.0612,224.47,102.82,14.798,104.11,15.424,28.926,0.0022605,28.926,0.0044775,16.324,4.3481,28.61,-80.6,9.7915,0.024013,0,-0.0028774,1.4537e-5,37169,8933.4,57.986,0.29176,103.97,91.57,1.9687,0.30762,24595783,1e3,71.68,0.54508,0.54508,0.34804,0.064732,0.1323,0.003693,0.007978,-1.5224e-4,0,0,0,0,-2.6965e-4,0.013378,6.2992,201.06,79.913,0.0081362,NaN,13.541,986.92,339.5,0.05,0.032263
3.1112,229.63,103.56,14.806,104.87,15.417,29.747,0.0023794,29.747,0.0045829,16.541,4.2964,28.61,-80.6,9.7915,0.077332,0,-0.0028392,3.0222e-6,37128,8892.7,57.95,0.29164,103.87,91.53,1.9593,0.30986,24763075,1e3,72.733,0.54546,0.54547,0.34799,0.064981,0.13248,0.011931,0.023917,2.3808e-4,0,0,0,0,-2.5881e-4,0.013477,6.2992,201.06,79.965,0.0084516,NaN,13.507,986.32,339.48,0.05,0.032444
3.1612,234.83,104.3,14.819,105.64,15.406,30.58,0.002503,30.58,0.0046898,16.753,4.2148,28.61,-80.6,9.7915,0.18279,0,-0.0027105,-1.845e-7,37088,8851.9,57.914,0.29152,103.68,91.49,1.9344,0.31215,24934462,1e3,73.825,0.54585,0.5459,0.34794,0.065235,0.13267,0.028379,0.055059,4.6854e-4,0,0,0,0,-2.3246e-4,0.013576,6.2992,201.06,80.015,0.0087521,NaN,13.474,985.71,339.46,0.05,0.032611
3.2112,240.06,105.04,14.823,106.4,15.402,31.423,0.0026315,31.423,0.0047982,16.964,4.1857,28.61,-80.6,9.7914,0.195,0,-0.0025524,-5.0882e-7,37047,8811.2,57.878,0.29141,103.65,91.45,1.9374,0.31435,25098660,1e3,74.877,0.54622,0.54629,0.3479,0.065481,0.13285,0.030298,0.058928,4.7652e-4,0,0,0,0,-2.0326e-4,0.013674,6.2992,201.06,80.062,0.0090567,NaN,13.44,985.1,339.44,0.05,0.032835
3.2612,245.33,105.78,14.837,107.17,15.389,32.276,0.0027648,32.276,0.004908,17.17,4.0846,28.61,-80.6,9.7914,0.33115,0,-0.0023083,-1.3283e-6,37006,8770.5,57.842,0.29129,103.4,91.41,1.9041,0.31669,25272803,1e3,76.016,0.54662,0.54681,0.34784,0.065741,0.13304,0.051865,0.098897,-4.6239e-6,0,0,0,0,-1.6382e-4,0.013773,6.2992,201.06,80.106,0.0093822,NaN,13.405,984.48,339.42,0.05,0.033072
3.3112,250.64,106.53,14.847,107.93,15.379,33.139,0.0029031,33.139,0.0050193,17.373,4.0103,28.61,-80.6,9.7914,0.42117,0,-0.0019619,-1.75e-6,36965,8729.7,57.806,0.29117,103.24,91.37,1.8846,0.31898,25443737,1e3,77.144,0.54702,0.54731,0.34779,0.065997,0.13323,0.066313,0.1255,-2.2097e-4,0,0,0,0,-1.1667e-4,0.013872,6.2992,201.06,80.145,0.0096754,NaN,13.371,983.85,339.4,0.05,0.033694
3.3612,255.98,107.27,14.854,108.7,15.37,34.013,0.0030465,34.013,0.0051319,17.572,3.9461,28.61,-80.6,9.7914,0.49613,0,-0.0015312,-1.9279e-6,36925,8689,57.77,0.29105,103.11,91.33,1.8698,0.32127,25613975,1e3,78.278,0.54741,0.54782,0.34774,0.066252,0.13342,0.078459,0.14677,4.1029e-4,0,0,0,0,-7.006e-5,0.013971,6.2992,201.06,80.176,0.0099562,NaN,13.336,983.23,339.38,0.05,0.033911
3.4112,261.36,108.01,14.857,109.46,15.364,34.897,0.0031951,34.897,0.005246,17.768,3.916,28.61,-80.6,9.7914,0.52022,0,-0.0010519,-2.6464e-6,36884,8648.2,57.734,0.29093,103.07,91.29,1.8697,0.32352,25780601,1e3,79.388,0.5478,0.54825,0.34769,0.066503,0.13361,0.082387,0.15437,-3.7498e-5,0,0,0,0,-3.2615e-5,0.01407,6.2992,201.06,80.2,0.010273,NaN,13.301,982.6,339.36,0.05,0.034226
3.4612,266.78,108.76,14.857,110.23,15.36,35.79,0.003349,35.79,0.0053614,17.964,3.9001,28.61,-80.6,9.7914,0.52728,0,-5.4945e-4,-2.2927e-6,36843,8607.5,57.697,0.29081,103.06,91.249,1.8744,0.32576,25946341,1e3,80.497,0.54819,0.54865,0.34764,0.066754,0.1338,0.083545,0.15688,3.4136e-5,0,0,0,0,-8.777e-6,0.014169,6.2992,201.06,80.214,0.010584,NaN,13.266,981.96,339.34,0.05,0.034492
3.5112,272.24,109.5,14.854,110.99,15.358,36.693,0.0035082,36.693,0.005478,18.159,3.9013,28.61,-80.6,9.7913,0.51393,0,-4.6468e-5,-2.4436e-6,36802,8566.8,57.661,0.29069,103.08,91.209,1.885,0.32798,26110880,1e3,81.603,0.54858,0.54902,0.34759,0.067003,0.13398,0.081374,0.15375,-7.4332e-5,0,0,0,0,-6.1937e-8,0.014267,6.2992,201.06,80.219,0.010864,NaN,13.23,981.32,339.32,0.05,0.034756
3.5612,277.73,110.24,14.854,111.76,15.353,37.606,0.0036729,37.606,0.005596,18.354,3.8802,28.61,-80.6,9.7913,0.54028,0,4.7351e-4,-2.1279e-6,36762,8526,57.624,0.29057,103.04,91.168,1.8843,0.33026,26279224,1e3,82.753,0.54897,0.54946,0.34754,0.067258,0.13418,0.085682,0.16106,-2.1539e-5,0,0,0,0,6.3436e-6,0.014366,6.2992,201.06,80.216,0.011093,NaN,13.195,980.68,339.29,0.05,0.034937
3.6112,283.26,110.98,14.853,112.52,15.347,38.528,0.0038431,38.528,0.0057152,18.547,3.8612,28.61,-80.6,9.7913,0.5686,0,0.0010346,-2.2433e-6,36721,8485.3,57.588,0.29045,102.99,91.127,1.883,0.33255,26448360,1e3,83.919,0.54937,0.54992,0.34748,0.067515,0.13438,0.090326,0.17016,3.4507e-4,0,0,0,0,2.987e-5,0.014465,6.2992,201.06,80.202,0.011279,NaN,13.159,980.03,339.27,0.05,0.035113
3.6612,288.83,111.73,14.848,113.29,15.345,39.461,0.004019,39.461,0.0058355,18.741,3.8738,28.61,-80.6,9.7913,0.55643,0,0.0016039,-3.104e-6,36680,8444.5,57.551,0.29033,103.01,91.087,1.8933,0.33481,26614691,1e3,85.064,0.54977,0.55029,0.34743,0.067769,0.13457,0.088338,0.16669,-2.8944e-4,0,0,0,0,7.0833e-5,0.014564,6.2992,201.06,80.178,0.011518,NaN,13.123,979.37,339.25,0.05,0.035361
3.7112,294.44,112.47,14.845,114.05,15.34,40.402,0.0042005,40.402,0.0059568,18.934,3.865,28.61,-80.6,9.7913,0.58144,0,0.002194,-2.862e-6,36639,8403.8,57.514,0.29021,102.97,91.046,1.8931,0.33713,26784833,1e3,86.256,0.55018,0.55074,0.34737,0.068028,0.13477,0.092449,0.17471,-2.657e-4,0,0,0,0,1.3075e-4,0.014662,6.2992,201.06,80.144,0.011723,NaN,13.086,978.72,339.23,0.05,0.035606
3.7612,300.08,113.21,14.84,114.82,15.335,41.354,0.0043877,41.354,0.0060792,19.127,3.8639,28.61,-80.6,9.7913,0.60125,0,0.0028148,-3.6836e-6,36599,8363.1,57.477,0.29009,102.94,91.005,1.8944,0.33944,26955276,1e3,87.459,0.55059,0.55119,0.34732,0.068289,0.13498,0.095713,0.18151,2.3187e-4,0,0,0,0,2.1231e-4,0.014761,6.2992,201.06,80.099,0.011928,NaN,13.049,978.06,339.21,0.05,0.035867
3.8112,305.76,113.96,14.833,115.58,15.331,42.315,0.0045808,42.315,0.0062026,19.321,3.8777,28.61,-80.6,9.7912,0.6064,0,0.0034679,-3.9753e-6,36558,8322.3,57.44,0.28997,102.93,90.964,1.8998,0.34176,27125240,1e3,88.663,0.551,0.55161,0.34726,0.068549,0.13518,0.09657,0.18303,3.6648e-4,0,0,0,0,3.1795e-4,0.01486,6.2992,201.06,80.043,0.01218,NaN,13.013,977.39,339.18,0.05,0.036039
3.8612,311.47,114.7,14.816,116.35,15.335,43.286,0.0047799,43.286,0.006327,19.517,3.9579,28.61,-80.6,9.7912,0.52676,0,0.0040888,-3.4083e-6,36517,8281.6,57.403,0.28986,103.08,90.923,1.9293,0.344,27288388,1e3,89.805,0.55139,0.55186,0.34721,0.0688,0.13538,0.083513,0.16031,3.696e-4,0,0,0,0,4.3634e-4,0.014958,6.2992,201.06,79.975,0.012371,NaN,12.975,976.72,339.16,0.05,0.036212
3.9112,317.23,115.44,14.796,117.11,15.34,44.267,0.0049851,44.267,0.0064523,19.717,4.0478,28.61,-80.6,9.7912,0.44112,0,0.0046205,-2.5484e-6,36476,8240.8,57.366,0.28974,103.23,90.882,1.9608,0.34623,27451443,1e3,90.956,0.55179,0.55212,0.34716,0.069052,0.13558,0.0696,0.13571,-4.3988e-4,0,0,0,0,5.5008e-4,0.015057,6.2992,201.06,79.896,0.012453,NaN,12.938,976.04,339.14,0.05,0.036502
3.9612,323.02,116.18,14.781,117.87,15.341,45.258,0.0051963,45.258,0.0065784,19.921,4.1064,28.61,-80.6,9.7912,0.40497,0,0.005106,-2.3123e-6,36436,8200.1,57.329,0.28962,103.3,90.84,1.9782,0.34853,27619314,1e3,92.165,0.5522,0.55248,0.3471,0.069311,0.13579,0.063769,0.1257,-3.1826e-4,0,0,0,0,6.6301e-4,0.015156,6.2992,201.06,79.808,0.012427,NaN,12.9,975.37,339.12,0.05,0.036691
4.0112,328.85,116.92,14.76,118.64,15.345,46.259,0.0054136,46.259,0.0067052,20.128,4.1992,28.61,-80.6,9.7912,0.32779,0,0.0055299,-2.3999e-6,36395,8159.4,57.292,0.2895,103.44,90.799,2.0076,0.3508,27783807,1e3,93.352,0.55261,0.55279,0.34704,0.069566,0.136,0.05139,0.10197,-1.7188e-4,0,0,0,0,7.6777e-4,0.015254,6.2992,201.06,79.713,0.012394,NaN,12.863,974.68,339.09,0.05,0.037012
4.0612,334.71,117.65,14.737,119.4,15.351,47.271,0.0056369,47.271,0.0068324,20.341,4.3002,28.61,-80.6,9.7911,0.24473,0,0.0058737,-2.4792e-6,36354,8118.6,57.255,0.28938,103.6,90.757,2.0389,0.35306,27947910,1e3,94.548,0.55301,0.55312,0.34699,0.069822,0.1362,0.038188,0.076557,4.7517e-4,0,0,0,0,8.5525e-4,0.015353,6.2992,201.06,79.61,0.012363,NaN,12.824,973.99,339.07,0.05,0.037191
4.1112,340.61,118.39,14.709,120.16,15.36,48.293,0.0058664,48.293,0.00696,20.559,4.4222,28.61,-80.6,9.7911,0.13734,0,0.0060977,-2.9202e-6,36314,8077.9,57.217,0.28926,103.8,90.716,2.0778,0.35529,2.811e7,1e3,95.738,0.55342,0.55345,0.34693,0.070074,0.13641,0.021299,0.043441,3.9019e-4,0,0,0,0,9.1031e-4,0.015452,6.2992,201.06,79.502,0.012368,NaN,12.786,973.3,339.05,0.05,0.03736
4.1612,346.55,119.13,14.688,120.93,15.363,49.327,0.006102,49.327,0.0070878,20.782,4.5014,28.61,-80.599,9.7911,0.090869,0,0.0062346,-1.4655e-6,36273,8037.1,57.18,0.28914,103.89,90.674,2.0987,0.3576,28276918,1e3,96.986,0.55383,0.55385,0.34687,0.070335,0.13662,0.014055,0.028457,4.3726e-4,0,0,0,0,9.3954e-4,0.01555,6.2992,201.06,79.391,0.012326,NaN,12.747,972.61,339.02,0.05,0.037535
4.2112,352.52,119.86,14.669,121.69,15.363,50.371,0.0063437,50.371,0.0072158,21.009,4.5643,28.61,-80.599,9.7911,0.068222,0,0.0063319,2.7748e-6,36232,7996.4,57.142,0.28902,103.94,90.632,2.1125,0.35994,28446192,1e3,98.26,0.55426,0.55427,0.34682,0.070599,0.13684,0.010539,0.020925,-4.5151e-4,0,0,0,0,9.5666e-4,0.015649,6.2992,201.06,79.278,0.01222,NaN,12.709,971.9,339,0.05,0.037775
4.2612,358.54,120.59,14.647,122.45,15.365,51.428,0.0065915,51.428,0.0073436,21.239,4.6419,28.61,-80.599,9.7911,0.027464,0,0.0063987,1.8426e-5,36191,7955.6,57.105,0.2889,104.02,90.59,2.1319,0.36225,28613556,1e3,99.531,0.55468,0.55468,0.34676,0.070861,0.13706,0.0042331,0.0076809,3.806e-4,0,0,0,0,9.6465e-4,0.015748,6.2992,201.06,79.163,0.012037,NaN,12.67,971.2,338.98,0.05,0.038025
4.3112,364.58,121.33,14.616,123.21,15.375,52.495,0.0068453,52.495,0.0074713,21.475,4.7708,28.61,-80.599,9.7911,0.079321,0,-0.0063594,9.4236e-6,36151,7914.9,57.067,0.28878,103.92,90.549,2.1233,0.36449,28774113,1e3,100.76,0.55509,0.5551,0.3467,0.071114,0.13727,0.012264,0.027173,4.265e-4,0,0,0,0,-9.413e-4,0.015846,6.2992,201.06,79.048,0.011887,NaN,12.63,970.49,338.95,0.05,0.038199
4.3612,370.67,122.06,14.588,123.97,15.382,53.575,0.0071051,53.575,0.0075985,21.716,4.8797,28.61,-80.599,9.791,0.15811,0,-0.0061902,6.4438e-6,36110,7874.2,57.029,0.28866,103.78,90.506,2.1068,0.36675,28936594,1e3,102.03,0.5555,0.55554,0.34664,0.071371,0.13749,0.024561,0.053066,-3.9891e-4,0,0,0,0,-8.8103e-4,0.015945,6.2992,201.06,78.935,0.011711,NaN,12.591,969.78,338.93,0.05,0.038378
4.4112,376.79,122.79,14.563,124.73,15.386,54.667,0.0073707,54.667,0.0077252,21.962,4.9635,28.61,-80.599,9.791,0.20502,0,-0.0059467,6.8275e-6,36069,7833.4,56.991,0.28854,103.69,90.464,2.0999,0.36905,29101324,1e3,103.31,0.55592,0.55599,0.34658,0.071631,0.13771,0.031938,0.068312,-4.2873e-4,0,0,0,0,-8.0313e-4,0.016044,6.2992,201.06,78.826,0.011618,NaN,12.551,969.06,338.9,0.05,0.038682
4.4612,382.95,123.51,14.532,125.5,15.395,55.771,0.0076423,55.771,0.0078511,22.213,5.0814,28.61,-80.599,9.791,0.29514,0,-0.0056003,5.1591e-6,36028,7792.7,56.953,0.28842,103.53,90.422,2.0805,0.37128,29260746,1e3,104.58,0.55633,0.55648,0.34652,0.071885,0.13792,0.046222,0.09716,3.4924e-4,0,0,0,0,-7.0384e-4,0.016142,6.2992,201.06,78.721,0.011598,NaN,12.511,968.34,338.88,0.05,0.038873
4.5112,389.14,124.24,14.505,126.26,15.401,56.889,0.0079196,56.889,0.0079763,22.47,5.1786,28.61,-80.599,9.791,0.36128,0,-0.0051397,5.2283e-6,35988,7751.9,56.915,0.28831,103.41,90.38,2.0683,0.37353,29421230,1e3,105.86,0.55674,0.55697,0.34647,0.07214,0.13814,0.056801,0.11819,-8.1095e-5,0,0,0,0,-5.858e-4,0.016241,6.2992,201.06,78.625,0.011613,NaN,12.471,967.61,338.86,0.05,0.039046
4.5612,395.37,124.97,14.486,127.02,15.399,58.019,0.0082029,58.019,0.0081007,22.73,5.223,28.61,-80.599,9.791,0.36731,0,-0.0046227,6.106e-6,35947,7711.2,56.877,0.28819,103.4,90.337,2.0737,0.37584,29586391,1e3,107.18,0.55717,0.5574,0.3464,0.072403,0.13836,0.057774,0.12053,-8.5162e-5,0,0,0,0,-4.6812e-4,0.016339,6.2992,201.06,78.537,0.011734,NaN,12.43,966.88,338.83,0.05,0.039287
4.6112,401.64,125.69,14.474,127.78,15.392,59.162,0.0084922,59.162,0.0082243,22.992,5.2363,28.61,-80.599,9.7909,0.34144,0,-0.0041222,6.0229e-6,35906,7670.5,56.839,0.28807,103.45,90.295,2.0884,0.37818,29753601,1e3,108.52,0.55761,0.5578,0.34634,0.07267,0.13859,0.05363,0.11242,-3.7671e-4,0,0,0,0,-3.677e-4,0.016438,6.2992,201.06,78.458,0.011939,NaN,12.389,966.14,338.81,0.05,0.039462
4.6612,407.94,126.41,14.457,128.53,15.389,60.318,0.0087875,60.318,0.0083473,23.255,5.2759,28.61,-80.599,9.7909,0.35102,0,-0.0036206,5.7583e-6,35865,7629.7,56.8,0.28795,103.44,90.252,2.0928,0.38047,29915951,1e3,109.83,0.55803,0.55824,0.34628,0.07293,0.13882,0.055172,0.11583,-1.7515e-4,0,0,0,0,-2.803e-4,0.016536,6.2992,201.06,78.388,0.012192,NaN,12.348,965.41,338.78,0.05,0.039631
4.7112,414.28,127.14,14.44,129.29,15.387,61.487,0.0090892,61.487,0.0084696,23.52,5.3157,28.61,-80.599,9.7909,0.36514,0,-0.0031028,5.6684e-6,35825,7589,56.762,0.28783,103.41,90.209,2.0959,0.38273,30076502,1e3,111.15,0.55845,0.55868,0.34622,0.073188,0.13904,0.057442,0.12042,2.4819e-4,0,0,0,0,-2.0346e-4,0.016635,6.2992,201.06,78.328,0.012497,NaN,12.307,964.66,338.76,0.05,0.03986
4.7612,420.65,127.86,14.417,130.05,15.39,62.67,0.0093974,62.67,0.0085915,23.787,5.386,28.61,-80.599,9.7909,0.41799,0,-0.0025142,5.5454e-6,35784,7548.2,56.723,0.28771,103.32,90.167,2.0878,0.38493,30231458,1e3,112.44,0.55886,0.55916,0.34616,0.073439,0.13926,0.065963,0.13764,-3.4541e-4,0,0,0,0,-1.3209e-4,0.016733,6.2992,201.06,78.277,0.012843,NaN,12.266,963.91,338.73,0.05,0.040095
4.8112,427.06,128.58,14.405,130.81,15.384,63.866,0.0097122,63.866,0.0087131,24.057,5.4001,28.61,-80.599,9.7909,0.41215,0,-0.0018839,5.9404e-6,35743,7507.5,56.685,0.28759,103.33,90.124,2.0967,0.38719,30390988,1e3,113.76,0.55929,0.55958,0.3461,0.073697,0.13949,0.065025,0.13634,-1.7747e-4,0,0,0,0,-7.3307e-5,0.016832,6.2992,201.06,78.238,0.013261,NaN,12.224,963.16,338.71,0.05,0.040332
4.8612,433.51,129.3,14.4,131.57,15.371,65.076,0.010034,65.076,0.0088345,24.327,5.3789,28.61,-80.599,9.7908,0.37277,0,-0.0012898,4.6967e-6,35702,7466.8,56.646,0.28747,103.41,90.081,2.1154,0.38948,30552642,1e3,115.1,0.55972,0.55996,0.34604,0.073958,0.13972,0.058684,0.12398,-4.7804e-5,0,0,0,0,-3.3965e-5,0.01693,6.2992,201.06,78.209,0.013691,NaN,12.182,962.41,338.68,0.05,0.040549
4.9112,439.99,130.02,14.39,132.33,15.364,66.299,0.010363,66.299,0.0089558,24.596,5.384,28.61,-80.599,9.7908,0.3678,0,-7.145e-4,4.1271e-6,35662,7426,56.608,0.28735,103.42,90.038,2.1241,0.39171,30709164,1e3,116.41,0.56014,0.56037,0.34598,0.074213,0.13995,0.057892,0.1226,2.5905e-4,0,0,0,0,-1.0306e-5,0.017029,6.2992,201.06,78.191,0.014058,NaN,12.14,961.65,338.66,0.05,0.04073
4.9612,446.51,130.74,14.383,133.08,15.354,67.535,0.010699,67.535,0.0090773,24.865,5.3722,28.61,-80.599,9.7908,0.34938,0,-1.4496e-4,3.8871e-6,35621,7385.3,56.569,0.28723,103.45,89.994,2.1367,0.39395,30865675,1e3,117.73,0.56056,0.56077,0.34591,0.074469,0.14018,0.054939,0.11769,-2.236e-4,0,0,0,0,-4.1946e-7,0.017127,6.2992,201.06,78.183,0.014409,NaN,12.098,960.88,338.63,0.05,0.04103
5.0112,453.07,131.46,14.385,133.84,15.336,68.785,0.011044,68.785,0.0091989,25.133,5.3154,28.61,-80.599,9.7908,0.28759,0,3.7208e-4,4.1174e-6,35580,7344.5,56.53,0.28711,103.57,89.951,2.1621,0.39623,31025608,1e3,119.08,0.56099,0.56113,0.34585,0.07473,0.14041,0.045067,0.097614,-3.6384e-4,0,0,0,0,2.7323e-6,0.017225,6.2992,201.06,78.186,0.014786,NaN,12.055,960.11,338.6,0.05,0.041371
5.0612,459.66,132.18,14.393,134.6,15.313,70.048,0.011395,70.048,0.0093208,25.396,5.2293,28.61,-80.599,9.7908,0.19925,0,7.6924e-4,5.55e-6,35539,7303.8,56.491,0.28699,103.74,89.908,2.1955,0.39854,31187463,1e3,120.46,0.56143,0.5615,0.34579,0.074995,0.14065,0.031066,0.068156,3.4753e-4,0,0,0,0,1.1545e-5,0.017324,6.2992,201.06,78.196,0.015227,NaN,12.012,959.34,338.58,0.05,0.04175
5.1112,466.29,132.9,14.4,135.35,15.291,71.325,0.011755,71.325,0.009443,25.656,5.1447,28.61,-80.599,9.7907,0.11653,0,0.0010324,6.2601e-6,35499,7263.1,56.452,0.28687,103.9,89.864,2.2275,0.40084,31347960,1e3,121.84,0.56187,0.56189,0.34572,0.075258,0.14089,0.018084,0.040241,-1.5689e-4,0,0,0,0,2.0563e-5,0.017422,6.2992,201.06,78.212,0.015683,NaN,11.969,958.56,338.55,0.05,0.042099
5.1612,472.95,133.62,14.407,136.11,15.268,72.614,0.012123,72.614,0.0095658,25.911,5.0541,28.61,-80.599,9.7907,0.030365,0,0.0011635,1.2014e-5,35458,7222.3,56.413,0.28676,104.06,89.821,2.2608,0.40314,31508355,1e3,123.23,0.56231,0.56231,0.34566,0.075522,0.14113,0.0046889,0.010547,3.1184e-4,0,0,0,0,2.5823e-5,0.01752,6.2992,201.06,78.232,0.016189,NaN,11.926,957.78,338.53,0.05,0.042424
5.2112,479.65,134.34,14.42,136.87,15.241,73.916,0.0125,73.916,0.0096892,26.161,4.9352,28.61,-80.599,9.7907,0.083471,0,-0.0011139,-1.9719e-6,35417,7181.6,56.373,0.28664,103.96,89.777,2.2522,0.40549,31671817,1e3,124.67,0.56276,0.56277,0.34559,0.075792,0.14137,0.012931,0.029044,8.8493e-5,0,0,0,0,-2.3399e-5,0.017618,6.2992,201.06,78.253,0.01666,NaN,11.882,957,338.5,0.05,0.04272
5.2612,486.38,135.06,14.423,137.62,15.221,75.23,0.012885,75.23,0.0098134,26.405,4.8641,28.61,-80.599,9.7907,0.14555,0,-8.9689e-4,-3.8314e-6,35376,7140.8,56.334,0.28652,103.85,89.733,2.241,0.40776,3.183e7,1e3,126.07,0.56319,0.56323,0.34553,0.076053,0.14162,0.022632,0.051218,1.191e-4,0,0,0,0,-1.5002e-5,0.017716,6.2992,201.06,78.271,0.017126,NaN,11.839,956.21,338.47,0.05,0.043059
5.3112,493.15,135.78,14.412,138.37,15.213,76.556,0.013279,76.556,0.0099385,26.649,4.8733,28.61,-80.599,9.7907,0.1267,0,-6.5929e-4,-3.2165e-6,35336,7100.1,56.294,0.2864,103.89,89.689,2.254,0.40992,31977944,1e3,127.39,0.56361,0.56364,0.34546,0.076301,0.14184,0.019681,0.043911,-2.2808e-4,0,0,0,0,-8.0225e-6,0.017814,6.2992,201.06,78.285,0.017586,NaN,11.794,955.41,338.45,0.05,0.043797
5.3612,499.96,136.51,14.409,139.13,15.197,77.895,0.013683,77.895,0.010064,26.892,4.8302,28.61,-80.599,9.7906,0.16216,0,-4.1148e-4,-2.1851e-6,35295,7059.4,56.255,0.28628,103.82,89.645,2.2509,0.41217,32132833,1e3,128.79,0.56404,0.56409,0.3454,0.07656,0.14208,0.025244,0.057056,1.3461e-5,0,0,0,0,-3.0916e-6,0.017912,6.2992,201.06,78.295,0.017934,NaN,11.75,954.61,338.42,0.05,0.044022
5.4112,506.8,137.23,14.417,139.88,15.172,79.245,0.014096,79.245,0.010191,27.131,4.7268,28.61,-80.599,9.7906,0.25782,0,-2.0589e-5,-2.6205e-6,35254,7018.6,56.215,0.28616,103.65,89.601,2.23,0.41452,32296627,1e3,130.28,0.5645,0.56461,0.34533,0.076831,0.14234,0.040364,0.089841,2.1907e-4,0,0,0,0,-7.6537e-9,0.018009,6.2992,201.06,78.299,0.01818,NaN,11.706,953.85,338.39,0.05,0.045422
5.4612,513.68,137.95,14.415,140.64,15.153,80.608,0.014518,80.608,0.010319,27.366,4.6697,28.61,-80.599,9.7906,0.30927,0,5.006e-4,-2.5787e-6,35214,6977.9,56.176,0.28604,103.56,89.557,2.2224,0.41682,32456037,1e3,131.74,0.56494,0.56511,0.34526,0.077096,0.14259,0.048568,0.10761,1.3764e-4,0,0,0,0,4.4757e-6,0.018107,6.2992,201.06,78.295,0.018387,NaN,11.661,953.08,338.37,0.05,0.046088
5.5112,520.6,138.67,14.41,141.39,15.136,81.982,0.014949,81.982,0.010448,27.598,4.63,28.61,-80.599,9.7906,0.34679,0,0.0011166,-3.1483e-6,35173,6937.1,56.136,0.28592,103.49,89.512,2.2189,0.41911,32614793,1e3,133.2,0.56539,0.5656,0.3452,0.07736,0.14284,0.054583,0.12147,-2.2003e-4,0,0,0,0,2.2027e-5,0.018204,6.2992,201.06,78.281,0.018572,NaN,11.616,952.31,338.34,0.05,0.046438
5.5612,527.55,139.39,14.395,142.14,15.127,83.368,0.015391,83.368,0.010578,27.83,4.6482,28.61,-80.599,9.7906,0.33394,0,0.0017596,-4.0354e-6,35132,6896.4,56.096,0.2858,103.52,89.468,2.2302,0.42135,32768461,1e3,134.61,0.56583,0.56602,0.34513,0.077618,0.14308,0.052527,0.1174,2.5031e-4,0,0,0,0,5.4136e-5,0.018302,6.2992,201.06,78.255,0.018742,NaN,11.571,951.53,338.31,0.05,0.046617
5.6112,534.54,140.11,14.378,142.89,15.118,84.765,0.015841,84.765,0.010708,28.064,4.6734,28.61,-80.599,9.7905,0.3191,0,0.0023772,-4.152e-6,35091,6855.6,56.056,0.28568,103.55,89.423,2.2421,0.42359,32922812,1e3,136.04,0.56627,0.56644,0.34506,0.077877,0.14333,0.050156,0.1126,-2.094e-4,0,0,0,0,9.7774e-5,0.018399,6.2992,201.06,78.218,0.01892,NaN,11.525,950.75,338.28,0.05,0.046782
5.6612,541.56,140.83,14.364,143.64,15.104,86.174,0.016302,86.174,0.010839,28.297,4.6698,28.61,-80.599,9.7905,0.33507,0,0.0030132,-3.1152e-6,35051,6814.9,56.016,0.28556,103.52,89.379,2.245,0.4259,33081962,1e3,137.53,0.56672,0.56692,0.34499,0.078144,0.14358,0.052719,0.11862,-4.4311e-4,0,0,0,0,1.5541e-4,0.018497,6.2992,201.06,78.169,0.019021,NaN,11.48,949.96,338.26,0.05,0.04707
5.7112,548.62,141.55,14.345,144.39,15.095,87.595,0.016772,87.595,0.010971,28.531,4.6967,28.61,-80.599,9.7905,0.32736,0,0.0036632,-2.527e-6,35010,6774.2,55.976,0.28544,103.54,89.334,2.2548,0.42819,33239241,1e3,139.01,0.56717,0.56736,0.34493,0.078409,0.14384,0.051489,0.11635,-1.023e-4,0,0,0,0,2.2729e-4,0.018594,6.2992,201.06,78.109,0.018992,NaN,11.434,949.18,338.23,0.05,0.047298
5.7612,555.72,142.26,14.318,145.14,15.09,89.027,0.017252,89.027,0.011103,28.767,4.7651,28.61,-80.599,9.7905,0.28688,0,0.004293,-1.2993e-6,34969,6733.4,55.936,0.28533,103.62,89.289,2.2742,0.43045,33393392,1e3,140.46,0.56762,0.56776,0.34486,0.078671,0.14409,0.045022,0.10217,1.5347e-4,0,0,0,0,3.0894e-4,0.018691,6.2992,201.06,78.037,0.018883,NaN,11.388,948.38,338.2,0.05,0.04748
5.8112,562.85,142.98,14.276,145.89,15.098,90.471,0.017741,90.471,0.011235,29.01,4.9125,28.61,-80.599,9.7904,0.17984,0,0.004745,-2.4216e-6,34928,6692.7,55.895,0.28521,103.82,89.244,2.3134,0.43261,3.354e7,1e3,141.83,0.56804,0.5681,0.34479,0.078921,0.14433,0.028051,0.064591,2.4699e-4,0,0,0,0,3.7373e-4,0.018788,6.2992,201.06,77.956,0.018789,NaN,11.341,947.59,338.17,0.05,0.047821
5.8612,570.01,143.69,14.249,146.64,15.092,91.928,0.018239,91.928,0.011368,29.257,4.9744,28.61,-80.599,9.7904,0.15287,0,0.0051004,-1.4271e-6,34888,6651.9,55.855,0.28509,103.87,89.199,2.3291,0.43491,33696348,1e3,143.33,0.5685,0.56854,0.34472,0.079187,0.14459,0.023811,0.054644,-4.1586e-4,0,0,0,0,4.2733e-4,0.018885,6.2992,201.06,77.867,0.018735,NaN,11.295,946.79,338.14,0.05,0.048139
5.9112,577.22,144.4,14.206,147.39,15.099,93.397,0.018747,93.397,0.011501,29.509,5.1161,28.61,-80.599,9.7904,0.057294,0,0.0053214,-9.7715e-7,34847,6611.2,55.814,0.28497,104.05,89.154,2.3653,0.43709,33844286,1e3,144.76,0.56893,0.56894,0.34466,0.079441,0.14484,0.0088751,0.020115,3.452e-5,0,0,0,0,4.6059e-4,0.018982,6.2992,201.06,77.773,0.018696,NaN,11.248,945.98,338.12,0.05,0.048492
5.9612,584.45,145.11,14.164,148.14,15.105,94.879,0.019265,94.879,0.011634,29.769,5.2486,28.61,-80.599,9.7904,0.028521,0,-0.0053317,6.4091e-6,34806,6570.5,55.774,0.28485,104.11,89.109,2.3817,0.4393,33992938,1e3,146.21,0.56937,0.56937,0.34459,0.079696,0.14509,0.0044111,0.011117,1.153e-5,0,0,0,0,-4.5783e-4,0.019079,6.2992,201.06,77.677,0.018808,NaN,11.201,945.17,338.09,0.05,0.049181
6.0112,591.73,145.82,14.134,148.88,15.099,96.374,0.019791,96.374,0.011766,30.032,5.3115,28.61,-80.599,9.7904,0.051573,0,-0.0052595,3.475e-6,34765,6529.7,55.733,0.28473,104.07,89.064,2.3824,0.4416,34149013,1e3,147.73,0.56983,0.56984,0.34452,0.079964,0.14535,0.007988,0.019775,-7.8605e-5,0,0,0,0,-4.4095e-4,0.019176,6.2992,201.06,77.581,0.019002,NaN,11.154,944.36,338.06,0.05,0.049521
6.0612,599.04,146.53,14.09,149.63,15.107,97.883,0.020328,97.883,0.011899,30.302,5.4508,28.61,-80.599,9.7903,0.14112,0,-0.0050385,2.9923e-6,34725,6489,55.692,0.28461,103.9,89.018,2.3632,0.44378,34295398,1e3,149.19,0.57027,0.5703,0.34445,0.080218,0.1456,0.021975,0.052192,-4.9933e-4,0,0,0,0,-4.0077e-4,0.019273,6.2992,201.06,77.488,0.019213,NaN,11.106,943.54,338.03,0.05,0.049844
6.1112,606.38,147.23,14.052,150.37,15.109,99.404,0.020874,99.404,0.012032,30.577,5.5518,28.61,-80.599,9.7903,0.19754,0,-0.0046645,2.9112e-6,34684,6448.2,55.651,0.28449,103.8,88.972,2.3542,0.446,34444679,1e3,150.68,0.57071,0.57078,0.34438,0.080476,0.14586,0.030864,0.073093,-1.8822e-4,0,0,0,0,-3.4013e-4,0.01937,6.2992,201.06,77.401,0.019457,NaN,11.059,942.72,338,0.05,0.050163
6.1612,613.76,147.93,14.015,151.12,15.111,100.94,0.02143,100.94,0.012164,30.857,5.6505,28.61,-80.599,9.7903,0.25337,0,-0.0041535,3.1214e-6,34643,6407.5,55.61,0.28437,103.7,88.927,2.3454,0.44821,34592284,1e3,152.18,0.57116,0.57127,0.34431,0.080733,0.14612,0.039719,0.093555,-8.3898e-5,0,0,0,0,-2.6708e-4,0.019467,6.2992,201.06,77.321,0.019703,NaN,11.011,941.9,337.97,0.05,0.050615
6.2112,621.17,148.63,13.985,151.86,15.107,102.49,0.021997,102.49,0.012297,31.142,5.7123,28.61,-80.599,9.7903,0.2809,0,-0.0035454,2.6164e-6,34602,6366.8,55.569,0.28425,103.65,88.881,2.3451,0.45044,34741664,1e3,153.69,0.57161,0.57175,0.34424,0.080994,0.14638,0.044111,0.10326,4.9414e-4,0,0,0,0,-1.9271e-4,0.019564,6.2992,201.06,77.252,0.019956,NaN,10.962,941.07,337.94,0.05,0.05083
6.2612,628.62,149.33,13.962,152.61,15.098,104.05,0.022574,104.05,0.01243,31.428,5.7451,28.61,-80.599,9.7902,0.28808,0,-0.0028905,9.5652e-7,34562,6326,55.528,0.28413,103.64,88.835,2.3507,0.45269,34891711,1e3,155.21,0.57206,0.57221,0.34417,0.081255,0.14664,0.045261,0.10697,-6.7701e-5,0,0,0,0,-1.2684e-4,0.019661,6.2992,201.06,77.194,0.02009,NaN,10.914,940.24,337.91,0.05,0.051001
6.3112,636.11,150.03,13.946,153.35,15.082,105.63,0.023161,105.63,0.012563,31.716,5.7407,28.61,-80.599,9.7902,0.26901,0,-0.0022368,7.0275e-7,34521,6285.3,55.487,0.28401,103.68,88.789,2.3641,0.45496,35043273,1e3,156.76,0.57252,0.57265,0.3441,0.081521,0.14691,0.042224,0.10032,-3.5419e-4,0,0,0,0,-7.5215e-5,0.019758,6.2992,201.06,77.148,0.020168,NaN,10.865,939.4,337.88,0.05,0.051478
6.3612,643.63,150.73,13.939,154.09,15.058,107.23,0.023759,107.23,0.012696,32.002,5.6974,28.61,-80.599,9.7902,0.2228,0,-0.0016607,7.0152e-7,34480,6244.5,55.446,0.28389,103.77,88.743,2.3856,0.45726,35196739,1e3,158.32,0.57299,0.57308,0.34402,0.081789,0.14718,0.034882,0.083519,-3.4266e-4,0,0,0,0,-4.105e-5,0.019854,6.2992,201.06,77.113,0.020228,NaN,10.816,938.56,337.85,0.05,0.05187
6.4112,651.18,151.43,13.929,154.83,15.038,108.83,0.024368,108.83,0.012828,32.286,5.6666,28.61,-80.599,9.7902,0.19039,0,-0.0011689,1.4902e-6,34439,6203.8,55.404,0.28378,103.83,88.697,2.403,0.45952,35346720,1e3,159.87,0.57345,0.57352,0.34395,0.082053,0.14745,0.029754,0.071801,-2.992e-4,0,0,0,0,-2.0141e-5,0.019951,6.2992,201.06,77.088,0.020301,NaN,10.767,937.72,337.82,0.05,0.052247
6.4612,658.77,152.12,13.915,155.57,15.022,110.45,0.024987,110.45,0.012961,32.569,5.6593,28.61,-80.599,9.7902,0.1799,0,-7.2192e-4,1.4677e-6,34399,6163.1,55.363,0.28366,103.86,88.65,2.414,0.46173,35492110,1e3,161.38,0.5739,0.57396,0.34388,0.082311,0.14772,0.028101,0.067375,3.6989e-4,0,0,0,0,-7.611e-6,0.020047,6.2992,201.06,77.071,0.020412,NaN,10.718,936.87,337.79,0.05,0.052602
6.5112,666.39,152.82,13.905,156.31,15.003,112.09,0.025616,112.09,0.013094,32.852,5.6345,28.61,-80.599,9.7901,0.15847,0,-2.8644e-4,2.1243e-6,34358,6122.3,55.321,0.28354,103.9,88.604,2.4282,0.46394,35637485,1e3,162.91,0.57436,0.5744,0.34381,0.08257,0.14798,0.024726,0.060503,8.0929e-5,0,0,0,0,-1.187e-6,0.020143,6.2992,201.06,77.062,0.020511,NaN,10.668,936.02,337.76,0.05,0.052968
